stop_name,train_class,day_of_week,avg_arrival_delay,median_arrival_delay,count_trains,count_stops,count_3m_delay,count_5m_delay,count_10m_delay,stop_lat,stop_lon
ANCONA,,Mon,6.852739726027397,3.0,25,292,141,114,69,43.607734,13.497665
BARI CENTRALE,,Mon,4.2507552870090635,1.0,28,331,124,98,64,41.11774,16.869601
BATTIPAGLIA,,Mon,3.5223880597014925,1.0,6,67,22,18,10,40.605789,14.98324
BOLOGNA C.LE,,Mon,6.962264150943396,4.0,27,318,168,133,76,44.50626,11.342267
CERVIGNANO A.G.,,Mon,1.12,1.0,5,50,13,5,1,45.823948,13.342866
CIVITANOVA MARCHE,,Mon,10.346153846153847,6.0,2,26,18,14,8,43.3091,13.7257
CIVITAVECCHIA,,Mon,2.9692307692307693,1.0,11,130,51,39,17,42.088287,11.79815
FABRIANO,,Mon,4.12,2.0,2,25,8,6,2,43.345429,12.905336
FAENZA,,Mon,11.441176470588236,8.0,6,68,48,42,29,44.293594,11.883268
FALCONARA MARITTIMA,,Mon,6.32,2.0,2,25,8,7,3,43.630577,13.397378
FOGGIA,,Mon,8.05050505050505,5.0,33,396,238,182,107,41.466,15.555816
FOLIGNO,,Mon,5.48,1.0,2,25,6,6,3,42.954261,12.711096
GENOVA BRIGNOLE,,Mon,3.771689497716895,1.0,18,219,66,49,25,44.407213,8.947553
LAMEZIA TERME CENTRALE,,Mon,4.825842696629214,1.0,16,178,54,42,20,38.921347,16.255577
LECCE,,Mon,4.708955223880597,1.0,11,134,52,43,28,40.34566,18.165724
MANTOVA,,Mon,1.5384615384615385,-1.0,1,13,2,1,1,45.158746,10.783165
METAPONTO,,Mon,-3.6363636363636362,-4.0,1,11,0,0,0,40.368496,16.815176
MONFALCONE,,Mon,1.9215686274509804,1.0,5,51,13,5,1,45.807683,13.542929
NAPOLI CENTRALE,,Mon,6.691860465116279,3.0,55,688,335,263,156,40.852933,14.272908
PALAZZOLO SULL`OGLIO,,Mon,-1.2857142857142858,-3.0,2,7,2,0,0,45.601486,9.896235
PAOLA,,Mon,3.8374384236453203,0.0,18,203,68,47,24,39.359442,16.033093
PARMA,,Mon,7.972972972972973,5.0,19,222,143,101,54,44.810203,10.32837
PERUGIA,,Mon,-1.7692307692307692,-4.0,1,13,2,1,0,43.103808,12.375567
PESCHIERA DEL GARDA,,Mon,4.295880149812734,3.0,21,267,119,68,25,45.438502,10.702509
PORTOGRUARO CAORLE,,Mon,1.7307692307692308,1.0,2,26,7,2,1,45.781438,12.832375
REGGIO CALABRIA CENTRALE,,Mon,3.652173913043478,-2.0,8,92,25,21,10,38.103884,15.635844
REGGIO EMILIA,,Mon,9.27927927927928,7.0,19,222,154,123,66,44.697793,10.643093
ROSARNO,,Mon,5.52808988764045,1.0,16,178,58,45,22,38.488593,15.970149
ROVIGO,,Mon,2.298611111111111,0.0,12,144,30,21,10,45.076993,11.780892
SARZANA,,Mon,4.0,1.0,2,26,12,5,3,44.108865,9.960657
SCALEA S.DOMENICA TALAO,,Mon,6.403846153846154,5.0,6,52,33,22,10,39.8083,15.80139
TORANO LATTARICO,,Mon,4.6,0.0,2,25,9,8,6,39.49455,16.210509
TORINO LINGOTTO,,Mon,3.923076923076923,1.0,2,26,10,9,3,45.0266,7.657469
TORINO PORTA SUSA,,Mon,3.6641651031894935,1.0,44,533,130,98,50,45.075906,7.667673
UDINE,,Mon,0.76,-3.0,2,25,6,4,2,46.055791,13.242003
VALLO DELLA LUC. CASTELNUOVO,,Mon,5.7272727272727275,3.0,6,77,34,26,15,40.233316,15.266511
VERONA PORTA NUOVA,,Mon,4.1114599686028255,3.0,50,637,270,161,53,45.428603,10.982377
VIBO VALENZIA PIZZO,,Mon,5.425742574257426,1.0,8,101,33,25,12,38.714593,16.139887
AGROPOLI CASTELLABATE,,Mon,6.28,3.0,2,25,12,10,6,40.351521,15.002053
ASTI,,Mon,6.5,3.0,2,26,13,9,4,44.89479,8.208112
BRINDISI,,Mon,3.9845559845559846,0.0,22,259,86,68,46,40.634339,17.938978
CARPI,,Mon,6.153846153846154,3.0,2,26,13,9,3,44.782919,10.891952
CASERTA,,Mon,8.5,5.0,15,180,113,90,53,41.068655,14.328457
CECINA,,Mon,5.961538461538462,4.0,2,26,14,10,6,43.31028,10.514225
CESENA,,Mon,10.878504672897197,8.0,9,107,74,63,45,44.145449,12.24964
GENOVA P.PRINCIPE,,Mon,6.214285714285714,3.0,13,154,76,58,28,44.417784,8.9207
LA SPEZIA CENTRALE,,Mon,3.4444444444444446,2.0,17,207,82,49,16,44.11141,9.813906
LATISANA LIGNANO B.,,Mon,2.6862745098039214,1.0,5,51,17,10,2,45.777733,13.001101
LIVORNO CENTRALE,,Mon,4.253846153846154,2.0,11,130,50,31,11,43.55406,10.336593
MILANO ROGOREDO,,Mon,4.9411764705882355,2.0,57,680,278,185,92,45.433866,9.2391
NAPOLI AFRAGOLA,,Mon,6.463548830811554,4.0,60,727,364,283,158,,
PORDENONE,,Mon,-0.7450980392156863,-3.0,4,51,6,4,2,45.956281,12.654126
REGGIO EMILIA AV,,Mon,6.493693693693694,4.0,47,555,302,229,95,44.779886,10.744171
RHO FIERA MILANO,,Mon,4.720379146919432,3.0,19,211,86,53,27,,
RICCIONE,,Mon,10.01923076923077,5.0,7,52,35,25,19,43.999218,12.658549
ROMA TERMINI,,Mon,4.602162777461582,2.0,140,1757,684,471,225,41.900636,12.502026
ROVERETO,,Mon,5.696774193548387,3.0,12,155,77,49,16,45.890985,11.033518
TARANTO,,Mon,1.7692307692307692,0.0,1,13,3,3,1,40.483727,17.224059
TERMOLI,,Mon,7.2314410480349345,4.0,19,229,118,91,55,42.000623,14.992805
VENEZIA MESTRE,,Mon,1.6327231121281465,0.0,70,874,151,88,49,45.482123,12.232069
VICENZA,,Mon,2.167076167076167,1.0,32,407,110,63,24,45.541102,11.540762
ALESSANDRIA,,Mon,4.269230769230769,1.0,2,26,9,7,3,44.909091,8.606498
AREZZO,,Mon,3.9220779220779223,2.0,6,77,30,22,11,43.461725,11.874189
BENEVENTO,,Mon,8.359281437125748,7.0,14,167,105,91,54,41.141901,14.769998
CHIAVARI,,Mon,4.239316239316239,3.0,10,117,50,34,12,44.315156,9.322464
CONEGLIANO,,Mon,2.196078431372549,1.0,4,51,10,5,3,45.884706,12.298909
FIRENZE CAMPO MARTE,,Mon,4.775,4.0,9,80,43,29,5,43.776856,11.27702
FIRENZE S.M.N.,,Mon,4.775158658204896,3.0,90,1103,500,334,141,43.776893,11.247373
FIUMICINO AEROPORTO,,Mon,0.5769230769230769,-1.0,4,52,5,2,1,41.793673,12.251728
GIOIA TAURO,,Mon,3.9615384615384617,-1.0,4,52,9,7,6,38.423436,15.897516
GROSSETO,,Mon,3.3615384615384616,1.0,11,130,44,30,10,42.76728,11.1065
JESI,,Mon,5.608695652173913,0.0,2,23,8,4,3,43.520164,13.251316
MILANO CENTRALE,,Mon,6.286127167630058,3.0,86,1038,448,341,188,45.486347,9.204528
ORTE,,Mon,-1.2692307692307692,-3.0,2,26,3,3,0,42.43728,12.408986
PESCARA,,Mon,7.388888888888889,4.0,21,252,133,106,59,42.467789,14.205066
PIACENZA,,Mon,5.9,4.0,5,60,31,23,11,45.052238,9.70633
POTENZA CENTRALE,,Mon,-0.8181818181818182,-3.0,1,11,2,2,1,40.629469,15.806808
RAVENNA,,Mon,11.166666666666666,0.0,1,12,6,4,4,44.419155,12.208404
RIMINI,,Mon,5.891812865497076,2.0,29,342,154,129,85,44.064176,12.574093
RIMINIFIERA,,Mon,17.954545454545453,12.0,11,22,16,15,12,,
S.BENEDETTO DEL TRONTO,,Mon,9.047619047619047,5.0,12,147,84,70,41,42.954386,13.882297
SALERNO,,Mon,4.48695652173913,0.0,28,345,133,110,62,40.675137,14.772822
SAPRI,,Mon,4.441558441558442,1.0,6,77,26,22,12,40.078013,15.627204
SIBARI,,Mon,9.25,6.0,1,12,8,7,4,39.749863,16.456922
SPOLETO,,Mon,6.6,3.0,2,25,8,6,3,42.748121,12.736142
TERNI,,Mon,4.6,2.0,2,15,5,3,2,42.570768,12.651091
TERONTOLA CORTONA,,Mon,2.423076923076923,1.0,2,26,8,5,1,43.210263,12.007906
TRENTO,,Mon,5.690322580645161,3.0,12,155,65,36,14,46.072414,11.118941
TREVISO C.,,Mon,1.588235294117647,-1.0,4,51,11,7,4,45.659608,12.24614
TRIESTE CENTRALE,,Mon,4.368421052631579,-2.0,4,38,7,5,2,45.657456,13.771873
VIAREGGIO,,Mon,5.1,3.0,11,130,64,44,15,43.865947,10.257886
VILLA SAN GIOVANNI,,Mon,3.292134831460674,-1.0,16,178,42,34,21,38.216638,15.634336
BARLETTA,,Mon,8.081232492997199,3.0,30,357,174,149,105,41.315227,16.278867
BERGAMO,,Mon,-2.6666666666666665,-3.0,3,36,3,1,1,45.690271,9.675082
BOLOGNA C.LE/AV,,Mon,3.509916826615483,1.0,127,1563,535,375,179,44.50626,11.342267
BRESCIA,,Mon,3.1841584158415843,2.0,40,505,187,104,31,45.532315,10.212828
CAMPIGLIA MARITTIMA,,Mon,2.876923076923077,1.0,11,130,40,26,9,43.017118,10.586558
CASSINO,,Mon,2.6153846153846154,1.0,2,26,8,5,2,41.484306,13.832125
CHIUSI C.T.,,Mon,12.5,8.0,2,2,2,2,1,43.002466,11.957893
DESENZANO,,Mon,3.960698689956332,3.0,18,229,95,56,14,45.462677,10.536322
FERRANDINA,,Mon,-0.7272727272727273,-1.0,1,11,0,0,0,40.516566,16.475276
FERRARA,,Mon,4.491909385113269,3.0,25,309,123,69,29,44.843047,11.603594
FORLI`,,Mon,8.885135135135135,6.0,13,148,91,81,53,44.22413,12.054871
FROSINONE,,Mon,1.3846153846153846,1.0,2,26,6,3,1,41.625333,13.328728
GIOIA DEL COLLE,,Mon,1.6923076923076923,0.0,2,26,4,4,4,40.796983,16.916569
GIULIANOVA,,Mon,4.913043478260869,3.0,2,23,9,8,4,42.751673,13.965743
MARATEA,,Mon,5.6,4.0,2,25,13,9,5,39.995028,15.70975
MASSA CENTRO,,Mon,3.8333333333333335,3.0,13,156,61,41,15,44.023741,10.136041
MILANO PORTA GARIBALDI,,Mon,4.685990338164252,2.0,17,207,74,47,21,45.484917,9.187683
MODENA,,Mon,9.53225806451613,6.0,21,248,181,144,83,44.654461,10.930373
PADOVA,,Mon,2.340400471142521,1.0,67,849,185,123,48,45.417846,11.880794
PAVIA,,Mon,6.96,5.0,5,50,30,23,11,45.188843,9.144674
PESARO,,Mon,8.59621451104101,5.0,27,317,178,135,99,43.906014,12.904848
PISA CENTRALE,,Mon,4.0144927536231885,3.0,17,207,86,56,18,43.70794,10.398183
RAPALLO,,Mon,7.5,7.0,3,4,4,3,0,44.351398,9.231282
ROMA TIBURTINA,,Mon,3.5948352626892253,2.0,97,1123,371,248,117,41.910903,12.530749
S. DONA` DI PIAVE,,Mon,-0.2692307692307692,-1.0,2,26,8,3,1,45.63983,12.559791
TORINO P.NUOVA,,Mon,5.670175438596491,1.0,23,285,97,71,42,45.060969,7.67747
TRIESTE AIRPORT,,Mon,2.2337662337662336,0.0,7,77,19,12,6,,
VENEZIA SANTA LUCIA,,Mon,2.546916890080429,1.0,30,373,76,51,28,45.441569,12.320882
