stop_name,train_class,day_of_week,avg_arrival_delay,median_arrival_delay,count_trains,count_stops,count_3m_delay,count_5m_delay,count_10m_delay,stop_lat,stop_lon
ABBASANTA,REG,Wed,1.3254716981132075,0.0,17,212,29,20,12,40.128801,8.817733
ACQUA ACETOSA,REG,Wed,3.18978102189781,3.0,32,411,153,55,6,41.794294,12.616449
ACQUAFREDDA,REG,Wed,1.0,1.0,1,1,0,0,0,40.035527,15.671846
ACQUAVIVA DELLE FONTI,REG,Wed,0.9342105263157895,1.0,31,380,21,10,7,40.892806,16.839826
AFRICO NUOVO,REG,Wed,3.7286821705426356,2.0,10,129,43,24,11,38.053759,16.144283
ALA,REG,Wed,4.808625336927224,4.0,58,742,374,248,85,45.760087,10.996775
ALANNO,REG,Wed,5.319354838709677,5.0,24,310,273,94,4,42.287185,14.019595
ALANO FENER VALDOBBIADENE,REG,Wed,1.545045045045045,1.0,28,222,45,21,7,45.90229,11.944546
ALASSIO,REG,Wed,5.108247422680412,3.0,46,582,284,172,55,44.007889,8.17112
ALBANO LAZIALE,REG,Wed,-0.853448275862069,-1.0,18,232,5,2,0,41.72632,12.658056
ALBATE-TRECALLO,REG,Wed,2.3146853146853146,1.0,22,286,53,20,5,45.777391,9.095752
ALBINIA,REG,Wed,1.7647058823529411,1.0,26,323,61,34,8,42.502165,11.21134
ALI` TERME,REG,Wed,2.008350730688935,1.0,40,479,113,67,19,38.013952,15.435184
ALTOPASCIO,REG,Wed,4.745341614906832,4.0,52,644,372,234,43,43.817418,10.672754
ANZIO,REG,Wed,1.6355140186915889,2.0,42,535,52,18,6,41.4532,12.633205
APRILIA,REG,Wed,2.4585537918871254,2.0,44,567,162,62,12,41.592386,12.639126
ARAGONA CALDARE,REG,Wed,1.327188940092166,1.0,34,434,64,25,12,37.381097,13.636837
ARBIA,REG,Wed,1.5952380952380953,1.0,10,126,15,7,2,43.294393,11.406225
ARBOSTELLA,REG,Wed,0.6666666666666666,0.0,23,24,1,1,0,40.677263,15.623814
ARDENNO MASINO,REG,Wed,4.47808764940239,3.0,20,251,108,64,17,46.16198,9.651374
ARECHI,REG,Wed,0.055970149253731345,0.0,31,268,1,1,0,,
ARENZANO,REG,Wed,1.1242873432155074,0.0,68,877,124,77,30,44.403089,8.678322
AREZZO,REG,Wed,2.339243498817967,1.0,66,846,249,133,50,43.461725,11.874189
ARTEGNA,REG,Wed,3.0,3.0,1,1,0,0,0,46.23115,13.162328
ASCIANO MONTE OLIVETO MAGGIORE,REG,Wed,3.111842105263158,2.0,24,304,93,43,8,43.231706,11.563621
ASCOLI PICENO,REG,Wed,-1.1675392670157068,-2.0,15,191,12,10,5,42.855474,13.587939
ASSEMINI CARMINE,REG,Wed,0.4411764705882353,0.0,35,340,23,7,2,,
AVIANO,REG,Wed,0.4171779141104294,0.0,14,163,6,5,3,46.064362,12.590686
AVIGLIANO LUCANIA,REG,Wed,1.5744047619047619,1.0,26,336,57,26,7,40.714667,15.785619
BADOLATO,REG,Wed,3.734375,4.0,5,64,34,20,4,38.572268,16.567646
BAGNACAVALLO,REG,Wed,4.5574468085106385,4.0,37,470,249,129,31,44.412138,11.969398
BAGNI DI LUCCA,REG,Wed,2.546242774566474,2.0,27,346,102,41,3,44.003447,10.551631
BAGNI DI TIVOLI,REG,Wed,2.2082825822168086,2.0,65,821,205,78,17,41.949593,12.722208
BAGNOLO IN PIANO,REG,Wed,1.0808080808080809,0.0,24,198,28,17,6,,
BALDICHIERI,REG,Wed,2.5917874396135265,2.0,33,414,92,39,6,44.899204,8.091198
BARI TORRE A MARE,REG,Wed,2.0951957295373664,1.0,90,1124,243,131,61,41.082637,16.995772
BARI VILLAGGIO DEL LAVORATORE,REG,Wed,3.456090651558074,1.0,29,353,156,122,9,,
BASILIANO,REG,Wed,2.3402597402597403,2.0,32,385,63,28,11,46.012737,13.109233
BASTIA,REG,Wed,3.244,3.0,39,500,192,95,13,43.07133,12.547735
BEAULARD,REG,Wed,2.4779735682819384,1.0,35,454,81,41,12,45.046495,6.759713
BELLUNO,REG,Wed,0.45346062052505964,0.0,50,419,25,12,10,46.141594,12.209703
BERCETO,REG,Wed,2.6424116424116426,1.0,42,481,164,102,33,44.555912,9.931759
BESANA,REG,Wed,2.352589641434263,2.0,39,502,144,63,13,45.702824,9.28288
BIAGIONI LAGACCI,REG,Wed,2.3783783783783785,2.0,12,148,23,5,3,44.086359,10.948257
BISUSCHIO VIGGIU,REG,Wed,3.698850574712644,2.0,34,435,118,62,24,45.870658,8.887544
BIVIO D`AURISINA,REG,Wed,2.3856382978723403,1.0,30,376,65,26,13,45.754253,13.655777
BOLOGNA MAZZINI,REG,Wed,2.5172413793103448,2.0,58,609,98,47,12,44.482284,11.376271
BORETTO,REG,Wed,1.2914798206278026,0.0,25,223,27,18,8,,
BORGO A MOZZANO,REG,Wed,4.141065830721003,3.0,25,319,158,68,14,43.977207,10.541285
BORGO LAVEZZARO,REG,Wed,2.6353383458646618,1.0,21,266,61,35,10,45.318783,8.703242
BORGO VAL DI TARO,REG,Wed,2.787746170678337,2.0,40,457,143,91,28,44.486522,9.781489
BORGO VALSUGANA EST,REG,Wed,2.3523316062176165,2.0,15,193,54,15,1,46.05224,11.462119
BORGO VERCELLI,REG,Wed,0.7678571428571429,0.0,26,336,30,18,4,45.359252,8.461474
BORGOCHIESANUOVA,REG,Wed,3.4690721649484537,2.0,31,388,125,74,29,,
BOVISO MASCIAGO - MOMBELLO,REG,Wed,0.9614147909967846,1.0,28,311,18,10,3,,
BRACCIANO,REG,Wed,2.4247226624405704,2.0,64,631,174,51,10,42.103667,12.173023
BRESCIA,REG,Wed,2.392334494773519,1.0,117,1435,382,202,77,45.532315,10.212828
BRESSANA BOTTARONE,REG,Wed,4.834183673469388,4.0,31,392,205,127,31,45.086298,9.110602
BRESSANONE,REG,Wed,2.757328990228013,1.0,48,614,141,108,44,46.710088,11.649677
BRIATICO,REG,Wed,2.9597701149425286,3.0,14,174,62,30,2,38.725447,16.025765
BRINDISI,REG,Wed,1.5640625,1.0,52,640,130,73,29,40.634339,17.938978
BUCCINO S.,REG,Wed,0.945054945054945,1.0,10,91,23,7,2,40.600806,15.374199
BUDOIA POLCENIGO,REG,Wed,-0.147239263803681,-1.0,14,163,7,6,4,46.031464,12.537637
BUSSETO,REG,Wed,2.304812834224599,2.0,15,187,38,14,3,44.974692,10.038909
BUSSI,REG,Wed,0.5934065934065934,0.0,7,91,3,2,2,42.194154,13.849075
BUSTO ARSIZIO N.,REG,Wed,1.1316666666666666,1.0,51,600,52,15,4,,
CAIRO MONTENOTTE,REG,Wed,0.11363636363636363,-1.0,17,220,9,6,3,44.394747,8.278786
CALCERANICA,REG,Wed,3.7233009708737863,3.0,16,206,94,45,0,46.007384,11.240713
CALTANISSETTA CENTRALE,REG,Wed,-0.7870036101083032,-2.0,23,277,39,20,9,37.48829,14.057396
CALUSCO,REG,Wed,5.739043824701195,5.0,40,502,341,206,45,45.684113,9.470646
CAMBIANO SANTENA,REG,Wed,1.4578313253012047,1.0,33,415,54,24,4,44.966491,7.773225
CAMOGLI SAN FRUTTUOSO,REG,Wed,6.25,2.0,4,4,2,2,1,44.348166,9.156743
CAMPO DI CARNE,REG,Wed,2.126984126984127,1.0,44,567,136,60,12,41.552116,12.635125
CAMPOBELLO DI MAZARA,REG,Wed,0.340625,-1.0,25,320,42,18,9,37.636256,12.733165
CAMPOBELLO RAVANUSA,REG,Wed,3.2916666666666665,2.0,6,72,21,13,3,37.265731,13.946251
CAMPOFRANCO,REG,Wed,3.093093093093093,2.0,26,333,108,50,11,37.510105,13.686777
CAMPOLEONE,REG,Wed,2.2503607503607506,1.0,109,1386,320,155,50,41.642396,12.648341
CAMPOSAMPIERO,REG,Wed,0.483640081799591,0.0,80,978,76,34,7,45.568922,11.928293
CAMPOSANTO,REG,Wed,2.4198988195615514,1.0,47,593,130,79,16,44.787527,11.143587
CAMUCIA CORTONA,REG,Wed,4.189141856392294,3.0,45,571,239,133,45,43.261104,11.971245
CANCELLO,REG,Wed,2.988888888888889,2.0,72,900,280,141,46,40.993063,14.418877
CANDIOLO,REG,Wed,4.765124555160142,4.0,44,562,318,200,29,44.961155,7.598973
CANNETO SULL`OGLIO,REG,Wed,6.509740259740259,5.0,24,308,215,148,51,45.150211,10.37147
CAPACI,REG,Wed,7.0,7.0,1,1,1,1,0,38.171794,13.232398
CAPANNELLE,REG,Wed,2.0714806710430342,1.0,109,1371,280,123,33,41.830713,12.568884
CAPO D`ORLANDO-NASO,REG,Wed,1.9782608695652173,1.0,36,460,90,51,15,38.157941,14.744844
CAPUA,REG,Wed,3.075609756097561,2.0,35,410,125,70,27,41.101306,14.210347
CARATE-CALO`,REG,Wed,2.9961089494163424,2.0,40,514,155,66,13,45.676451,9.252304
CARBONA,REG,Wed,2.652173913043478,2.0,9,115,23,8,0,44.246876,11.09618
CARBONIA SERBARIU,REG,Wed,0.1,-1.0,16,190,9,7,2,39.169508,8.509186
CARIATI,REG,Wed,4.865306122448979,4.0,20,245,139,89,20,39.496884,16.952018
CARINI,REG,Wed,0.8594470046082949,1.0,68,868,30,6,3,38.147696,13.186624
CARINI TORRE CIACHEA,REG,Wed,10.75,10.0,4,4,4,4,2,38.16149,13.219641
CARMAGNOLA,REG,Wed,1.6566308243727599,1.0,109,1395,217,106,31,44.846944,7.72797
CARPIGNANO SESIA,REG,Wed,3.1197411003236244,2.0,29,309,87,30,8,45.528934,8.422898
CASALGRANDE,REG,Wed,2.113821138211382,1.0,16,123,23,19,8,,
CASALPUSTERLENGO,REG,Wed,2.8891352549889135,2.0,71,902,275,148,46,45.182473,9.653627
CASLINO D'ERBA,REG,Wed,0.010948905109489052,0.0,22,274,0,0,0,,
CASORATE SEMPIONE,REG,Wed,4.958024691358025,3.0,32,405,202,135,40,45.675075,8.743954
CASORIA,REG,Wed,1.7614973262032085,1.0,73,935,178,92,26,40.907762,14.29874
CASSAGO-NIBIONNO-BULCIAGO,REG,Wed,3.3177189409368637,2.0,38,491,171,76,14,45.746243,9.279834
CASSINE,REG,Wed,4.140096618357488,4.0,16,207,115,54,9,44.751513,8.533613
CASSINO,REG,Wed,-0.19878603945371776,-1.0,52,659,79,47,23,41.484306,13.832125
CASSOLA,REG,Wed,1.0,1.0,1,1,0,0,0,45.732291,11.795866
CASTELLALTO CANZANO,REG,Wed,0.9016736401673641,1.0,38,478,42,11,3,42.69564,13.793043
CASTELLANETA,REG,Wed,1.4707792207792207,1.0,25,308,27,8,2,,
CASTELLANETA MARINA,REG,Wed,2.4038461538461537,1.0,4,52,13,8,2,40.481111,16.965434
CASTELLEONE,REG,Wed,5.368070953436807,3.0,35,451,223,149,61,45.301826,9.76779
CASTELLO D`ANNONE,REG,Wed,2.6923076923076925,2.0,13,169,45,17,2,44.878742,8.312724
CASTELLUCCHIO,REG,Wed,4.476878612716763,2.0,28,346,139,96,34,45.144293,10.64749
CASTELMAGGIORE,REG,Wed,2.966417910447761,2.0,43,536,154,97,32,44.576055,11.366901
CASTIGLION FIORENTINO,REG,Wed,4.064798598949212,3.0,45,571,227,134,43,43.34075,11.914362
CASTIGLIONCELLO,REG,Wed,6.666666666666667,6.0,8,9,5,5,1,43.404619,10.414354
CASTIONE ANDEVENNO,REG,Wed,2.6923076923076925,1.0,1,13,1,1,1,46.161659,9.806151
CATANIA AER. FONTANAROSSA,REG,Wed,7.25,3.0,3,4,2,2,1,,
CATENANUOVA,REG,Wed,2.380952380952381,1.0,12,105,29,20,9,37.562026,14.688263
CATTOLICA S.GIOVANNI GABICCE,REG,Wed,2.673611111111111,1.0,48,576,158,100,38,43.959931,12.745087
CAVA DEI TIRRENI,REG,Wed,0.16967509025270758,0.0,23,277,13,5,4,40.703662,14.708461
CEFALU`,REG,Wed,0.7486486486486487,0.0,29,370,38,26,11,38.03285,14.019526
CELLE BULGHERIA ROCCAGLORIOSA,REG,Wed,1.8113207547169812,1.0,17,212,46,24,11,40.10287,15.39473
CENTOLA,REG,Wed,10.333333333333334,12.0,3,3,3,3,2,40.090672,15.34674
CERDA,REG,Wed,2.6439024390243904,2.0,16,205,38,20,11,37.953964,13.78447
CERNUSCO-MERATE,REG,Wed,3.515323496027242,1.0,71,881,258,145,61,45.695096,9.396794
CERVIGNANO A.G.,REG,Wed,1.021978021978022,0.0,65,819,105,54,26,45.823948,13.342866
CESENA,REG,Wed,1.0141388174807198,0.0,62,778,175,110,37,44.145449,12.24964
CESENATICO,REG,Wed,2.997737556561086,1.0,35,442,112,66,27,44.20065,12.391186
CETRARO,REG,Wed,2.461077844311377,1.0,26,334,66,35,13,39.512553,15.939263
CHATILLON SAINT VINCENT,REG,Wed,1.7384615384615385,1.0,38,455,102,43,14,45.7434,7.619309
CHIETI-MAD.D.P.,REG,Wed,5.085635359116022,4.0,28,362,232,120,12,,
CHIGNOLO PO,REG,Wed,3.2902097902097904,3.0,22,286,124,56,6,45.160942,9.494196
CLASSE,REG,Wed,4.828125,3.0,15,192,76,42,15,44.382033,12.234995
COCCAGLIO,REG,Wed,2.0257936507936507,1.0,39,504,118,66,12,45.560971,9.977648
COGOLETO,REG,Wed,1.6359550561797753,1.0,69,890,126,72,28,44.389762,8.643906
COLLEGNO,REG,Wed,1.3857290589451914,0.0,75,967,173,83,22,45.078854,7.574131
COLORNO,REG,Wed,3.5351758793969847,2.0,31,398,154,101,35,44.927943,10.382935
COMO S. GIOVANNI,REG,Wed,1.8844036697247706,1.0,132,1635,369,205,63,45.808946,9.072331
CONDOFURI,REG,Wed,2.6619718309859155,2.0,11,142,35,13,4,37.92761,15.874952
CONDOVE,REG,Wed,0.9851576994434137,0.0,42,539,80,38,5,45.106689,7.317022
CONTIGLIANO,REG,Wed,3.4074074074074074,3.0,25,324,143,51,8,42.412072,12.779144
CORBEZZI,REG,Wed,1.6357615894039734,1.0,12,151,13,5,3,43.993948,10.919676
CORIGLIANO CALABRO,REG,Wed,3.746938775510204,2.0,20,245,107,68,19,39.628223,16.514949
CREMONA,REG,Wed,3.2117376294591486,2.0,70,869,259,148,68,45.143215,10.017951
CRESSA FONTANETO,REG,Wed,3.2657004830917873,2.0,16,207,73,47,14,45.646331,8.498435
CUCCIAGO,REG,Wed,4.4,3.0,15,20,9,7,1,45.740813,9.082205
DERVIO,REG,Wed,3.4873417721518987,2.0,25,316,123,73,17,46.077709,9.30596
DIAMANTE BUONVICINO,REG,Wed,3.6526946107784433,2.0,26,334,132,82,26,39.67701,15.824278
DICOMANO,REG,Wed,4.13317191283293,3.0,33,413,190,98,17,43.893489,11.519148
DONNAFUGATA,REG,Wed,1.8431372549019607,1.0,9,102,27,13,7,36.882055,14.568968
DORIO,REG,Wed,4.291139240506329,3.0,25,316,145,86,23,46.102756,9.319063
DORMELLETTO PAESE,REG,Wed,1.888268156424581,1.0,14,179,13,6,3,45.730032,8.574324
DUEVILLE,REG,Wed,2.621176470588235,2.0,34,425,77,37,11,45.635,11.546108
EMPOLI,REG,Wed,1.1158777120315582,0.0,167,2028,314,177,61,43.715708,10.94915
FAGARE,REG,Wed,2.4945054945054945,2.0,22,273,50,22,8,45.70705,12.444296
FALCIANO MONDRAGONE CAR.,REG,Wed,3.806640625,2.0,40,512,184,129,52,41.123525,13.971792
FANZOLO,REG,Wed,1.6528189910979227,2.0,26,337,39,9,2,45.708253,11.992069
FEDERICO,REG,Wed,0.7361647361647362,2.0,60,777,1,1,0,38.144862,13.344966
FELONICA PO,REG,Wed,2.3674698795180724,1.0,18,166,33,15,6,,
FIORENZUOLA,REG,Wed,2.6866746698679473,1.0,67,833,220,144,56,44.928716,9.917403
FIVIZZANO ROMETTA - SOLIERA,REG,Wed,3.66044776119403,2.0,21,268,84,37,9,44.201526,10.05953
FOGGIA,REG,Wed,-0.17123287671232876,0.0,34,438,60,24,11,41.466,15.555816
FOLLONICA,REG,Wed,1.864142538975501,1.0,35,449,81,55,20,42.926687,10.755775
FONDI - SPERLONGA,REG,Wed,2.4587020648967552,1.0,53,678,181,97,31,41.337663,13.424893
FORLI`,REG,Wed,2.1375321336760926,1.0,62,778,194,137,57,44.22413,12.054871
FORMIA-GAETA,REG,Wed,1.6982323232323233,1.0,62,792,196,128,50,41.258773,13.605996
FORMIGINE,REG,Wed,2.010869565217391,2.0,20,184,23,6,2,,
FOSSACESIA - TORINO DI SANGRO,REG,Wed,2.077205882352941,1.0,21,272,57,31,12,42.237648,14.525456
FRAMURA,REG,Wed,2.6953907815631264,2.0,40,499,153,94,24,44.201903,9.555169
FRANCAVILLA AL MARE,REG,Wed,2.2508038585209005,1.0,24,311,60,35,7,42.421316,14.288062
FRANCAVILLA FONTANA,REG,Wed,1.5913461538461537,0.0,16,208,36,22,7,40.523145,17.584714
FRANCIA,REG,Wed,0.5600425079702445,0.0,74,941,28,8,3,38.155233,13.321938
FRANCIOSA,REG,Wed,5.228571428571429,3.0,3,35,17,12,5,,
FROSINONE,REG,Wed,-0.884992987377279,-1.0,55,713,57,33,10,41.625333,13.328728
GAIFANA,REG,Wed,1.671875,-1.0,5,64,8,5,2,43.181837,12.784148
GAMBOLO`REMONDO`,REG,Wed,3.9329073482428116,3.0,25,313,124,53,10,45.23587,8.79757
GARLASCO,REG,Wed,1.5878594249201279,1.0,25,313,73,32,5,45.198948,8.926829
GAVORRANO,REG,Wed,2.7083333333333335,1.0,15,192,46,33,13,42.947959,10.9338
GENOVA CORNIGLIANO,REG,Wed,4.25,2.0,4,4,2,2,0,44.414752,8.865035
GENOVA P. PRINCIPE SOTTERRANEA,REG,Wed,-0.7639836289222374,-2.0,57,733,42,24,13,44.414803,8.918041
GENOVA PEGLI,REG,Wed,7.0,8.0,5,5,4,4,1,44.426236,8.816767
GENOVA QUARTO DEI MILLE,REG,Wed,2.3944281524926687,1.0,107,1364,321,176,38,44.388607,8.99597
GENOVA SESTRI PONENTE,REG,Wed,1.531617235590375,1.0,139,1787,244,123,49,44.422374,8.847707
GENOVA VIA DI FRANCIA,REG,Wed,3.0,0.0,2,2,1,1,0,44.411126,8.90192
GHEDI,REG,Wed,3.9501557632398754,2.0,25,321,118,83,39,45.409439,10.280506
GIOJOSA MAREA,REG,Wed,1.4837662337662338,1.0,25,308,54,22,6,38.175149,14.894794
GOLFO ARANCI,REG,Wed,-1.3692307692307693,-2.0,5,65,0,0,0,40.997261,9.62471
GONZAGA-REGGIOLO,REG,Wed,2.599502487562189,1.0,32,402,84,47,25,44.939239,10.815533
GRANAIOLO,REG,Wed,3.8591160220994474,3.0,30,362,181,85,13,43.652244,10.945223
GRIZZANA,REG,Wed,2.510166358595194,1.0,50,541,105,60,21,44.258292,11.181194
GRUGLIASCO,REG,Wed,5.2,3.0,5,5,2,2,1,,
GRUMELLO DEL MONTE,REG,Wed,2.124271844660194,1.0,40,515,131,59,11,45.634102,9.862767
GUARDAVALLE,REG,Wed,4.34375,5.0,5,64,38,24,3,38.480266,16.578923
GUARDIA MANGANO SANTA VENERINA,REG,Wed,8.666666666666666,7.0,2,3,3,3,1,37.661812,15.169447
GUARDIA PIEMONTESE TERME,REG,Wed,7.5,3.0,2,2,1,1,1,39.464259,15.979237
IGLESIAS,REG,Wed,-0.18473895582329317,-1.0,22,249,11,9,6,39.310563,8.539786
IL NETO,REG,Wed,36.0,36.0,1,1,1,1,1,43.839624,11.182656
INCORONATA,REG,Wed,2.293849658314351,2.0,34,439,95,59,14,41.408174,15.650728
INDUNO OLONA,REG,Wed,3.4165103189493435,2.0,86,1066,303,137,41,45.846432,8.838357
INVERIGO,REG,Wed,0.001949317738791423,0.0,41,513,0,0,0,,
ISTRANA,REG,Wed,0.7221297836938436,1.0,47,601,47,22,12,45.676539,12.102781
JESI,REG,Wed,1.2284172661870503,0.0,44,556,87,46,17,43.520164,13.251316
LA GIUSTINIANA,REG,Wed,2.392578125,2.0,144,1536,297,100,16,41.985243,12.403457
LABICO,REG,Wed,2.586452762923351,2.0,44,561,117,58,15,,
LABRO MOGGIO,REG,Wed,9.282051282051283,10.0,3,39,37,33,14,42.506131,12.746224
LADISPOLI-CERVETERI,REG,Wed,1.2487992315081653,1.0,81,1041,152,70,14,41.953502,12.081675
LAMEZIA TERME CENTRALE,REG,Wed,-1.1982758620689655,-2.0,47,580,43,21,8,38.921347,16.255577
LAMEZIA TERME SAMBIASE,REG,Wed,3.370473537604457,2.0,29,359,101,47,4,38.959927,16.284962
LANCENIGO,REG,Wed,26.5,21.0,2,2,2,2,2,45.710087,12.265663
LATERINA,REG,Wed,3.2930056710775046,2.0,41,529,168,97,29,43.496458,11.660573
LATINA,REG,Wed,1.2266226622662266,0.0,71,909,172,114,53,41.538372,12.945888
LATISANA LIGNANO B.,REG,Wed,1.3205645161290323,1.0,39,496,61,31,17,45.777733,13.001101
LECCE,REG,Wed,0.3,-1.0,22,270,34,19,14,40.34566,18.165724
LESA,REG,Wed,5.439153439153439,3.0,15,189,92,61,27,45.833042,8.566471
LESEGNO,REG,Wed,-0.9029126213592233,-1.0,16,206,5,4,0,44.385891,7.94266
LOCATE TRIULZI,REG,Wed,3.7378752886836026,3.0,72,866,380,205,19,45.35973,9.221398
LOCRI,REG,Wed,2.899749373433584,2.0,32,399,126,69,18,38.233154,16.264787
LONIGO,REG,Wed,7.0,7.0,1,1,1,1,0,45.413269,11.345016
LUINO,REG,Wed,5.031746031746032,3.0,15,189,91,57,13,45.996643,8.737464
LUNI,REG,Wed,3.3333333333333335,3.0,2,3,1,1,0,,
LUZZARA,REG,Wed,0.30985915492957744,0.0,24,213,18,7,4,,
MACERATA,REG,Wed,1.6304347826086956,0.0,25,322,63,32,11,43.293094,13.455172
MADDALONI SUPERIORE,REG,Wed,24.0,6.0,2,2,2,2,1,41.048567,14.396055
MAGNACAVALLO,REG,Wed,1.6026490066225165,0.0,16,151,27,11,7,,
MALPENSA AEROPORTO T1,REG,Wed,0.0,0.0,39,344,0,0,0,,
MANAROLA,REG,Wed,13.0,13.0,1,1,1,1,1,44.109904,9.727401
MANIAGO,REG,Wed,-1.4444444444444444,-2.0,7,81,3,3,3,46.170057,12.714527
MANTOVA FRASSINE,REG,Wed,1.0869565217391304,1.0,16,207,22,12,5,45.150491,10.831007
MANZANO,REG,Wed,1.6676300578034682,1.0,27,346,48,20,4,45.98811,13.375016
MARCARIA,REG,Wed,6.066066066066066,4.0,27,333,188,130,48,45.124518,10.533651
MARCELLINA VERBICARO ORSOMARSO,REG,Wed,2.771689497716895,1.0,17,219,64,36,11,39.766974,15.822665
MARCELLINA-PALOMBARA,REG,Wed,1.9139414802065404,1.0,46,581,117,55,11,41.999609,12.79134
MARINA DI SAN LORENZO,REG,Wed,2.7816901408450705,2.0,11,142,38,16,3,37.919844,15.826365
MASI TORELLO,REG,Wed,0.3924050632911392,0.0,18,158,15,7,4,,
MEDESANO,REG,Wed,4.130434782608695,3.0,2,23,9,5,1,44.749265,10.140335
MEINA,REG,Wed,4.26984126984127,3.0,15,189,82,59,22,45.794389,8.535452
MERANO MAIA BASSA,REG,Wed,1.9234875444839858,1.0,44,562,110,39,8,46.656202,11.147931
MESSINA CENTRALE,REG,Wed,0.49617151607963245,0.0,52,653,60,26,12,38.184975,15.561278
MEZZANI RONDANI,REG,Wed,5.461111111111111,4.0,28,360,208,141,43,44.966764,10.398818
MEZZANO,REG,Wed,2.912121212121212,2.0,26,330,65,27,14,44.463,12.098501
MIGLIARINO,REG,Wed,1.2341772151898733,1.0,18,158,15,7,4,,
MILANO LANCETTI,REG,Wed,2.9752902649598094,2.0,271,3359,988,540,162,45.492632,9.175832
MILANO NORD DOMODOSSOLA,REG,Wed,0.002666020358700921,0.0,335,4126,0,0,0,,
MILANO VENEZIA,REG,Wed,4.854079809410363,3.0,271,3358,1648,959,281,45.471121,9.201889
MINTURNO,REG,Wed,2.9703588143525743,1.0,50,641,195,154,74,41.257621,13.720664
MIRTO CROSIA,REG,Wed,5.326530612244898,4.0,20,245,151,94,23,39.604876,16.777366
MODENA PIAZZA MANZONI,REG,Wed,-0.00821917808219178,0.0,40,365,6,3,0,,
MOLA DI BARI,REG,Wed,2.8134920634920637,1.0,61,756,191,109,46,41.057227,17.080919
MOLINA CASTEL VECCHIO SUBAQUEO,REG,Wed,2.8469055374592833,2.0,24,307,104,54,7,42.143476,13.739644
MOLINO DEL PALLONE,REG,Wed,2.2885906040268456,2.0,12,149,24,5,1,44.100128,10.961252
MOLTENO,REG,Wed,2.5484848484848484,2.0,51,660,183,81,23,45.780939,9.301683
MONGARDINO,REG,Wed,1.4010416666666667,1.0,16,192,10,5,2,44.84161,8.207411
MONGUELFO VALLE DI CASIES,REG,Wed,0.5544554455445545,0.0,8,101,2,1,0,46.752775,12.107264
MONOPOLI,REG,Wed,2.6696035242290748,1.0,91,1135,244,150,59,40.952017,17.292455
MONTALE AGLIANA,REG,Wed,13.0,13.0,1,1,1,1,1,43.912924,11.008309
MONTANARO,REG,Wed,2.0914127423822713,2.0,29,361,72,31,10,45.232674,7.858331
MONTE S.BIAGIO,REG,Wed,2.4708588957055215,1.0,51,652,168,94,34,41.345967,13.347037
MONTECATINI TERME,REG,Wed,3.261068702290076,2.0,53,655,242,149,39,43.879327,10.780588
MONTECHIARO DENICE,REG,Wed,3.3772727272727274,3.0,17,220,89,43,7,44.600827,8.352185
MONTESANTO,REG,Wed,3.057057057057057,2.0,26,333,106,47,15,44.732964,11.73652
MOROLO,REG,Wed,2.1854460093896715,1.0,33,426,93,50,17,41.667018,13.194557
MORREA-CASTRONOVO-RENDINARA,REG,Wed,9.75,0.0,4,4,1,1,1,,
MORROVALLE MONTE S.GIUSTO,REG,Wed,3.0250696378830084,2.0,28,359,99,49,12,43.279189,13.58285
MOZIA-BIRGI,REG,Wed,1.9707792207792207,1.0,24,308,59,24,9,37.884956,12.499016
NAPOLI GIANTURCO,REG,Wed,15.0,15.0,1,1,1,1,1,40.853959,14.288213
NAPOLI PIAZZA LEOPARDI,REG,Wed,11.0,11.0,1,1,1,1,1,40.82397,14.199117
NEPEZZANO-PIANO D'ACCIO,REG,Wed,5.087719298245614,5.0,32,399,387,96,5,,
NIBBIA,REG,Wed,2.7209302325581395,2.0,4,43,12,3,1,45.481363,8.557993
NOLA,REG,Wed,4.592261904761905,3.0,26,336,159,87,26,40.923652,14.525004
NONE,REG,Wed,4.729055258467024,4.0,44,561,330,214,24,44.938011,7.540068
NOVATE MILANESE,REG,Wed,3.533333333333333,3.0,31,360,150,66,8,,
NOVATE-MEZZOLA,REG,Wed,0.7461538461538462,0.0,30,390,32,13,3,46.216595,9.446573
NOZZANO,REG,Wed,4.973958333333333,4.0,15,192,103,74,16,43.829956,10.40716
OLCIO,REG,Wed,4.128289473684211,3.0,24,304,126,81,22,45.938011,9.313898
OLEVANO,REG,Wed,3.6546052631578947,2.0,24,304,99,54,18,45.212119,8.71182
OLGIATE-CALCO-BRIVIO,REG,Wed,3.231042654028436,1.0,68,844,218,128,50,45.729166,9.40377
OMEGNA CRUSINALLO,REG,Wed,3.301282051282051,2.0,12,156,43,31,5,45.898138,8.413929
OMIGNANO SALENTO,REG,Wed,3.253687315634218,2.0,27,339,119,83,26,40.252688,15.134406
ORIA,REG,Wed,2.389423076923077,1.0,16,208,46,26,10,40.508167,17.646534
ORTE,REG,Wed,2.4223968565815324,1.0,82,1018,249,149,62,42.43728,12.408986
OSCHIRI,REG,Wed,1.7881773399014778,1.0,16,203,19,11,9,40.713273,9.107749
OSPEDALETTO EUGANEO,REG,Wed,1.8057971014492753,1.0,27,345,51,22,5,45.221706,11.606553
OULX CESANA CLAVIERE SESTRIERE,REG,Wed,1.7048458149779735,1.0,35,454,65,42,11,45.038789,6.831432
PADERNO ROBBIATE,REG,Wed,6.135188866799205,5.0,40,503,349,234,52,45.678307,9.439202
PADIGLIONE,REG,Wed,0.6708860759493671,0.0,43,553,69,29,7,41.513518,12.629476
PALERMO BRANCACCIO,REG,Wed,0.5292841648590022,0.0,37,461,23,8,1,38.093141,13.392508
PALERMO CENTRALE,REG,Wed,-0.553082191780822,-1.0,95,1168,71,32,18,38.109187,13.367515
PALIDANO,REG,Wed,4.631443298969073,3.0,31,388,139,70,32,44.972228,10.777412
PALLANZENO,REG,Wed,3.0705128205128207,2.0,12,156,43,22,6,46.043533,8.260645
PANTANELLA,REG,Wed,3.292682926829268,3.0,32,410,204,74,7,,
PAULILATINO,REG,Wed,-1.403225806451613,-2.0,5,62,2,2,0,40.077373,8.775812
PERCA,REG,Wed,0.48514851485148514,0.0,8,101,4,1,0,,
PESARO,REG,Wed,3.2061328790459966,1.0,46,587,179,114,34,43.906014,12.904848
PESCHIERA DEL GARDA,REG,Wed,3.753880266075388,2.0,35,451,167,102,43,45.438502,10.702509
PESCIA,REG,Wed,3.080792682926829,3.0,53,656,274,145,33,43.886811,10.686074
PETTENASCO,REG,Wed,3.7569060773480665,3.0,14,181,69,45,7,45.820498,8.406802
PIACENZA,REG,Wed,2.2455146364494807,1.0,84,1059,292,180,76,45.052238,9.70633
PIAN DI VENOLA,REG,Wed,2.8091603053435112,2.0,41,524,164,60,3,44.332136,11.188609
PIAZZA AMEDEO,REG,Wed,9.0,9.0,1,1,1,1,0,40.838506,14.232974
PIGNATARO MAGGIORE,REG,Wed,8.25,5.0,3,4,3,2,2,41.17384,14.160545
PINEROLO OLIMPICA,REG,Wed,4.548214285714286,3.0,44,560,234,134,38,44.893325,7.349043
PINETO ATRI,REG,Wed,2.4645669291338583,1.0,59,762,207,111,34,42.607736,14.069072
PIRAINETO,REG,Wed,1.1827309236947792,1.0,39,498,21,9,6,38.169148,13.14256
PISA SAN ROSSORE,REG,Wed,2.83011583011583,2.0,128,1554,450,228,53,43.723702,10.387363
PLOAGHE,REG,Wed,1.3134328358208955,1.0,16,201,28,7,2,40.66132,8.728075
POGGIBONSI,REG,Wed,2.6495263870094723,2.0,59,739,261,122,20,43.468093,11.149455
POGGIO RENATICO,REG,Wed,3.560810810810811,2.0,36,444,161,94,38,44.767292,11.483701
POLLINA,REG,Wed,-0.5275229357798165,-1.0,17,218,21,14,6,38.018,14.175943
PONTE A ELSA,REG,Wed,1.5161290322580645,1.0,31,372,49,22,6,43.694385,10.906008
PONTE DELLA VENTURINA,REG,Wed,2.3087248322147653,2.0,12,149,37,13,3,44.128589,10.990756
PONTE DI NONA,REG,Wed,0.4263206672845227,-1.0,85,1079,135,59,17,42.061563,13.581585
PONTE IN VALTELLINA,REG,Wed,2.675675675675676,1.0,10,74,14,7,2,46.162631,9.975895
PONTE NELLE ALPI POLPET,REG,Wed,0.29227557411273486,0.0,46,479,14,8,3,46.182328,12.277604
PONTECCHIO MARCONI,REG,Wed,2.0952380952380953,2.0,5,63,15,3,0,44.42294,11.26919
PONTEDERA CASCIANA TERME,REG,Wed,2.20682302771855,1.0,116,1407,326,171,47,43.662145,10.628773
PONTELAGOSCURO,REG,Wed,2.8346456692913384,1.0,10,127,38,22,5,44.873216,11.612526
PONTIDA,REG,Wed,3.857487922705314,3.0,32,414,175,84,7,45.730084,9.511632
PORRETTA  TERME,REG,Wed,1.4463768115942028,1.0,27,345,62,29,3,44.155757,10.978039
PORTO D`ASCOLI,REG,Wed,3.475336322869955,2.0,52,669,207,109,39,42.912792,13.896813
PORTO S. ELPIDIO,REG,Wed,3.4498977505112474,2.0,38,489,162,105,36,43.256855,13.760749
PORTO VALTRAVAGLIA,REG,Wed,3.6895604395604398,3.0,29,364,146,74,18,45.958219,8.674141
POSSIDENTE,REG,Wed,3.2714681440443214,2.0,28,361,112,60,10,40.781144,15.777104
POZZUOLI SOLFATARA,REG,Wed,2.003401360544218,2.0,46,588,94,37,2,40.827586,14.126163
PRAJA AJETA TORTORA,REG,Wed,2.8828828828828827,1.0,26,333,95,61,22,39.900832,15.780628
PRATOLA PELIGNA SUPERIORE,REG,Wed,3.8819672131147542,6.0,24,305,169,158,8,42.080415,13.87223
PRIMOLANO,REG,Wed,2.9833333333333334,3.0,14,180,62,18,2,45.965315,11.700899
PRIOLO MELILLI,REG,Wed,1.8323699421965318,1.0,16,173,26,16,6,37.157951,15.197038
QUARTESANA,REG,Wed,0.06962025316455696,-1.0,18,158,15,8,3,,
RACALMUTO,REG,Wed,-0.19318181818181818,0.0,7,88,5,3,0,37.406065,13.72752
RACCONIGI,REG,Wed,1.5302752293577981,1.0,43,545,75,32,8,44.771179,7.685681
RAIANO,REG,Wed,2.1596091205211727,2.0,24,307,69,24,2,42.097931,13.80908
RAVENNA,REG,Wed,2.4335570469798657,1.0,59,745,192,116,55,44.419155,12.208404
RECCO,REG,Wed,1.5997993981945837,1.0,78,997,205,128,37,44.361215,9.146788
REGGIO DI CALABRIA S.GREGORIO,REG,Wed,0.36666666666666664,0.0,30,360,21,7,0,38.061274,15.652053
RICADI,REG,Wed,1.6264367816091954,1.0,14,174,34,14,2,38.630676,15.839848
RIDOTTI-COLLEPIANO,REG,Wed,2.3333333333333335,0.0,3,3,1,1,0,,
RIMINI VISERBA,REG,Wed,2.0127877237851663,1.0,31,391,43,31,20,44.088407,12.533785
RIO DI PUSTERIA,REG,Wed,1.0588235294117647,1.0,8,102,3,2,1,46.79712,11.670028
RIPAFRATTA,REG,Wed,2.6857142857142855,2.0,52,665,166,69,16,43.821711,10.415733
ROCCALUMERA MANDANICI,REG,Wed,2.490625,1.0,26,320,87,50,10,37.972946,15.391411
ROCCHETTA S.ANT.LAC.,REG,Wed,0.16923076923076924,1.0,5,65,16,12,0,41.1518,15.53295
RODALLO,REG,Wed,2.123919308357349,1.0,27,347,78,39,14,45.278714,7.878025
ROMA AURELIA,REG,Wed,1.1142098273572376,1.0,59,753,100,39,9,41.88344,12.395271
ROMA NOMENTANA L.L.,REG,Wed,1.096234309623431,1.0,136,1673,190,82,17,41.932935,12.523628
ROMA S.FILIPPO NERI,REG,Wed,1.4089726918075423,1.0,144,1538,185,68,13,41.950262,12.412414
ROMA S.PIETRO,REG,Wed,0.6625908790482485,0.0,262,3026,317,114,23,41.896143,12.454497
ROMA TIBURTINA PIAZZALE EST,REG,Wed,-0.6762295081967213,-1.0,39,488,18,10,5,41.910903,12.530749
ROMA TRASTEVERE,REG,Wed,2.55045871559633,2.0,380,4469,1188,438,48,41.872279,12.466162
ROMANORE,REG,Wed,2.96640826873385,1.0,31,387,107,60,26,45.063834,10.750997
ROTTOFRENO,REG,Wed,8.666666666666666,9.0,2,3,3,3,0,45.060546,9.549127
ROVASENDA,REG,Wed,2.6516129032258067,1.0,29,310,56,31,8,45.537291,8.317376
RUBIERA,REG,Wed,3.521920668058455,2.0,38,479,158,110,36,44.65618,10.780252
RUSSI,REG,Wed,3.8672268907563025,3.0,48,595,243,129,39,44.379011,12.03164
S. CASSIANO VALCHIAVENNA,REG,Wed,1.3422459893048129,1.0,29,374,73,23,4,46.275438,9.397419
S. DAMIANO D`ASTI,REG,Wed,0.7281795511221946,0.0,31,401,44,24,4,44.878914,8.125956
S. EUROSIA,REG,Wed,1.813895781637717,1.0,34,403,48,29,8,41.675927,12.755105
S. GERMANO VERCELLESE,REG,Wed,2.3511904761904763,1.0,26,336,66,30,4,45.353603,8.249958
S. GIOVANNI IN CROCE,REG,Wed,4.868613138686132,4.0,32,411,216,147,42,45.075783,10.377527
S. MARGHERITA LIGURE PORTOFINO,REG,Wed,2.222338204592902,1.0,75,958,234,140,41,44.33676,9.216673
S. PIETRO A VICO,REG,Wed,2.922222222222222,2.0,21,270,82,38,10,43.875094,10.530945
S. VINCENZO,REG,Wed,2.746588693957115,1.0,41,513,137,82,29,43.100366,10.539823
S.BIAGIO DI CALLALTA,REG,Wed,0.6897810218978102,0.0,22,274,27,17,8,45.686134,12.374316
S.CATERINA DELL`JONIO,REG,Wed,3.7681159420289854,4.0,6,69,35,28,4,38.530452,16.571093
S.ELENA - ESTE,REG,Wed,2.0064516129032257,1.0,24,310,78,42,8,45.199209,11.712883
S.ELLERO,REG,Wed,6.216216216216216,6.0,27,37,27,19,5,43.742143,11.469621
S.GIULETTA,REG,Wed,5.0,5.0,1,1,1,0,0,45.035719,9.179239
S.GIULIANO TERME,REG,Wed,1.5465753424657533,1.0,57,730,134,64,22,43.764895,10.436892
S.MARIA CAPUA VETERE,REG,Wed,3.4498886414253898,2.0,36,449,154,92,21,41.07353,14.254081
S.MARTINO BUON ALBERGO,REG,Wed,15.0,15.0,1,1,1,1,1,45.421559,11.089155
S.PIETRO IN GU`,REG,Wed,2.1432835820895524,2.0,26,335,51,21,5,45.605039,11.673157
SAIRANO ZINASCO,REG,Wed,6.145833333333333,5.0,24,288,191,108,22,45.133795,9.030153
SALE LANGHE,REG,Wed,-0.10880829015544041,-1.0,15,193,4,2,1,44.392425,8.077468
SALUSSOLA,REG,Wed,0.6606217616580311,0.0,30,386,17,11,3,45.44438,8.115195
SAMASSI SERRENTI,REG,Wed,0.5671641791044776,-1.0,32,402,40,19,9,39.483075,8.899035
SAMOGGIA,REG,Wed,3.8568329718004337,2.0,37,461,156,109,46,44.567307,11.146221
SAMOLACO,REG,Wed,1.3183023872679045,1.0,29,377,55,20,4,46.246436,9.423582
SAN BENEDETTO SAMBRO-CAST.PEPOLI,REG,Wed,1.9116465863453815,1.0,47,498,89,47,18,44.22866,11.19226
SAN BONIFACIO,REG,Wed,2.7316486161251503,2.0,69,831,265,128,32,45.40276,11.27406
SAN GIORGIO DI NOGARO,REG,Wed,1.2016129032258065,0.0,39,496,67,36,16,45.82917,13.210315
SANNAZZARO,REG,Wed,4.889273356401384,4.0,24,289,145,72,18,45.10554,8.905149
SANTA DOMENICA,REG,Wed,2.8448275862068964,2.0,14,174,50,18,3,38.663764,15.859822
SANTA MARINELLA,REG,Wed,1.250266240681576,1.0,73,939,118,55,14,42.035892,11.863122
SANTOPADRE,REG,Wed,2.0,1.0,5,7,2,1,0,,
SARZANA,REG,Wed,2.4746835443037973,1.0,70,790,246,154,39,44.108865,9.960657
SAVIGNANO SUL RUBICONE,REG,Wed,3.931769722814499,2.0,38,469,170,106,29,44.095191,12.40421
SAVONA,REG,Wed,1.1047794117647058,-1.0,85,1088,175,106,50,44.306892,8.470259
SCAFATI,REG,Wed,-0.7321428571428571,-2.0,5,56,2,2,2,40.746028,14.523253
SCALEA S.DOMENICA TALAO,REG,Wed,3.5075075075075075,1.0,26,333,114,81,30,39.8083,15.80139
SCHIVENOGLIA,REG,Wed,2.8091603053435112,1.0,14,131,39,28,10,,
SCILLA,REG,Wed,11.0,11.0,1,1,1,1,1,38.251202,15.710886
SCURCOLA MARSICANA,REG,Wed,1.4423076923076923,-1.0,4,52,8,6,4,42.053136,13.344374
SEGRATE,REG,Wed,29.0,29.0,1,1,1,1,1,45.480702,9.298873
SELLIA MARINA,REG,Wed,3.0,3.0,1,1,0,0,0,38.903666,16.764788
SENIGALLIA,REG,Wed,2.736,2.0,49,625,202,126,34,43.716277,13.221652
SERIATE,REG,Wed,2.006276150627615,1.0,37,478,79,33,8,45.683145,9.724628
SEVESO,REG,Wed,0.05436337625178827,0.0,113,1398,9,3,0,45.648187,9.140488
SILIQUA,REG,Wed,0.03512396694214876,-1.0,46,484,26,18,9,39.297005,8.813078
SILLA,REG,Wed,2.4307116104868913,2.0,42,534,145,56,5,44.177652,10.980635
SOFFRATTA,REG,Wed,3.306547619047619,2.0,28,336,84,41,9,45.976377,12.299346
SOVERATO,REG,Wed,2.9858657243816253,2.0,22,283,89,37,10,38.684339,16.549416
SPOTORNO NOLI,REG,Wed,3.9654036243822075,2.0,48,607,198,135,44,44.226528,8.410932
STANGHELLA,REG,Wed,3.6032258064516127,3.0,24,310,126,64,10,45.13209,11.749094
STRADELLA,REG,Wed,3.465934065934066,2.0,37,455,157,93,38,45.079465,9.300865
STRAMBINO,REG,Wed,2.6805555555555554,2.0,28,360,95,40,9,45.382508,7.887955
STREVI,REG,Wed,3.9565217391304346,4.0,16,207,113,45,6,44.697771,8.525525
STRIGNO,REG,Wed,3.077777777777778,3.0,14,180,69,23,1,46.051003,11.514327
STRONGOLI,REG,Wed,4.745689655172414,4.0,19,232,131,93,19,39.228139,17.108256
SU CANALE,REG,Wed,3.1904761904761907,2.0,5,63,20,7,2,40.838375,9.404226
SULMONA,REG,Wed,-0.11616161616161616,-1.0,35,396,33,18,6,42.060836,13.907156
SUNO,REG,Wed,3.41025641025641,2.0,6,78,25,12,6,45.620435,8.519344
SUSEGANA,REG,Wed,16.0,16.0,1,1,1,1,1,45.821054,12.258364
TAGLIACOZZO,REG,Wed,1.0996884735202492,1.0,26,321,51,28,10,42.070701,13.255664
TARCENTO,REG,Wed,1.1020408163265305,1.0,19,245,21,10,4,46.209134,13.196211
TARQUINIA,REG,Wed,1.5,1.0,25,322,43,23,7,42.239463,11.727009
TAVAZZANO,REG,Wed,-0.07613168724279835,-1.0,40,486,65,35,13,45.32629,9.402748
TERAMO,REG,Wed,1.5654008438818565,1.0,19,237,30,9,3,42.660551,13.715882
TERME EUGANEE-ABANO-MONTEGR.,REG,Wed,0.7496871088861077,0.0,62,799,131,76,14,45.32744,11.79604
TERNATE VARANO BORGHI,REG,Wed,3.253443526170799,2.0,29,363,108,62,14,45.781835,8.700371
TERNI,REG,Wed,0.4017857142857143,-1.0,40,448,82,43,16,42.570768,12.651091
TOLENTINO,REG,Wed,3.028368794326241,2.0,22,282,96,47,17,43.214556,13.290501
TORA PRESENZANO,REG,Wed,4.101449275362318,3.0,22,276,127,52,14,41.358861,14.04514
TORINO STURA,REG,Wed,1.526072607260726,1.0,122,1515,249,112,28,45.121932,7.713202
TORRE ANNUNZIATA CENTRALE,REG,Wed,0.25,-1.0,11,96,8,5,2,40.747131,14.463744
TORRE DEI PASSERI,REG,Wed,0.4025,0.0,31,400,30,12,5,42.244022,13.937525
TORRE MELISSA,REG,Wed,4.814655172413793,4.0,19,232,131,89,15,39.304391,17.108402
TORRE ORSAIA,REG,Wed,12.0,12.0,1,1,1,1,1,40.099017,15.481204
TRECATE,REG,Wed,2.9349046015712683,2.0,72,891,199,109,35,45.428589,8.739561
TREMESTIERI,REG,Wed,9.0,9.0,1,1,1,1,0,38.150323,15.535528
TREPUZZI,REG,Wed,1.0,1.0,1,1,0,0,0,40.40964,18.076902
TRESENDA-APRICA-TEGLIO,REG,Wed,3.300595238095238,1.0,27,336,72,54,25,46.162082,10.083754
TREVIGLIO,REG,Wed,1.5253164556962024,0.0,162,2054,490,290,119,45.515063,9.587919
TREVIGLIO OVEST,REG,Wed,1.3538083538083538,1.0,63,814,100,52,15,45.521762,9.580281
TRIESTE CENTRALE,REG,Wed,1.9689608636977058,0.0,60,741,119,71,41,45.657456,13.771873
TRIVIGNO,REG,Wed,0.7254901960784313,0.0,4,51,8,4,1,40.588598,15.997824
TUORO SUL TRASIMENO,REG,Wed,4.097087378640777,4.0,8,103,52,34,7,43.196631,12.0796
UGOVIZZA VALBRUNA,REG,Wed,0.1794871794871795,0.0,6,78,3,1,0,46.502902,13.494972
VADA,REG,Wed,4.575396825396825,3.0,21,252,97,53,20,43.352641,10.470376
VAIANO,REG,Wed,1.5631929046563193,1.0,42,451,64,42,13,43.961772,11.130773
VALDAORA - ANTERSELVA,REG,Wed,-0.25742574257425743,-1.0,8,101,1,1,0,46.769231,12.02898
VARANO,REG,Wed,2.397085610200364,2.0,43,549,141,79,23,43.574729,13.523436
VAREDO,REG,Wed,0.2825342465753425,0.0,97,1168,21,10,3,,
VARIGNANA,REG,Wed,5.73758865248227,4.0,45,564,377,211,61,44.436796,11.523078
VENEZIA CARPENEDO,REG,Wed,9.0,11.0,3,3,3,2,2,45.506697,12.247609
VENEZIA MESTRE,REG,Wed,0.7199925678186547,1.0,433,5382,649,270,81,45.482123,12.232069
VENEZIA PORTO MARGHERA,REG,Wed,6.204081632653061,6.0,33,49,40,26,3,45.472381,12.256536
VENTIMIGLIA,REG,Wed,1.7549019607843137,-1.0,26,306,54,40,21,43.792561,7.610224
VERBANIA-PALLANZA,REG,Wed,1.988399071925754,1.0,43,431,96,62,32,45.943821,8.47224
VERCEIA,REG,Wed,-0.20159151193633953,-1.0,29,377,21,9,2,46.202832,9.458412
VERNIO MONTEPIANO CANTAGALLO,REG,Wed,2.591928251121076,2.0,42,446,92,55,17,44.043991,11.152342
VEROLANUOVA,REG,Wed,1.8376470588235294,1.0,33,425,95,39,14,45.324989,10.08388
VERONA PORTA VESCOVO,REG,Wed,1.897713598074609,2.0,69,831,210,111,33,45.435552,11.018841
VESPOLATE,REG,Wed,2.7857142857142856,2.0,21,266,57,34,11,45.351517,8.671947
VESPRI,REG,Wed,1.8056768558951966,2.0,72,916,64,19,5,38.101996,13.362701
VIAREGGIO,REG,Wed,2.8376623376623376,2.0,91,1078,363,205,45,43.865947,10.257886
VIBO MARINA,REG,Wed,2.954022988505747,3.0,14,174,59,21,2,38.713731,16.120199
VIBO VALENZIA PIZZO,REG,Wed,0.3098159509202454,-1.0,27,326,32,14,7,38.714593,16.139887
VICCHIO,REG,Wed,2.9468599033816427,2.0,33,414,128,76,15,43.933463,11.457634
VICENZA,REG,Wed,-0.34893617021276596,-1.0,115,1410,180,79,19,45.541102,11.540762
VIGLIANO D`ASTI,REG,Wed,1.4010416666666667,1.0,16,192,10,5,2,44.827335,8.218271
VIGODARZERE,REG,Wed,0.10227272727272728,0.0,50,616,28,10,5,45.453289,11.891641
VIGONZA PIANIGA,REG,Wed,7.5,0.0,2,2,1,1,1,45.442799,12.017977
VILLA DI TIRANO,REG,Wed,2.627450980392157,1.0,4,51,7,3,2,46.196164,10.13033
VILLA LITERNO,REG,Wed,1.9229249011857708,1.0,79,1012,221,107,37,41.004956,14.06753
VILLA OPICINA,REG,Wed,0.76,1.0,2,25,6,3,1,45.6944,13.791142
VILLAFRANCA - BAGNONE,REG,Wed,2.2562141491395793,1.0,51,523,133,72,20,44.294399,9.948096
VILLASPECIOSA UTA,REG,Wed,3.552016985138004,2.0,45,471,168,157,19,39.304168,8.940501
VILLETTA,REG,Wed,0.11463414634146342,0.0,32,410,8,6,2,41.738237,12.649463
VILPIANO-NALLES,REG,Wed,3.985294117647059,4.0,32,408,231,90,4,46.554251,11.220143
VISONE,REG,Wed,5.5,5.0,4,4,3,1,0,44.661951,8.500198
ZAMBRONE,REG,Wed,2.8045977011494254,3.0,14,174,58,23,2,38.712738,15.976204
ABBIATEGRASSO,REG,Wed,3.0034305317324184,2.0,46,583,187,87,28,45.400631,8.921305
ACQUAPPESA,REG,Wed,12.0,12.0,1,1,1,1,1,39.48648,15.955992
ACQUAVIVA,REG,Wed,3.06006006006006,2.0,26,333,112,54,12,37.570258,13.674927
AGLIANO CASTELNUOVO CALCEA,REG,Wed,1.07035175879397,0.0,16,199,12,8,2,44.786108,8.267723
AGRIGENTO CENTRALE,REG,Wed,1.4700460829493087,0.0,17,217,41,18,8,37.309051,13.584412
AIELLI,REG,Wed,2.3333333333333335,1.0,8,39,6,4,1,,
AIRUNO,REG,Wed,3.419431279620853,2.0,68,844,233,141,54,45.754086,9.422066
ALBACINA,REG,Wed,3.13840830449827,2.0,45,578,181,86,21,43.345686,12.986501
ALBANO DI LUCANIA,REG,Wed,2.5686274509803924,1.0,4,51,13,8,1,40.574707,16.021247
ALBISOLA,REG,Wed,1.93681652490887,1.0,64,823,130,73,22,44.33469,8.512092
ALBONESE,REG,Wed,3.3759398496240602,2.0,21,266,75,44,10,45.297785,8.714601
ALCAMO DIRAMAZIONE,REG,Wed,3.392857142857143,2.0,11,140,45,24,9,37.978894,12.915916
ALLERONA-CASTEL VISCARDO,REG,Wed,3.4714285714285715,2.0,11,140,38,16,7,42.78502,12.035236
AMANTEA,REG,Wed,0.5166666666666667,0.0,25,300,30,19,8,39.134353,16.068448
ANCONA TORRETTE,REG,Wed,0.0,0.0,2,2,0,0,0,43.609936,13.455777
ANCONETTA,REG,Wed,1.2219679633867278,2.0,35,437,164,47,11,45.565249,11.567865
ANDORA,REG,Wed,2.923076923076923,1.0,30,377,112,77,24,,
ANGUILLARA,REG,Wed,2.4350567465321564,2.0,77,793,191,54,10,42.068133,12.304978
ANNONE VENETO,REG,Wed,2.5693430656934306,2.0,22,274,48,21,6,45.774904,12.680334
ANTIGNANO,REG,Wed,9.6,7.0,4,5,4,3,1,43.492482,10.328827
ANTRODOCO CENTRO,REG,Wed,7.961038961038961,9.0,24,308,204,170,113,42.409844,13.07096
ANZIO COLONIA,REG,Wed,1.8806584362139918,2.0,38,486,45,13,7,41.459893,12.617442
ANZOLA,REG,Wed,3.875728155339806,2.0,41,515,172,127,53,,
AOSTA,REG,Wed,2.748148148148148,2.0,21,270,89,38,9,45.73407,7.322424
ARCOLA,REG,Wed,15.0,15.0,1,1,1,1,1,44.118651,9.914649
ARCORE,REG,Wed,2.6978629329403097,1.0,109,1357,378,216,72,45.623493,9.322798
ARONA,REG,Wed,1.4360655737704917,1.0,57,610,178,110,33,45.755392,8.559075
ARPINO,REG,Wed,3.29,2.0,11,100,35,16,6,41.648296,13.59959
ARQUA`,REG,Wed,2.8818897637795278,2.0,10,127,47,25,8,45.006465,11.748518
ASSEMINI,REG,Wed,0.2727272727272727,0.0,77,858,43,22,13,39.287603,8.997936
ATTIGLIANO,REG,Wed,3.370441458733205,2.0,41,521,140,84,41,42.518054,12.294761
AUGUSTA,REG,Wed,1.678030303030303,1.0,23,264,42,31,14,37.24334,15.218628
BAIANO DI SPOLETO,REG,Wed,0.7944444444444444,-1.0,16,180,33,19,8,42.726238,12.663615
BARBERINO VAL D`ELSA,REG,Wed,6.105263157894737,5.0,23,38,30,18,5,,
BARDONECCHIA,REG,Wed,0.6094420600858369,0.0,18,233,35,20,7,45.076447,6.709959
BARI PALESE MACCHIE,REG,Wed,7.0,4.0,4,4,3,1,1,41.151583,16.766902
BARI TORRE QUETTA,REG,Wed,0.0,0.0,1,1,0,0,0,,
BARILE,REG,Wed,4.865671641791045,4.0,26,335,177,122,26,40.943044,15.670959
BARONISSI,REG,Wed,1.218045112781955,0.0,29,266,48,29,3,40.743779,14.77224
BARRUCCANA,REG,Wed,-0.1424802110817942,-1.0,31,379,22,14,6,,
BATTAGLIA TERME,REG,Wed,3.0053475935828877,1.0,29,374,132,100,30,45.291475,11.77838
BAVENO,REG,Wed,3.3968253968253967,2.0,15,189,55,27,14,45.909105,8.502121
BAZZANO,REG,Wed,-0.026595744680851064,0.0,41,376,39,9,5,,
BELGIOIOSO,REG,Wed,2.0524475524475525,2.0,22,286,86,34,4,45.16456,9.316875
BELLANTE RIPATTONE,REG,Wed,3.3897637795275593,4.0,20,254,151,63,3,42.705775,13.837978
BELLARIA,REG,Wed,2.600451467268623,1.0,35,443,93,55,28,44.150249,12.461168
BENEVENTO,REG,Wed,-2.62992125984252,-5.0,10,127,18,10,7,41.141901,14.769998
BERCHIDDA,REG,Wed,1.37,1.0,8,100,9,4,2,40.772052,9.181312
BERGAMO,REG,Wed,2.7226331360946747,2.0,106,1352,381,198,63,45.690271,9.675082
BEVILACQUA,REG,Wed,2.307246376811594,2.0,27,345,97,31,4,45.230145,11.398643
BIANZONE,REG,Wed,2.203125,1.0,5,64,7,4,2,46.179383,10.112507
BICOCCA,REG,Wed,0.7848101265822784,0.0,24,158,21,15,7,37.460617,15.044594
BIELLA S.PAOLO,REG,Wed,0.3869209809264305,-1.0,31,367,38,21,10,45.557334,8.067541
BISCEGLIE,REG,Wed,3.484769364664926,2.0,89,1149,378,232,76,41.235445,16.499484
BOLLATE CENTRO,REG,Wed,0.8912337662337663,0.0,101,1232,117,49,7,,
BOLOGNA C.LE,REG,Wed,0.7471783295711061,-1.0,258,3101,620,369,149,44.50626,11.342267
BONORVA,REG,Wed,2.234042553191489,0.0,4,47,5,4,3,40.417763,8.760707
BORDIGHERA,REG,Wed,3.227197346600332,1.0,48,603,131,82,44,43.778313,7.663504
BORGHETTO SANTO SPIRITO,REG,Wed,27.0,27.0,1,1,1,1,1,44.109006,8.242346
BORGO REVEL,REG,Wed,2.876080691642651,2.0,27,347,120,57,15,45.189827,8.02021
BORGO S.L.RIMORELLI,REG,Wed,8.009302325581395,7.0,18,215,198,146,36,43.953279,11.400076
BORGOMANERO,REG,Wed,2.4381443298969074,2.0,15,194,58,37,7,45.701054,8.468093
BORGONUOVO,REG,Wed,2.639160839160839,3.0,57,715,247,89,2,,
BORORE,REG,Wed,-0.7638888888888888,-1.0,6,72,5,2,0,40.218992,8.809535
BOVALINO,REG,Wed,3.334328358208955,2.0,26,335,120,76,23,38.149087,16.180584
BRANCALEONE,REG,Wed,3.1283582089552238,2.0,26,335,112,62,21,37.965475,16.103301
BRANDIZZO,REG,Wed,2.2566096423017106,2.0,51,643,135,66,14,45.178915,7.841218
BUTTAPIETRA,REG,Wed,3.5076923076923077,3.0,5,65,25,7,2,45.338787,10.988059
CAGLIARI ELMAS,REG,Wed,1.0320987654320988,1.0,73,810,46,26,10,39.264193,9.045497
CALALZO PIEVE CADORE CORTINA,REG,Wed,0.37142857142857144,1.0,9,70,3,1,0,46.443829,12.388668
CALDIERO,REG,Wed,3.711340206185567,2.0,34,388,127,83,36,45.41407,11.169753
CALOPEZZATI,REG,Wed,4.629310344827586,4.0,19,232,130,79,20,39.579022,16.819361
CALUSO,REG,Wed,2.313888888888889,1.0,28,360,90,43,11,45.303194,7.902568
CAMMARATA S.GIOVANNI GEMINI,REG,Wed,0.6506024096385542,1.0,26,332,82,39,16,37.653759,13.673791
CAMPIGLIA MARITTIMA,REG,Wed,2.3410301953818826,1.0,46,563,143,75,33,43.017118,10.586558
CAMPOFELICE,REG,Wed,-0.1857707509881423,-1.0,20,253,14,10,6,37.992615,13.876549
CAMPOLIGURE MASONE,REG,Wed,4.369774919614148,4.0,24,311,159,88,22,44.530909,8.700878
CANCELLIERA,REG,Wed,4.0774818401937045,3.0,35,413,160,74,15,41.710587,12.621758
CANEGRATE,REG,Wed,6.145299145299146,5.0,65,819,579,350,80,45.569235,8.926593
CANICATTI`,REG,Wed,2.013157894736842,1.0,13,152,37,19,6,37.359879,13.855395
CANTU`- CERMENATE,REG,Wed,6.222222222222222,5.0,14,18,15,9,1,45.716236,9.099284
CAPO BONIFATI,REG,Wed,3.2135922330097086,2.0,24,309,96,51,16,39.558342,15.874052
CAPRALBA,REG,Wed,6.3463302752293576,4.0,34,436,251,169,69,45.443871,9.640015
CAPRANICA,REG,Wed,0.9116379310344828,1.0,49,464,52,18,5,42.245195,12.157194
CARAVAGGIO,REG,Wed,4.7540229885057474,3.0,34,435,189,126,54,45.491158,9.637723
CARNIA,REG,Wed,-1.171270718232044,-2.0,14,181,7,4,0,46.373634,13.132847
CAROVIGNO,REG,Wed,5.0,5.0,1,1,1,0,0,40.737337,17.683791
CARPI,REG,Wed,1.1555555555555554,0.0,46,585,86,39,12,44.782919,10.891952
CARRITO-ORTONA,REG,Wed,5.125,3.0,3,8,3,2,2,42.026506,13.720179
CASALBORDINO POLLUTRI,REG,Wed,3.0,3.0,1,1,0,0,0,42.193653,14.633045
CASALBUTTANO,REG,Wed,3.811529933481153,2.0,35,451,152,111,46,45.255398,9.962361
CASALEGGIO,REG,Wed,1.7209302325581395,1.0,4,43,7,3,1,45.491298,8.490369
CASALMAGGIORE,REG,Wed,4.148418491484185,3.0,32,411,184,126,35,44.993139,10.425023
CASARSA,REG,Wed,1.7294484911550467,1.0,78,961,182,87,28,45.953002,12.8406
CASCINA,REG,Wed,3.028673835125448,2.0,44,558,176,99,21,43.674542,10.545225
CASERTA,REG,Wed,1.827018121911038,1.0,96,1214,307,185,74,41.068655,14.328457
CASLETTO-ROGENO,REG,Wed,2.230769230769231,2.0,15,195,37,14,3,45.786028,9.275375
CASTAGNO,REG,Wed,2.0794701986754967,1.0,12,151,17,5,4,44.012359,10.91538
CASTEL D`ARIO,REG,Wed,1.3236714975845412,1.0,16,207,35,23,5,45.183399,10.97531
CASTEL GANDOLFO,REG,Wed,0.7935779816513762,0.0,34,436,73,10,2,41.746946,12.652266
CASTEL S.GIOVANNI,REG,Wed,4.211764705882353,3.0,28,340,139,77,30,45.063272,9.436856
CASTIGLIONE COSENTINO,REG,Wed,1.110803324099723,1.0,59,722,68,40,13,39.35542,16.244388
CASTRO-POFI,REG,Wed,1.9227166276346603,1.0,33,427,59,34,11,41.533014,13.410741
CATANIA CENTRALE,REG,Wed,-0.05522388059701493,-1.0,65,670,96,61,25,37.506211,15.099417
CATANZARO LIDO,REG,Wed,2.5040983606557377,2.0,39,488,142,72,19,38.821788,16.612975
CAVA MANARA,REG,Wed,4.6421052631578945,3.0,30,380,182,117,29,45.144867,9.115332
CAVALLERMAGGIORE,REG,Wed,1.9146067415730337,1.0,70,890,152,70,24,44.708147,7.692108
CECCHINA,REG,Wed,2.574603174603175,2.0,52,630,144,65,15,41.692029,12.650992
CELANO-OVINDOLI,REG,Wed,1.0576923076923077,1.0,9,52,7,5,0,42.076999,13.543398
CELLE,REG,Wed,4.0,0.0,2,2,1,1,0,44.34246,8.542626
CENTALLO,REG,Wed,1.6775599128540306,1.0,36,459,93,38,10,44.496223,7.591035
CERCHIO,REG,Wed,2.9038461538461537,2.0,9,52,12,8,2,42.061082,13.597972
CEREA,REG,Wed,2.9082125603864735,2.0,16,207,44,17,5,45.196556,11.213921
CERTOSA DI PAVIA,REG,Wed,3.7056128293241697,3.0,72,873,390,206,18,45.256927,9.154456
CHIAVARI,REG,Wed,1.8640576725025746,1.0,76,971,197,98,27,44.315156,9.322464
CHIERI,REG,Wed,1.8464285714285715,2.0,22,280,43,9,3,45.007008,7.827077
CHIETI,REG,Wed,1.1192842942345924,1.0,39,503,54,22,10,42.356905,14.13815
CISMON DEL GRAPPA,REG,Wed,2.1666666666666665,2.0,14,180,37,15,2,45.919664,11.729272
CISTERNA DI LATINA,REG,Wed,1.9175977653631284,1.0,56,716,139,82,31,41.586511,12.827538
CITTADELLA,REG,Wed,0.01608187134502924,-1.0,53,684,46,21,5,45.643868,11.789857
CIVATE,REG,Wed,3.981818181818182,3.0,34,440,171,96,25,45.831295,9.352877
CIVITAVECCHIA,REG,Wed,1.1977848101265822,1.0,49,632,110,44,9,42.088287,11.79815
COCULLO,REG,Wed,1.5294117647058822,0.0,9,51,13,9,3,42.040723,13.776636
CODROIPO,REG,Wed,2.254027261462206,1.0,65,807,153,82,29,45.9657,12.976543
COLICO,REG,Wed,3.6591760299625467,2.0,63,801,261,145,62,46.138019,9.375222
COLLE MATTIA,REG,Wed,1.7755102040816326,1.0,46,588,97,52,19,41.832756,12.728329
COLLECCHIO,REG,Wed,3.4459770114942527,2.0,38,435,153,86,28,44.755339,10.21228
COLLI DI MONTE BOVE,REG,Wed,2.923076923076923,1.0,5,65,19,8,2,42.097103,13.15057
CONTESSE,REG,Wed,0.7967032967032966,0.0,14,182,14,6,4,38.16193,15.544717
CORNIGLIA,REG,Wed,2.7102966841186737,2.0,78,573,161,86,15,44.119938,9.711051
COSTA MASNAGA,REG,Wed,2.9186991869918697,2.0,38,492,150,72,15,45.76343,9.285231
CRESCENTINO,REG,Wed,3.893063583815029,3.0,27,346,145,90,15,45.194302,8.107175
CRESPELLANO,REG,Wed,2.118483412322275,2.0,46,422,84,31,4,,
CRESPINO DEL LAMONE,REG,Wed,3.432314410480349,2.0,18,229,84,40,10,,
CROTONE,REG,Wed,2.9859154929577465,2.0,23,284,111,79,16,39.0845,17.108418
CRUCOLI,REG,Wed,5.198275862068965,4.0,19,232,134,94,25,39.449588,17.040718
CUPRAMARITTIMA,REG,Wed,3.555327868852459,2.0,38,488,157,93,37,43.02349,13.860812
DEIVA MARINA,REG,Wed,2.263358778625954,2.0,42,524,134,84,21,44.217306,9.519022
DESENZANO,REG,Wed,3.155210643015521,2.0,35,451,148,98,40,45.462677,10.536322
DOLO,REG,Wed,0.9262899262899262,0.0,99,1221,134,72,20,45.453466,12.07161
DUBINO,REG,Wed,0.8717948717948718,0.0,30,390,36,16,5,46.172802,9.432188
EBOLI,REG,Wed,3.3616236162361623,2.0,23,271,101,52,20,40.611057,15.052382
ELLERA CORCIANO,REG,Wed,3.2960893854748603,3.0,28,358,145,94,15,43.094699,12.318574
EQUI TERME,REG,Wed,3.363295880149813,2.0,21,267,77,37,6,44.170282,10.153624
FAENZA,REG,Wed,2.325071496663489,1.0,84,1049,264,177,67,44.293594,11.883268
FANO,REG,Wed,2.6048,1.0,49,625,181,116,28,43.842977,13.02478
FELIZZANO,REG,Wed,2.118918918918919,2.0,15,185,40,14,3,44.893367,8.437155
FERNO LONATE POZZOLO,REG,Wed,0.7533632286995515,1.0,38,446,14,5,3,,
FERRARA,REG,Wed,0.7747148288973384,0.0,87,1052,203,114,40,44.843047,11.603594
FERRERA LOMELLINA,REG,Wed,5.6366782006920415,4.0,24,289,172,93,22,45.111807,8.862805
FERRUZZANO,REG,Wed,2.7755102040816326,1.0,12,147,37,22,11,38.016304,16.134486
FIDENZA,REG,Wed,1.4244274809160304,1.0,106,1310,283,169,58,44.86773,10.06339
FIERA,REG,Wed,-2.1866151866151866,-2.0,60,777,2,1,0,38.144004,13.351336
FILATTIERA,REG,Wed,1.7672413793103448,1.0,35,348,84,52,10,44.33137,9.933352
FILIANO,REG,Wed,4.326241134751773,3.0,11,141,66,43,8,40.837161,15.752285
FINALE LIGURE MARINA,REG,Wed,4.190322580645161,2.0,49,620,221,142,52,44.169116,8.34033
FISCIANO,REG,Wed,1.5112781954887218,1.0,29,266,53,23,3,40.759095,14.77486
FIUMEFREDDO DI SICILIA,REG,Wed,1.9742765273311897,1.0,49,622,162,79,18,37.795247,15.205615
FIUMICINO AEROPORTO,REG,Wed,0.676786843769766,1.0,126,1581,169,42,11,41.793673,12.251728
FIVIZZANO - GASSANO,REG,Wed,3.359550561797753,2.0,14,178,59,23,4,44.202672,10.091691
FONTANA LIRI INFERIORE,REG,Wed,2.0,1.0,5,7,2,1,0,,
FONTANAFREDDA,REG,Wed,2.5,2.0,2,2,0,0,0,45.967555,12.575266
FONTANAROSA,REG,Wed,2.576923076923077,0.0,16,182,38,30,13,,
FOSSALTA DI PIAVE,REG,Wed,9.333333333333334,9.0,3,3,3,3,1,45.624215,12.500393
FRASSO T. DUGENTA,REG,Wed,4.875576036866359,3.0,17,217,101,78,37,41.137244,14.459459
FUNO CENTERGROSS,REG,Wed,3.504553734061931,2.0,44,549,184,107,34,44.593646,11.370672
FUSCALDO,REG,Wed,1.7363636363636363,1.0,17,220,33,15,4,39.409692,16.011475
GALLIERA,REG,Wed,4.935034802784223,3.0,35,431,194,129,45,44.737738,11.441551
GALLIERA VENETA TOMBOLO,REG,Wed,11.0,11.0,1,1,1,1,1,45.652901,11.828066
GAZZO PIEVE S. GIACOMO,REG,Wed,4.079207920792079,2.0,8,101,36,17,6,45.137151,10.189922
GENGA S.VITTORE TERME,REG,Wed,2.4533678756476682,1.0,30,386,105,49,13,43.403011,12.977163
GENOVA ACQUASANTA,REG,Wed,4.828859060402684,4.0,23,298,166,114,26,44.458757,8.773197
GENOVA P.PRINCIPE,REG,Wed,2.394037066881547,1.0,197,2482,599,310,74,44.417784,8.9207
GENOVA QUINTO AL MARE,REG,Wed,11.0,11.0,1,1,1,1,1,44.385184,9.020514
GENOVA STURLA,REG,Wed,4.0,4.0,8,9,5,3,0,44.397977,8.981466
GENOVA VOLTRI,REG,Wed,0.5984308131241084,-1.0,109,1402,166,97,38,44.428467,8.758163
GIAMPILIERI,REG,Wed,0.5743073047858942,0.0,31,397,56,26,7,38.080121,15.493863
GIAROLE,REG,Wed,2.400621118012422,2.0,25,322,70,33,10,45.056125,8.5609
GIARRE RIPOSTO,REG,Wed,1.1116005873715125,0.0,54,681,104,48,15,37.730346,15.193386
GIOIA DEL COLLE,REG,Wed,-0.2423469387755102,-1.0,32,392,25,16,8,40.796983,16.916569
GIOIA TAURO,REG,Wed,0.7386138613861386,0.0,41,505,46,27,8,38.423436,15.897516
GIOVINAZZO,REG,Wed,3.2195704057279237,2.0,65,838,248,142,41,41.180968,16.669346
GIUGLIANO QUALIANO,REG,Wed,1.9472727272727273,2.0,43,550,70,25,2,40.935018,14.10378
GODO,REG,Wed,5.528712871287128,4.0,40,505,313,183,55,44.389322,12.071256
GORIANO SICOLI,REG,Wed,3.4038461538461537,1.0,9,52,21,15,5,42.082698,13.78286
GORIZIA CENTRALE,REG,Wed,1.0190641247833623,0.0,45,577,73,39,12,45.933047,13.60684
GRAMMICHELE,REG,Wed,0.925,-1.0,4,40,5,4,3,37.209336,14.641256
GRAVELLONA TOCE,REG,Wed,1.867403314917127,1.0,14,181,43,25,3,45.934051,8.428346
GRIGNO,REG,Wed,2.783333333333333,2.0,14,180,59,16,2,46.015059,11.624984
GRISIGNANO DI ZOCCO,REG,Wed,2.195751138088012,2.0,55,659,148,62,15,45.48638,11.710762
GROSSETO,REG,Wed,0.554089709762533,-1.0,30,379,71,39,14,42.76728,11.1065
GROTTE S.STEFANO,REG,Wed,1.3648068669527897,1.0,18,233,36,13,3,42.51512,12.169372
GUIDONIA-MONTECELIO-S.ANGELO,REG,Wed,2.2794520547945205,2.0,58,730,207,63,10,41.993405,12.725681
HONE BARD,REG,Wed,2.2093023255813953,2.0,20,258,74,33,9,45.613918,7.741345
IL CIONFO BIN. LE CURE,REG,Wed,1.34375,1.0,10,128,13,2,0,43.786182,11.268501
INCISA,REG,Wed,2.5394581861012955,2.0,66,849,231,117,30,43.656541,11.452728
IPOGEO DEGLI OTTAVI,REG,Wed,2.374105400130124,2.0,144,1537,341,112,17,41.968391,12.409026
IVREA,REG,Wed,1.9034749034749034,1.0,43,518,121,52,13,45.461542,7.876348
JOPPOLO,REG,Wed,0.07471264367816093,-1.0,14,174,17,6,0,38.580318,15.897025
LANUVIO,REG,Wed,1.1175496688741722,0.0,50,604,78,36,13,41.672211,12.690885
LASTRA A SIGNA,REG,Wed,5.947368421052632,5.0,15,19,11,8,4,,
LATIANO,REG,Wed,3.048076923076923,2.0,16,208,52,30,12,40.558074,17.717629
LAVAGNA,REG,Wed,6.0,5.0,3,3,2,1,1,44.305677,9.346371
LE PIAGGE,REG,Wed,3.0,3.0,1,1,0,0,0,43.789684,11.171665
LECCO,REG,Wed,2.9744475138121547,1.0,116,1448,401,242,92,45.856471,9.393638
LICATA,REG,Wed,4.5,5.0,6,72,40,28,6,37.106024,13.938114
LIDO DI LAVINIO,REG,Wed,2.1319702602230484,1.0,42,538,78,38,8,41.500599,12.625926
LIERNA,REG,Wed,1.8924050632911393,1.0,25,316,68,43,16,45.960973,9.303071
LODI,REG,Wed,2.62555910543131,1.0,124,1565,468,265,96,45.308966,9.497585
LONATO,REG,Wed,2.5641025641025643,1.0,3,39,8,6,1,45.457204,10.486714
LORETO,REG,Wed,2.5334143377885785,1.0,64,823,217,124,36,43.448376,13.620455
L`AQUILA,REG,Wed,0.9029126213592233,0.0,24,309,50,17,4,42.351055,13.384959
MADDALONI INFERIORE,REG,Wed,13.0,12.0,10,10,10,9,9,41.035954,14.380504
MAGIONE,REG,Wed,2.2536023054755043,2.0,27,347,115,58,12,43.137356,12.202238
MAGLIANA,REG,Wed,2.3415265200517466,2.0,126,1546,361,122,15,41.834235,12.431017
MAGLIANO CRAVA MOROZZO,REG,Wed,-0.1650485436893204,-1.0,16,206,10,4,0,44.445259,7.777852
MAGRE`- CORTACCIA,REG,Wed,9.88888888888889,9.0,8,9,9,9,4,46.287976,11.232646
MANTOVA,REG,Wed,2.7235023041474653,1.0,51,651,184,108,44,45.158746,10.783165
MARAUSA,REG,Wed,0.33658536585365856,-1.0,16,205,18,5,3,37.92647,12.504113
MARECHIARO,REG,Wed,0.346,0.0,39,500,32,16,6,41.470762,12.6123
MARIANO COMENSE,REG,Wed,0.0,0.0,42,525,0,0,0,45.693622,9.18147
MARINO,REG,Wed,0.2786177105831533,-1.0,36,463,85,14,4,41.768961,12.655994
MAROTTA MONDOLFO,REG,Wed,3.0441176470588234,2.0,48,612,205,128,34,43.769748,13.137273
MARZABOTTO,REG,Wed,1.9921135646687698,2.0,50,634,133,43,3,44.341237,11.207351
MASSAFRA,REG,Wed,0.0,0.0,2,2,0,0,0,40.582968,17.107899
MASSALOMBARDA,REG,Wed,3.7,3.0,4,50,23,13,5,44.448948,11.828068
MATELICA,REG,Wed,3.3652482269503547,2.0,22,282,97,50,17,43.25394,13.01509
MEDA,REG,Wed,-0.01073345259391771,0.0,45,559,0,0,0,,
MELEGNANO,REG,Wed,2.68937875751503,2.0,41,499,136,69,19,45.356321,9.319271
MELZO SCALO,REG,Wed,32.0,32.0,1,1,1,1,1,,
MERANO,REG,Wed,2.173758865248227,2.0,22,282,62,29,9,46.673066,11.148978
MERCENASCO,REG,Wed,4.072046109510087,3.0,27,347,143,65,21,45.353436,7.886405
MERGOZZO,REG,Wed,3.126984126984127,1.0,15,189,49,28,15,45.961303,8.440881
MERONE,REG,Wed,0.04085603112840467,0.0,42,514,1,1,1,45.781374,9.243772
MESAGNE,REG,Wed,3.0625,2.0,16,208,51,29,13,40.563203,17.802082
MILANO BOVISA FNM,REG,Wed,2.1056020605280104,1.0,135,1553,351,192,47,45.502993,9.159235
MILANO BRUZZANO,REG,Wed,1.4758842443729903,1.0,28,311,38,14,6,,
MILANO CERTOSA,REG,Wed,3.65152224824356,2.0,173,2135,766,401,102,45.507019,9.133863
MILAZZO,REG,Wed,1.366288492706645,1.0,49,617,106,47,12,38.21195,15.244203
MILETO,REG,Wed,2.588235294117647,1.0,4,51,9,4,2,38.577082,16.060041
MIRA MIRANO,REG,Wed,6.0,3.0,4,4,2,2,1,45.462943,12.118789
MIRADOLO TERME,REG,Wed,4.6328671328671325,4.0,22,286,167,92,12,45.162007,9.449952
MIRANDOLA,REG,Wed,3.944777911164466,2.0,66,833,278,166,48,44.891638,11.111689
MODICA,REG,Wed,1.5238095238095237,0.0,15,168,33,21,12,36.8529,14.754255
MOIANA,REG,Wed,2.194871794871795,2.0,15,195,33,12,3,45.787082,9.255607
MOLFETTA,REG,Wed,2.7482578397212545,1.0,89,1148,323,201,60,41.196008,16.596793
MOMBARUZZO,REG,Wed,0.9310344827586207,0.0,16,203,12,7,3,44.76235,8.441006
MONCALIERI,REG,Wed,1.726813880126183,1.0,126,1585,259,104,18,44.998187,7.678027
MONCALIERI SANGONE,REG,Wed,4.254448398576512,4.0,44,562,285,157,23,45.000393,7.667991
MONFALCONE,REG,Wed,1.2693140794223827,0.0,110,1385,193,99,48,45.807683,13.542929
MONTALTO DI CASTRO,REG,Wed,0.9121621621621622,-1.0,23,296,43,25,8,42.334623,11.595085
MONTECARLO SAN SALVATORE,REG,Wed,3.665399239543726,3.0,21,263,127,73,18,43.850798,10.68537
MONTEFIASCONE,REG,Wed,1.3433476394849786,1.0,18,233,36,13,2,42.520268,12.050448
MONTEGROSSO,REG,Wed,0.9792746113989638,0.0,16,193,10,6,2,44.818465,8.239171
MONTEMAGGIORE,REG,Wed,3.1115241635687734,2.0,21,269,70,44,17,37.859037,13.693193
MONTEMARCIANO,REG,Wed,3.5508982035928143,2.0,26,334,129,81,31,43.651397,13.346478
MONTEROTONDO,REG,Wed,0.2991725015913431,0.0,128,1571,67,28,9,42.06409,12.595753
MONTICELLO D`ALBA,REG,Wed,0.8633879781420765,0.0,15,183,13,5,3,44.703736,7.965002
MONTIRONE,REG,Wed,3.2175324675324677,1.0,24,308,97,66,31,45.451352,10.239482
MORTARA,REG,Wed,3.291350531107739,2.0,69,659,214,126,50,45.252171,8.731639
MOTTA DI LIVENZA,REG,Wed,0.8029197080291971,0.0,22,274,20,14,5,45.779114,12.607118
MOTTA S. DAMIANO,REG,Wed,1.3461538461538463,1.0,22,286,50,28,3,45.178344,9.219866
MURATELLA,REG,Wed,2.6440677966101696,2.0,125,1534,357,116,15,41.826182,12.412696
NAPOLI CAMPI FLEGREI,REG,Wed,0.6513157894736842,0.0,25,304,34,19,7,40.822462,14.194649
NERA MONTORO,REG,Wed,1.0,1.0,1,1,0,0,0,42.497855,12.476587
NICORVO,REG,Wed,4.0177304964539005,3.0,22,282,133,45,7,45.275462,8.6712
NOALE SCORZE`,REG,Wed,0.6287128712871287,1.0,63,808,90,29,6,45.553833,12.074888
NOCERA SUPERIORE,REG,Wed,0.7803030303030303,0.0,22,264,15,7,5,40.742597,14.672398
NOVI LIGURE,REG,Wed,1.4559139784946236,1.0,39,465,71,38,16,44.762521,8.787289
NUOVO SALARIO,REG,Wed,1.6706586826347305,2.0,136,1670,234,79,18,41.956195,12.510317
OCCHIOBELLO,REG,Wed,2.8976377952755907,2.0,10,127,39,19,5,44.899384,11.621197
OGGIONO,REG,Wed,2.5875706214689265,2.0,41,531,134,65,18,45.788993,9.33748
OLBIA,REG,Wed,0.927710843373494,-1.0,13,166,14,12,7,40.924595,9.498293
OLMI SPERCENIGO,REG,Wed,3.3065693430656933,2.0,22,274,68,35,14,45.679467,12.338101
OMEGNA,REG,Wed,1.7569060773480663,1.0,14,181,38,28,5,45.87179,8.413291
ORDONA,REG,Wed,2.650485436893204,2.0,8,103,28,18,5,41.315006,15.620567
ORTA MIASINO,REG,Wed,2.1933701657458564,1.0,14,181,48,33,4,45.795865,8.421217
ORTANOVA,REG,Wed,3.0172043010752687,2.0,36,465,139,85,24,41.350441,15.732059
OSNAGO,REG,Wed,3.362559241706161,1.0,68,844,242,136,45,45.678532,9.386995
OSPITALETTO MANTOVANO,REG,Wed,6.013333333333334,4.0,6,75,43,29,14,45.129748,10.604406
OSTERIA NUOVA,REG,Wed,2.964071856287425,2.0,66,835,189,122,44,44.586613,11.236525
OSTIA PARMENSE,REG,Wed,3.263768115942029,2.0,30,345,139,84,22,44.520136,9.844981
OTTAVIA,REG,Wed,2.2374429223744294,2.0,144,1533,255,83,16,,
OVADA,REG,Wed,2.440514469453376,1.0,24,311,87,39,11,44.630377,8.632301
P.M. BADESSE,REG,Wed,2.2213541666666665,1.0,35,384,66,35,10,43.382144,11.277136
PACECO,REG,Wed,1.3896103896103895,0.0,6,77,6,4,3,37.991354,12.550844
PADERNO DUGNANO,REG,Wed,0.2731164383561644,0.0,97,1168,26,10,3,,
PAGANICA,REG,Wed,1.3127035830618892,1.0,24,307,36,11,4,42.334751,13.464317
PALAZZOLO,REG,Wed,1.2443729903536977,1.0,28,311,23,10,3,,
PALAZZOLO VERCELLESE,REG,Wed,4.028735632183908,3.0,27,348,145,79,16,45.189004,8.232787
PALESTRO,REG,Wed,3.3216783216783217,2.0,13,143,43,14,4,45.307274,8.534511
PALMA S.GENNARO,REG,Wed,4.392857142857143,3.0,26,336,156,87,23,40.864149,14.540472
PALMI,REG,Wed,0.9445544554455445,0.0,41,505,55,24,8,38.364914,15.84438
PAOLA,REG,Wed,0.22473867595818817,-1.0,48,574,59,34,15,39.359442,16.033093
PARGHELIA,REG,Wed,3.4310344827586206,3.0,14,174,78,24,2,38.683341,15.925042
PASSIGNANO SUL TRASIMENO,REG,Wed,3.3179190751445087,3.0,27,346,136,79,15,43.188324,12.133128
PASTENA,REG,Wed,1.7666666666666666,2.0,60,360,23,3,1,,
PAVIA,REG,Wed,3.291304347826087,2.0,146,1840,713,406,109,45.188843,9.144674
PEDASO,REG,Wed,3.4754098360655736,2.0,38,488,161,95,37,43.094694,13.844906
PELLEZZANO,REG,Wed,2.0789473684210527,1.0,29,266,82,36,5,40.719928,14.777354
PERGINE,REG,Wed,1.2572815533980584,1.0,16,206,44,11,0,46.062482,11.232637
PERI,REG,Wed,6.093506493506493,5.0,30,385,237,170,70,45.658402,10.900314
PESCARA,REG,Wed,0.97539975399754,1.0,63,813,143,64,25,42.467789,14.205066
PETROSINO STRASATTI,REG,Wed,1.308411214953271,1.0,25,321,49,21,10,37.725466,12.509434
PIANA,REG,Wed,3.390909090909091,2.0,17,220,86,62,5,44.486383,8.308796
PIANA BELLA MONTELIBRETTI,REG,Wed,1.796736913664174,1.0,121,1471,115,50,10,42.105159,12.632938
PIANO ORIZZONTALE DEI GIOVI,REG,Wed,10.5,9.0,2,2,2,2,1,44.530912,8.9192
PICERNO,REG,Wed,2.8841463414634148,1.0,14,164,47,33,10,40.640122,15.641612
PIEDIMULERA,REG,Wed,2.964497041420118,2.0,13,169,42,21,7,46.024348,8.261237
PIETRARSA,REG,Wed,0.0,0.0,1,1,0,0,0,40.822433,14.32058
PIOPPE DI SALVARO,REG,Wed,2.02048417132216,2.0,42,537,110,39,2,44.310761,11.161785
PISTICCI,REG,Wed,1.6493506493506493,1.0,6,77,19,11,4,40.420848,16.552181
PISTOIA OVEST,REG,Wed,0.8278145695364238,0.0,12,151,11,6,3,,
PIZZO,REG,Wed,2.9597701149425286,2.0,14,174,63,34,2,38.726323,16.150615
POGGIO - CAREGGINE - VAGLI,REG,Wed,3.1646090534979425,2.0,19,243,81,38,4,44.148541,10.350626
POGGIO MIRTETO,REG,Wed,-0.07476635514018691,-1.0,43,535,25,11,4,42.242187,12.633043
POLIGNANO A MARE,REG,Wed,2.8046875,1.0,62,768,182,105,44,40.990926,17.218676
PONT SAINT MARTIN,REG,Wed,1.8131868131868132,1.0,38,455,109,61,19,45.589834,7.795024
PONTASSIEVE,REG,Wed,3.39389193422083,3.0,100,1277,483,246,59,43.773949,11.437904
PONTE S.PIETRO,REG,Wed,4.186681222707423,3.0,72,916,374,208,45,45.69916,9.584322
PONTELAMBRO - CASTELMARTE,REG,Wed,0.008875739644970414,0.0,27,338,0,0,0,,
POPOLANO,REG,Wed,4.68,4.0,2,25,16,7,1,44.102323,11.649045
PORTICI- ERCOLANO,REG,Wed,0.25,-1.0,8,92,10,4,3,40.809907,14.335809
PORTO DI VASTO,REG,Wed,2.2982456140350878,1.0,22,285,49,32,13,42.167774,14.698057
PORTOGRUARO CAORLE,REG,Wed,1.3713692946058091,1.0,79,964,142,48,16,45.781438,12.832375
POSTIOMA,REG,Wed,2.470967741935484,2.0,40,310,50,17,3,45.715862,12.148248
POTENZA MACCHIA ROMANA,REG,Wed,3.329512893982808,3.0,27,349,103,34,10,,
POTENZA SUPERIORE,REG,Wed,0.6275,0.0,31,400,37,16,8,40.64586,15.800966
POVO,REG,Wed,2.0985221674876846,2.0,16,203,62,27,0,,
PRASCO CREMOLINO,REG,Wed,2.6442953020134228,2.0,23,298,67,35,11,44.648906,8.55001
PRATA CAMPORTACCIO,REG,Wed,1.420911528150134,1.0,29,373,55,18,4,,
PRATOLA PELIGNA,REG,Wed,0.5,0.0,30,386,30,14,5,42.102423,13.876349
PREMOSELLO CHIOVENDA,REG,Wed,2.0228426395939088,1.0,32,394,82,53,20,46.002188,8.326649
PRIVERNO FOSSANOVA,REG,Wed,1.7611026033690658,0.0,51,653,146,87,35,41.421853,13.186406
QUARTO DI MARANO,REG,Wed,0.7894736842105263,1.0,26,133,10,6,0,40.871086,14.122801
QUARTO D`ALTINO,REG,Wed,2.0676117775354417,1.0,74,917,185,74,18,45.574576,12.365032
RAGUSA,REG,Wed,1.2608695652173914,-1.0,16,184,40,24,10,36.91927,14.725677
REGGIO CALABRIA CENTRALE,REG,Wed,-0.872870249017038,-2.0,62,763,50,24,13,38.103884,15.635844
REGGIO DI CALABRIA GALLICO,REG,Wed,0.04743083003952569,0.0,41,506,19,6,1,38.165235,15.650716
REGGIO MEDIOPADANA,REG,Wed,2.378787878787879,1.0,24,198,35,22,7,,
REMEDELLO SOTTO,REG,Wed,7.814935064935065,6.0,24,308,250,188,65,45.257477,10.388402
RENATE-VEDUGGIO,REG,Wed,3.2423625254582484,2.0,38,491,163,74,14,45.728304,9.279834
RICCIONE,REG,Wed,2.3254637436762224,1.0,52,593,148,78,31,43.999218,12.658549
RIGOLI,REG,Wed,1.7357142857142858,1.0,11,140,31,13,1,43.789681,10.419663
RIMINI,REG,Wed,0.4666666666666667,-1.0,78,900,157,99,42,44.064176,12.574093
RIOMAGGIORE,REG,Wed,20.0,8.0,3,3,2,2,1,44.105203,9.729105
RISANO,REG,Wed,16.0,16.0,1,1,1,1,1,45.97487,13.26181
ROBECCO-PONTEVICO,REG,Wed,1.955,2.0,31,400,105,45,13,45.266224,10.078593
ROBILANTE,REG,Wed,0.2883895131086142,-1.0,25,267,18,5,3,44.296496,7.510906
ROCCA DI FONDI,REG,Wed,1.60989010989011,1.0,14,182,28,10,4,42.39799,13.095825
ROCCAVIVI,REG,Wed,10.25,0.0,4,4,1,1,1,,
ROSSANO,REG,Wed,5.677551020408163,5.0,20,245,148,110,25,39.603005,16.640859
ROSSIGLIONE,REG,Wed,2.8392282958199355,2.0,24,311,103,48,12,44.566955,8.668051
S. GIACOMO DI TEGLIO,REG,Wed,2.549019607843137,2.0,4,51,9,6,3,46.159722,10.027405
S. GIULIANO MILANESE,REG,Wed,1.0637860082304527,0.0,40,486,87,43,11,45.391226,9.286418
S. MARIA DELLE MOLE,REG,Wed,4.409618573797678,3.0,50,603,301,143,35,41.774417,12.606225
S. PAOLO SOLBRITO,REG,Wed,1.9326683291770574,1.0,31,401,65,32,4,44.951753,7.975779
S. STEFANO DI MAGRA,REG,Wed,2.2022900763358777,1.0,51,524,127,60,18,44.156857,9.915202
S. ZENO FOLZANO,REG,Wed,2.727401129943503,2.0,55,708,138,73,39,45.491552,10.211683
S.CANDIDO,REG,Wed,1.64,1.0,4,50,2,0,0,46.732728,12.271917
S.CASSIANO,REG,Wed,4.653465346534653,4.0,16,202,106,57,11,44.143684,11.687503
S.DEMETRIO DE` VESTINI,REG,Wed,2.0846905537459284,2.0,24,307,69,21,4,42.294447,13.536543
S.FREDIANO A SETTIMO,REG,Wed,10.916666666666666,8.0,11,12,10,9,4,43.680508,10.517254
S.GIULIANO PIEMONTE,REG,Wed,1.5722222222222222,1.0,14,180,24,9,3,44.890543,8.760933
S.MARCO ROGGIANO,REG,Wed,-0.9668508287292817,-1.0,14,181,9,3,1,39.605223,16.208776
S.MARTINO DI LUPARI,REG,Wed,5.0,5.0,2,3,3,1,0,45.655928,11.857227
S.MICHELE IN BOSCO,REG,Wed,6.013333333333334,4.0,6,75,43,29,14,45.122404,10.57329
S.NAZARIO,REG,Wed,2.3333333333333335,2.0,14,180,31,4,2,45.838117,11.691321
S.PIETRO IN CASALE,REG,Wed,1.8303571428571428,1.0,71,896,201,124,46,44.697928,11.404763
S.SEVERINO MARCHE,REG,Wed,3.6773049645390072,3.0,22,282,110,56,19,43.22996,13.183491
S.VITO AL TAGLIAMENTO,REG,Wed,2.2394822006472492,2.0,26,309,103,31,1,45.912433,12.851594
SACILE,REG,Wed,0.711395101171459,-1.0,76,939,127,72,23,45.948413,12.498498
SAGRADO,REG,Wed,2.21792618629174,1.0,45,569,89,52,15,45.872629,13.484004
SALA AL BARRO-GALBIATE,REG,Wed,4.02092050209205,3.0,37,478,188,77,25,45.821086,9.359223
SALETTO,REG,Wed,1.4260869565217391,1.0,27,345,69,25,4,45.22274,11.535093
SALINE DI REGGIO,REG,Wed,1.7402862985685073,1.0,40,489,68,20,6,37.938677,15.710664
SALORNO,REG,Wed,9.333333333333334,7.0,4,6,6,6,2,46.245842,11.202681
SALUGGIA,REG,Wed,3.3262032085561497,2.0,29,374,130,67,11,45.23443,8.017112
SANGIANO,REG,Wed,5.933333333333334,4.0,28,345,213,119,27,45.874464,8.630769
SANTE MARIE,REG,Wed,1.0769230769230769,1.0,1,13,0,0,0,42.096993,13.21696
SANTHIA`,REG,Wed,1.8798521256931608,1.0,85,1082,221,116,30,45.363726,8.180093
SARMATO,REG,Wed,25.0,9.0,2,3,3,3,1,45.063043,9.491116
SARTIRANA,REG,Wed,2.4901315789473686,1.0,24,304,82,48,16,45.111728,8.67012
SASSA TORNIMPARTE,REG,Wed,1.2463235294117647,1.0,21,272,31,12,3,42.360549,13.295333
SASSUOLO RADICI,REG,Wed,4.904761904761905,3.0,8,63,29,14,10,,
SCAFA S.VALENTINO CARAMANICO T,REG,Wed,0.17433414043583534,-1.0,32,413,26,12,4,42.26717,13.99909
SCALETTA ZANCLEA,REG,Wed,3.2078313253012047,2.0,40,332,88,47,15,38.04635,15.465376
SCHIO,REG,Wed,-1.0245098039215685,-3.0,16,204,20,14,7,45.710848,11.355508
SCORCETOLI,REG,Wed,4.5,4.0,3,18,11,5,1,44.34431,9.911853
SCORDIA,REG,Wed,3.0476190476190474,1.0,4,42,10,7,4,37.294595,14.851219
SERENELLA,REG,Wed,3.667590027700831,3.0,31,361,155,53,9,,
SERMIDE,REG,Wed,3.0251572327044025,2.0,17,159,48,27,7,,
SERRADIFALCO,REG,Wed,-2.0588235294117645,-2.0,4,51,1,0,0,37.431804,13.883299
SESTO FIORENTINO,REG,Wed,1.910614525139665,1.0,16,179,37,23,7,43.833297,11.191941
SESTO S. GIOVANNI,REG,Wed,2.909581218274112,2.0,264,3152,995,536,139,45.541087,9.23926
SETTE BAGNI,REG,Wed,1.766565349544073,1.0,134,1645,169,75,15,42.006438,12.520156
SIBARI,REG,Wed,-0.2191780821917808,-2.0,18,219,42,17,11,39.749863,16.456922
SIECI,REG,Wed,5.8,5.0,26,30,20,15,2,43.790892,11.394608
SIENA,REG,Wed,0.6473282442748092,-1.0,54,655,73,37,20,43.331708,11.322972
SIGNA,REG,Wed,12.7,10.0,22,30,26,24,15,43.775441,11.095961
SIPICCIANO S.NICOLA,REG,Wed,0.8235294117647058,0.0,4,51,6,2,0,,
SIRACUSA,REG,Wed,1.506276150627615,0.0,21,239,42,27,17,37.068906,15.280896
SISTIANA,REG,Wed,1.9601063829787233,1.0,30,376,48,23,12,45.774903,13.645832
SOLAGNA,REG,Wed,2.631284916201117,3.0,14,179,45,4,2,45.815434,11.72134
SOLERO,REG,Wed,1.834319526627219,1.0,13,169,32,13,3,44.915886,8.51043
SOLOPACA,REG,Wed,4.587378640776699,3.0,16,206,97,75,28,41.210521,14.571413
SOMMARIVA BOSCO,REG,Wed,2.2,0.0,34,435,101,50,11,44.770754,7.777086
SORESINA,REG,Wed,5.119733924611974,3.0,35,451,207,145,64,45.283083,9.85664
SORGENTI DEL PESCHIERA,REG,Wed,7.288461538461538,7.0,4,52,46,35,5,42.36428,12.996973
SORI,REG,Wed,7.0,8.0,3,3,3,2,0,44.369795,9.106006
SPADAFORA,REG,Wed,10.0,6.0,5,12,12,8,6,38.221922,15.377196
STAZIONE PER L`ALPAGO,REG,Wed,2.3422619047619047,2.0,28,336,56,13,3,46.137574,12.316066
STIMIGLIANO,REG,Wed,1.3508353221957041,1.0,34,419,31,16,4,42.289811,12.568632
SUSA,REG,Wed,0.12931034482758622,-1.0,18,232,21,10,1,45.138622,7.052311
TAGGIA ARMA,REG,Wed,3.5586776859504132,2.0,48,605,171,96,45,43.840764,7.835604
TALAMONA,REG,Wed,4.987903225806452,3.0,20,248,124,77,22,46.13952,9.599528
TALAMONE,REG,Wed,0.6666666666666666,0.0,3,3,0,0,0,42.56461,11.164524
TARANTO,REG,Wed,-0.9164179104477612,-2.0,26,335,33,17,8,40.483727,17.224059
TERLANO-ANDRIANO,REG,Wed,3.5026548672566373,3.0,44,565,265,86,5,46.528517,11.248394
TERMOLI,REG,Wed,0.9175824175824175,0.0,14,182,36,19,3,42.000623,14.992805
TOLLO CANOSA SANNITA,REG,Wed,1.0,1.0,3,3,0,0,0,42.394208,14.339984
TOR VERGATA,REG,Wed,3.4648562300319488,2.0,49,626,201,90,26,41.823224,12.666162
TORANO LATTARICO,REG,Wed,0.4198895027624309,0.0,14,181,14,5,1,39.49455,16.210509
TORINO LINGOTTO,REG,Wed,1.1393977025768396,1.0,258,3221,505,229,61,45.0266,7.657469
TORINO P.NUOVA,REG,Wed,1.2405362776025237,0.0,105,1268,224,107,41,45.060969,7.67747
TORINO REBAUDENGO FOSSATA,REG,Wed,1.6906077348066297,1.0,172,2172,329,142,31,,
TORRAZZA P.,REG,Wed,2.5240641711229945,2.0,29,374,109,54,9,45.211855,7.970255
TORRE DEL GRECO,REG,Wed,-0.7608695652173914,-1.0,8,92,5,4,2,40.787631,14.363159
TORRE DE` PICENARDI,REG,Wed,3.98019801980198,2.0,8,101,33,17,6,45.137198,10.286849
TORREGROTTA,REG,Wed,10.666666666666666,12.0,2,3,3,2,2,38.208376,15.352813
TORTONA,REG,Wed,2.9567099567099566,2.0,54,693,222,135,33,44.900126,8.861777
TRAPANI,REG,Wed,-0.7124183006535948,-2.0,12,153,9,8,6,38.017092,12.518814
TRENTO,REG,Wed,2.029580152671756,2.0,82,1048,322,182,57,46.072414,11.118941
TREVIGNANO SIGNORESSA,REG,Wed,3.621359223300971,3.0,40,309,135,39,7,45.74789,12.103123
TROMELLO,REG,Wed,3.9329073482428116,3.0,25,313,124,53,10,45.211988,8.872154
UDINE,REG,Wed,0.5055499495459133,0.0,78,991,116,55,25,46.055791,13.242003
VALENZA,REG,Wed,3.2829268292682925,2.0,65,820,288,171,53,45.023527,8.625808
VALLE AURELIA,REG,Wed,4.028251599147121,4.0,173,1876,1032,267,27,41.899356,12.447667
VALLE DI MADDALONI,REG,Wed,5.276699029126213,3.0,16,206,101,76,35,41.087558,14.426049
VALMADONNA,REG,Wed,3.9069767441860463,2.0,38,473,152,79,31,44.972588,8.610667
VANDOIES,REG,Wed,1.0784313725490196,1.0,8,102,4,3,1,46.814822,11.723079
VARESE,REG,Wed,2.876679841897233,1.0,102,1265,333,178,66,45.816201,8.833089
VELLETRI,REG,Wed,0.8503184713375797,-1.0,27,314,35,16,11,41.682421,12.780864
VENAFRO,REG,Wed,-1.8823529411764706,-2.0,15,187,23,14,7,41.482975,14.048722
VENEZIA MESTRE OSPEDALE,REG,Wed,14.0,10.0,3,3,3,3,1,,
VERCELLI,REG,Wed,1.345821325648415,1.0,82,1041,172,88,24,45.329909,8.416028
VERCURAGO S.GIROLAMO,REG,Wed,3.1333333333333333,2.0,14,180,69,39,5,45.812122,9.422349
VERDELLO DALMINE,REG,Wed,1.2460443037974684,1.0,100,1264,147,72,29,45.605715,9.619797
VERNANTE,REG,Wed,0.602996254681648,0.0,25,267,18,7,3,44.244639,7.535986
VERONA PORTA NUOVA,REG,Wed,0.7182448036951501,1.0,104,1299,313,185,71,45.428603,10.982377
VICOFERTILE,REG,Wed,2.775,2.0,29,320,100,59,17,44.778436,10.25834
VIGNA CLARA,REG,Wed,0.5982905982905983,0.0,9,117,7,3,0,41.96827,12.409026
VIGNALE RIOTORTO,REG,Wed,-0.5,-1.0,2,2,0,0,0,42.967587,10.667255
VILLA BONELLI,REG,Wed,2.5789133247089264,2.0,126,1546,355,120,15,41.8477601,12.455223
VILLA CLAUDIA,REG,Wed,1.8571428571428572,1.0,41,525,63,31,8,41.484326,12.61709
VILLA RAVERIO,REG,Wed,3.054474708171206,2.0,40,514,163,69,12,45.690418,9.261549
VILLA SAN SEBASTIANO,REG,Wed,1.1538461538461537,1.0,1,13,1,0,0,42.049331,13.308271
VILLABASSA - BRAIES,REG,Wed,-0.6534653465346535,0.0,8,101,2,1,0,46.736492,12.167041
VILLADOSSOLA,REG,Wed,1.707182320441989,1.0,14,181,22,10,5,46.064151,8.264675
VILLAFRANCA TIRRENA,REG,Wed,6.0,6.0,1,1,1,1,0,38.233517,15.42892
VILLANOVA,REG,Wed,0.6673596673596673,0.0,39,481,54,25,4,44.963159,7.947136
VILLAROSA,REG,Wed,1.9915254237288136,2.0,12,118,26,11,5,37.567205,14.200464
VILLASOR,REG,Wed,1.2736318407960199,1.0,32,402,44,21,11,39.381451,8.935907
VILLAZZANO,REG,Wed,1.796116504854369,1.0,16,206,35,9,0,46.045911,11.13906
VILLETTA MALAGNINO,REG,Wed,3.127450980392157,1.0,9,102,23,15,6,45.137019,10.111943
VILLETTA S. ROMANO,REG,Wed,2.980392156862745,2.0,20,255,84,36,1,44.146764,10.367565
VIPITENO,REG,Wed,1.0607142857142857,-1.0,44,560,87,59,21,46.895732,11.440206
VITERBO PORTA FIORENTINA,REG,Wed,-0.508695652173913,-1.0,22,230,7,3,1,42.425237,12.106204
VITTORIA,REG,Wed,2.38,1.0,13,150,35,24,11,36.958721,14.52499
VITTORIO VENETO,REG,Wed,1.9017857142857142,1.0,28,336,47,20,4,45.989946,12.29327
ZAGAROLO,REG,Wed,0.7297008547008547,0.0,73,936,99,51,17,41.821927,12.82692
ZAPPULLA,REG,Wed,1.124113475177305,1.0,22,282,31,14,4,38.116962,14.703086
ABBADIA LARIANA,REG,Wed,1.231012658227848,1.0,25,316,58,39,13,45.895864,9.335175
ACCIANO,REG,Wed,8.254901960784315,7.0,4,51,51,49,9,42.175994,13.711345
ACIREALE,REG,Wed,1.0723981900452488,0.0,55,663,86,43,19,37.600514,15.163697
AGROPOLI CASTELLABATE,REG,Wed,2.492021276595745,1.0,30,376,103,70,27,40.351521,15.002053
AIRASCA,REG,Wed,4.6125,4.0,44,560,331,213,34,44.928093,7.483536
ALBA,REG,Wed,0.4926829268292683,0.0,16,205,22,3,2,44.697713,8.030629
ALBA ADRIATICA NERETO CONTR.,REG,Wed,3.8729096989966556,2.0,23,299,116,68,24,42.83438,13.91733
ALBENGA,REG,Wed,4.272577996715928,3.0,48,609,243,147,53,44.04722,8.221663
ALBIZZATE SOLBIATE ARNO,REG,Wed,2.602853745541023,1.0,67,841,259,173,62,45.724117,8.80621
ALBUZZANO,REG,Wed,2.8986013986013988,2.0,22,286,88,33,5,45.172504,9.261624
ALFONSINE,REG,Wed,2.449438202247191,1.0,28,356,65,36,16,44.512364,12.039155
ALPIGNANO,REG,Wed,2.0,2.0,3,3,0,0,0,45.091077,7.523745
ALTARE,REG,Wed,0.3875968992248062,0.0,10,129,6,5,2,44.336169,8.332753
AMOROSI MELIZZANO,REG,Wed,4.288888888888889,3.0,14,180,84,57,21,41.173509,14.470759
ANCONA,REG,Wed,1.1959654178674353,0.0,81,1041,179,95,47,43.607734,13.497665
ANGRI,REG,Wed,0.8392857142857143,0.0,5,56,9,2,2,40.746404,14.575366
APPIANO,REG,Wed,2.0515532055518837,1.0,142,1513,219,76,11,41.909342,12.43838
ARCISATE,REG,Wed,2.8408239700374533,2.0,86,1068,225,113,37,45.858579,8.86241
ARSOLI,REG,Wed,2.4038461538461537,1.0,16,208,45,20,5,42.045852,13.013064
ASCEA,REG,Wed,3.2986666666666666,1.0,30,375,123,83,29,40.140955,15.172626
ASOLA,REG,Wed,6.990654205607477,6.0,25,321,240,168,57,45.220454,10.402313
ASSO,REG,Wed,0.01764705882352941,0.0,14,170,0,0,0,45.855228,9.268513
ASTI,REG,Wed,1.7081891580161477,1.0,72,867,179,82,26,44.89479,8.208112
AULLA LUNIGIANA,REG,Wed,1.4075187969924812,1.0,62,665,114,61,24,44.210555,9.970015
AVERSA,REG,Wed,1.760119940029985,1.0,104,1334,289,193,77,40.973323,14.218578
AVIGLIANA,REG,Wed,1.609100310237849,1.0,75,967,154,81,22,45.085276,7.401096
AVIO,REG,Wed,13.5,13.0,2,2,2,2,2,45.733892,10.955842
AVOLA,REG,Wed,1.605263157894737,1.0,16,190,34,21,9,36.907434,15.125733
BAGHERIA,REG,Wed,0.6584905660377358,0.0,84,1060,93,42,19,38.089905,13.507215
BAGNOLO MELLA,REG,Wed,2.22,2.0,31,400,68,22,9,45.428532,10.183617
BARAGIANO,REG,Wed,3.791411042944785,3.0,14,163,63,39,13,40.695213,15.569206
BARCELLONA,REG,Wed,1.1490066225165563,1.0,48,604,79,38,13,38.14918,15.212499
BARCO,REG,Wed,0.04918032786885246,0.0,20,183,20,4,0,,
BARGA GALLICANO,REG,Wed,3.6816816816816815,3.0,26,333,152,56,4,44.068114,10.451938
BARI CENTRALE,REG,Wed,-0.049889948642699924,-1.0,109,1363,160,102,49,41.11774,16.869601
BARI PARCO SUD,REG,Wed,0.0,0.0,1,1,0,0,0,41.111822,16.914736
BARI S. SPIRITO,REG,Wed,3.14,2.0,62,800,245,122,38,41.159653,16.746324
BARI ZONA INDUSTRIALE,REG,Wed,1.6395939086294415,0.0,61,788,146,83,34,,
BAZZANA,REG,Wed,1.0099502487562189,0.0,16,201,10,6,3,44.777094,8.401557
BELGIRATE,REG,Wed,4.772486772486772,3.0,15,189,86,57,29,45.843337,8.570821
BELLA MURO,REG,Wed,2.5695364238410594,2.0,13,151,44,28,9,40.700914,15.542936
BESOZZO,REG,Wed,2.8071625344352618,1.0,29,363,121,69,19,45.842188,8.662997
BIANCO,REG,Wed,3.4838709677419355,2.0,24,279,95,60,21,38.089072,16.153348
BIANZE`,REG,Wed,1.9375,1.0,26,336,80,36,5,45.309488,8.115523
BINARIO S.MARCO VECCHIO,REG,Wed,2.482142857142857,2.0,31,392,105,53,22,43.790336,11.267403
BISTAGNO,REG,Wed,2.7045454545454546,2.0,17,220,77,33,2,44.659256,8.372057
BOLGHERI,REG,Wed,3.699530516431925,2.0,17,213,71,43,18,43.244664,10.550548
BOLOGNA SAN VITALE,REG,Wed,4.001821493624773,2.0,98,1098,384,255,83,,
BOLZANO NOVARESE,REG,Wed,2.8076923076923075,1.0,2,26,3,2,1,45.759357,8.440754
BONDENO,REG,Wed,1.644578313253012,1.0,18,166,28,15,8,,
BORGO A BUGGIANO,REG,Wed,4.8737541528239205,4.0,24,301,172,115,28,43.880724,10.730079
BORGO SAN DALMAZZO,REG,Wed,0.9213483146067416,1.0,25,267,24,12,3,44.326249,7.486111
BORGO VALSUGANA CENTRO,REG,Wed,2.2135922330097086,2.0,16,206,52,15,1,46.051182,11.453967
BORGOFRANCO,REG,Wed,1.9076923076923078,1.0,5,65,13,10,1,45.514775,7.854612
BORGOLOMBARDO,REG,Wed,1.286008230452675,0.0,40,486,98,48,12,45.403856,9.27111
BOVA MARINA,REG,Wed,3.5761194029850745,2.0,26,335,105,65,23,37.930269,15.923897
BRISIGHELLA,REG,Wed,4.279835390946502,3.0,19,243,106,49,11,44.220565,11.769757
BROLO FICARRA,REG,Wed,1.68125,1.0,25,320,55,26,9,38.159204,14.830176
BRONI,REG,Wed,4.464467005076142,3.0,32,394,186,111,38,45.066263,9.258751
BRUNICO NORD,REG,Wed,1.4653465346534653,1.0,8,101,11,1,0,,
BRUZOLO,REG,Wed,0.8629629629629629,0.0,42,540,66,36,4,45.131032,7.201497
BUSALLA,REG,Wed,-0.5646853146853147,-1.0,46,572,42,18,5,44.57558,8.943611
BUSTO ARSIZIO,REG,Wed,2.462284820031299,1.0,285,3195,819,477,122,45.616164,8.865031
BUTTRIO,REG,Wed,1.723342939481268,1.0,27,347,58,19,4,46.012664,13.329039
Bazzano (AQ),REG,Wed,5.911111111111111,6.0,7,90,80,46,7,,
CALDE`,REG,Wed,4.823361823361823,4.0,28,351,176,114,25,45.945812,8.663157
CALDONAZZO,REG,Wed,2.2475728155339807,2.0,16,206,69,28,0,45.997575,11.264815
CALENZANO,REG,Wed,21.0,7.0,2,2,2,2,1,43.856429,11.14537
CAMAIORE LIDO CAPEZZANO,REG,Wed,6.0,6.0,2,2,2,2,0,43.912176,10.24765
CAMPAGNA SERRE PERSANO,REG,Wed,2.0833333333333335,2.0,9,96,16,6,3,40.595667,15.113986
CAMPOMIGLIAIO,REG,Wed,2.0654761904761907,2.0,13,168,38,20,3,43.937241,11.303593
CANCELLO ARNONE,REG,Wed,2.6123595505617976,1.0,14,178,47,32,11,41.063369,14.02901
CANZO,REG,Wed,0.008875739644970414,0.0,27,338,0,0,0,,
CAPACCIO ROCCADASPIDE,REG,Wed,2.923076923076923,1.0,30,377,112,81,29,40.454518,15.013551
CAPALBIO,REG,Wed,1.8148148148148149,1.0,21,270,55,32,8,42.407974,11.370982
CARIMATE,REG,Wed,2.1909604519774013,1.0,73,885,217,117,25,45.697094,9.107188
CASALE MONFERRATO,REG,Wed,-1.2776119402985076,-2.0,26,335,28,17,4,45.133928,8.460292
CASALETTO VAPRIO,REG,Wed,5.1192660550458715,3.0,34,436,211,133,56,45.408641,9.631746
CASTEGGIO,REG,Wed,0.5,0.0,2,2,0,0,0,45.017365,9.124595
CASTEL LAGOPESOLE,REG,Wed,2.14404432132964,1.0,28,361,86,47,9,40.787682,15.758093
CASTEL MADAMA,REG,Wed,2.1814671814671813,1.0,20,259,51,22,6,41.988389,12.864938
CASTEL S.ANGELO,REG,Wed,3.5167785234899327,3.0,23,298,126,44,9,42.379666,13.017612
CASTEL S.PIETRO TERME,REG,Wed,4.294062205466541,3.0,85,1061,453,303,81,44.407376,11.597681
CASTELBOLOGNESE,REG,Wed,3.694048616932104,2.0,95,1193,448,281,95,44.325391,11.804174
CASTELFRANCO D'EMILIA,REG,Wed,3.2363636363636363,2.0,80,990,315,208,82,44.597381,11.056408
CASTELGUELFO,REG,Wed,1.2941176470588236,1.0,4,51,7,4,0,44.836434,10.176706
CASTELLINA CH,REG,Wed,1.623342175066313,1.0,30,377,60,24,10,43.408744,11.212379
CASTELLO DI GODEGO,REG,Wed,1.1008717310087173,1.0,63,803,130,40,4,45.688082,11.87759
CASTELVECCHIO PASCOLI,REG,Wed,3.5891472868217056,3.0,10,129,56,24,2,44.09007,10.455061
CASTELVETRO,REG,Wed,2.128342245989305,1.0,15,187,29,15,6,45.100095,9.982181
CASTIGLION DEL LAGO,REG,Wed,4.154022988505747,3.0,35,435,178,87,34,43.123195,12.032077
CASTIONE DEI MARCHESI,REG,Wed,2.8098159509202456,2.0,13,163,38,15,3,44.915157,10.044449
CASTRONNO,REG,Wed,3.5739856801909307,2.0,67,838,265,150,54,45.74524,8.810302
CATANZARO,REG,Wed,3.097493036211699,2.0,29,359,139,67,8,38.896222,16.599081
CAULONIA,REG,Wed,3.9375,3.0,5,64,29,22,1,38.343785,16.467278
CAVALLEGGERI AOSTA,REG,Wed,1.3263665594855305,1.0,49,622,82,32,6,40.819292,14.185679
CAVARIA OGGIONA JERAGO,REG,Wed,4.769322235434007,2.0,67,841,344,249,89,45.698145,8.8035
CA` DI BOSCHETTI,REG,Wed,10.0,11.0,5,6,5,4,4,44.117925,9.857449
CECCANO,REG,Wed,0.8656036446469249,0.0,34,439,51,33,10,41.573583,13.336417
CECINA,REG,Wed,2.9301075268817205,2.0,45,558,162,87,27,43.31028,10.514225
CEGGIA,REG,Wed,6.0,6.0,1,1,1,1,0,45.688394,12.633987
CENGIO,REG,Wed,1.669811320754717,1.0,33,424,59,30,14,44.390798,8.191824
CERIALE,REG,Wed,2.0,2.0,1,1,0,0,0,44.098922,8.234216
CERTALDO,REG,Wed,2.8507462686567164,2.0,59,737,235,112,23,43.547124,11.037711
CESANO DI ROMA,REG,Wed,1.7268041237113403,1.0,109,1164,170,64,12,42.061833,12.326669
CESATE,REG,Wed,0.7493917274939172,0.0,101,1233,91,29,7,,
CHIASSO,REG,Wed,-0.46432889963724305,-2.0,67,827,108,68,23,45.830736,9.03421
CHIAVENNA,REG,Wed,1.0461538461538462,1.0,15,195,23,7,2,46.321258,9.407129
CHIOMONTE,REG,Wed,1.4427312775330396,1.0,35,454,72,39,9,45.119876,6.988716
CIAMPINO,REG,Wed,1.412691060676239,1.0,171,2159,345,147,46,41.804442,12.599546
CINISI TERRASINI,REG,Wed,2.263157894736842,1.0,9,114,17,9,6,38.155314,13.096673
CIRO',REG,Wed,4.412244897959184,3.0,20,245,119,79,23,39.368701,17.116997
CITTADUCALE,REG,Wed,3.52258064516129,3.0,24,310,140,59,9,42.387764,12.94269
CIVITA D`ANTINO-MORINO,REG,Wed,4.472222222222222,2.0,12,108,36,18,9,41.870632,13.458868
CIVITANOVA MARCHE,REG,Wed,3.0288248337028825,2.0,70,902,262,151,43,43.3091,13.7257
CODIGORO,REG,Wed,4.075949367088608,3.0,9,79,35,13,3,,
COLLEFERRO-SEGNI-PALIANO,REG,Wed,0.8995633187772926,0.0,71,916,118,55,19,41.740062,13.00299
COLONNA GALLERIA,REG,Wed,2.8636363636363638,2.0,43,550,142,66,20,,
CORMONS,REG,Wed,1.1193771626297577,0.0,45,578,81,39,14,45.957519,13.461563
COSENZA,REG,Wed,1.2947658402203857,-1.0,29,363,44,23,15,39.318386,16.260955
COSSATO,REG,Wed,1.596774193548387,1.0,29,310,67,29,7,45.564216,8.175964
CREMA,REG,Wed,5.557777777777778,3.0,35,450,214,146,58,45.366864,9.694209
CROPANI,REG,Wed,2.877245508982036,2.0,27,334,90,41,13,38.921968,16.813562
CUNEO,REG,Wed,-1.2386363636363635,-2.0,30,352,24,11,1,44.387914,7.536235
CUSANO,REG,Wed,1.0,1.0,2,2,0,0,0,45.945427,12.757485
CUTRO,REG,Wed,3.6153846153846154,3.0,1,13,5,3,0,39.02593,16.963809
CUZZAGO,REG,Wed,2.9047619047619047,1.0,15,189,43,23,14,45.993682,8.373989
DECIMOMANNU,REG,Wed,0.21168501270110077,-1.0,102,1181,76,51,24,39.304593,8.965808
DIANO,REG,Wed,5.0,6.0,8,9,6,6,0,,
DOGATO,REG,Wed,0.5506329113924051,0.0,18,158,11,7,4,,
DOMODOSSOLA,REG,Wed,-0.2568493150684932,-2.0,23,292,49,33,14,46.115429,8.296684
DORMELLETTO,REG,Wed,3.706172839506173,2.0,32,405,166,106,33,45.7233,8.581906
DOSSOBUONO,REG,Wed,4.264094955489615,3.0,26,337,162,85,14,45.392382,10.914831
ELMAS AEROPORTO,REG,Wed,0.9322381930184805,0.0,125,1461,102,57,30,,
ERBA,REG,Wed,0.00468384074941452,0.0,34,427,0,0,0,,
FABRIANO,REG,Wed,1.8025210084033614,1.0,38,476,108,59,21,43.345429,12.905336
FABRO-FICULLE,REG,Wed,5.07667731629393,3.0,25,313,115,70,35,42.874851,12.04123
FARA SABINA,REG,Wed,-0.4606116774791474,-1.0,87,1079,47,23,7,42.155546,12.648323
FELTRE,REG,Wed,1.395189003436426,1.0,33,291,34,19,6,46.012884,11.911493
FERENTINO-SUPINO,REG,Wed,2.512630014858841,2.0,52,673,134,80,26,41.6564,13.246971
FERRANDINA,REG,Wed,1.9090909090909092,2.0,6,77,19,9,3,40.516566,16.475276
FI ROVEZZANO,REG,Wed,8.705882352941176,7.0,9,17,15,13,4,43.768657,11.307372
FIDENE,REG,Wed,1.5978456014362656,1.0,136,1671,185,76,17,41.979773,12.508451
FIGLINE VALDARNO,REG,Wed,3.4645669291338583,2.0,99,1270,427,236,80,43.621596,11.473652
FIRENZE CAMPO MARTE,REG,Wed,2.93312101910828,2.0,149,1884,568,346,91,43.776856,11.27702
FIRENZE CASTELLO,REG,Wed,1.471677559912854,1.0,75,918,160,88,24,43.819444,11.21838
FIRENZE STATUTO,REG,Wed,2.9909090909090907,2.0,37,440,161,94,21,43.787273,11.249738
FIUMELATTE,REG,Wed,3.0559210526315788,2.0,24,304,105,69,18,45.999017,9.292857
FOGNANO,REG,Wed,5.682242990654205,5.0,17,214,132,89,22,,
FOLIGNO,REG,Wed,1.359724612736661,0.0,46,581,119,65,24,42.954261,12.711096
FORENZA,REG,Wed,3.0194174757281553,2.0,24,309,102,61,13,40.866839,15.725331
FORLIMPOPOLI,REG,Wed,3.5724815724815726,2.0,33,407,126,87,29,44.194165,12.128125
FORNACI DI BARGA,REG,Wed,2.106936416184971,2.0,27,346,97,40,3,44.045253,10.473173
FOSSATO DI VICO GUBBIO,REG,Wed,2.9817351598173514,1.0,18,219,68,42,15,43.283798,12.757258
FRATTAMAGGIORE,REG,Wed,5.5,0.0,2,2,1,1,1,40.940018,14.263676
GAIBANELLA,REG,Wed,3.450980392156863,2.0,8,102,36,19,3,44.778116,11.671325
GALLARATE,REG,Wed,3.490987124463519,2.0,195,2330,891,604,185,45.659828,8.798243
GALLESE IN TEVERINA,REG,Wed,1.821515892420538,1.0,33,409,38,18,5,42.380901,12.439732
GAMBETTOLA,REG,Wed,3.526610644257703,2.0,29,357,131,86,22,44.116718,12.327555
GAVIGNANO,REG,Wed,3.0310262529832936,2.0,34,419,91,27,4,,
GAZZADA SCHIANNO MORAZZONE,REG,Wed,3.5828367103694876,2.0,67,839,254,145,53,45.77862,8.824815
GEMELLI,REG,Wed,2.477893368010403,2.0,144,1538,266,82,13,41.927813,12.427797
GENOVA BOLZANETO,REG,Wed,0.8900602409638554,1.0,53,664,71,32,3,44.459208,8.900193
GENOVA BORZOLI,REG,Wed,4.0134228187919465,3.0,23,298,131,84,21,44.434704,8.866648
GENOVA BRIGNOLE,REG,Wed,1.2109275730622617,1.0,185,2361,424,225,64,44.407213,8.947553
GENOVA PRA,REG,Wed,7.3,6.0,10,10,6,6,2,44.426874,8.785356
GHIVIZZANO - COREGLIA,REG,Wed,3.855855855855856,3.0,26,333,152,71,10,44.027583,10.510183
GIACHERY,REG,Wed,-5.494845360824742,-6.0,30,388,0,0,0,38.138135,13.355856
GIOIOSA JONICA,REG,Wed,2.3952483801295896,1.0,38,463,130,79,18,38.300812,16.332501
GORGO AL MONTICANO,REG,Wed,2.2161172161172162,1.0,22,273,38,16,5,45.784444,12.553737
GOZZANO,REG,Wed,2.1933701657458564,1.0,14,181,47,33,9,45.741039,8.438726
GRICIGNANO,REG,Wed,1.8704156479217604,1.0,32,409,59,34,19,40.998742,14.241657
GROTTAGLIE,REG,Wed,1.8028846153846154,0.0,16,208,49,31,8,40.528989,17.424503
GROTTE,REG,Wed,0.022727272727272728,0.0,7,88,4,1,0,37.409848,13.702717
GUADAGNA,REG,Wed,1.487991266375546,1.0,72,916,49,14,5,,
GUASTALLA,REG,Wed,0.12618296529968454,0.0,37,317,36,22,10,,
IGEA MARINA,REG,Wed,1.6790697674418604,0.0,34,430,63,40,22,44.131972,12.481636
ISERNIA,REG,Wed,3.1733333333333333,-1.0,6,75,16,11,10,41.596946,14.235421
ISOLA DELLE FEMMINE,REG,Wed,0.7516778523489933,1.0,35,447,23,4,1,38.194784,13.250188
ISOLA LIRI,REG,Wed,1.5714285714285714,0.0,5,7,1,1,0,41.681712,13.581088
ISOLETTA-S.GIOVANNI I.,REG,Wed,1.889156626506024,1.0,32,415,47,33,10,41.527873,13.547095
ITRI,REG,Wed,2.207070707070707,1.0,31,396,98,61,18,41.271328,13.545549
LA RUSTICA UIR,REG,Wed,0.9666666666666667,0.0,63,810,96,33,9,,
LA SPEZIA CENTRALE,REG,Wed,1.3879598662207357,1.0,101,897,218,108,32,44.11141,9.813906
LA SPEZIA MIGLIARINA,REG,Wed,2.2945285215366704,2.0,79,859,208,108,32,44.123391,9.84028
LA STORTA,REG,Wed,1.7342314758113901,1.0,154,1633,235,87,14,42.001748,12.381254
LAMBRINIA,REG,Wed,4.221052631578948,4.0,22,285,148,78,8,45.164376,9.527436
LAVENO MOMBELLO,REG,Wed,3.4532967032967035,2.0,29,364,121,76,22,45.903272,8.624583
LEGNAGO,REG,Wed,2.1837455830388692,2.0,22,283,44,19,6,45.189034,11.304724
LEGNANO,REG,Wed,4.681547619047619,4.0,106,1344,680,384,91,45.593653,8.910638
LENTINI,REG,Wed,1.5708333333333333,1.0,21,240,56,28,16,37.300916,14.99758
LEONFORTE-PIRATO,REG,Wed,2.076923076923077,1.0,12,117,26,12,7,37.606305,14.376063
LETOJANNI,REG,Wed,2.515406162464986,1.0,28,357,106,62,10,37.877581,15.303128
LEVICO,REG,Wed,3.4223300970873787,3.0,16,206,87,41,1,46.005729,11.30493
LIDO DI CLASSE-LIDO DI SAVIO,REG,Wed,3.0,1.0,34,430,113,65,27,44.314546,12.292722
LISSONE-MUGGIO`,REG,Wed,2.8356481481481484,2.0,113,1296,362,177,42,45.60592,9.235368
LOANO,REG,Wed,4.396774193548387,2.0,49,620,230,142,55,44.122429,8.254523
LOMELLO,REG,Wed,3.930795847750865,3.0,24,289,106,57,17,45.117276,8.799121
LUCCA,REG,Wed,2.2802829354553493,2.0,90,1131,330,138,25,43.837186,10.506069
LUGO,REG,Wed,4.826741996233522,4.0,42,531,285,162,43,44.414106,11.914723
MACCARESE,REG,Wed,1.3639960435212661,1.0,79,1011,119,53,12,41.879372,12.23695
MACOMER,REG,Wed,0.8591549295774648,-2.0,17,213,25,20,13,40.267899,8.772279
MAERNE DI MARTELLAGO,REG,Wed,2.2193308550185873,2.0,63,807,169,56,8,45.514799,12.150629
MAGENTA,REG,Wed,2.932935916542474,2.0,108,1342,349,176,56,45.468204,8.880633
MANDELA-SAMBUCI,REG,Wed,1.5153203342618384,1.0,29,359,66,33,8,42.016212,12.921976
MANDELLO DEL LARIO,REG,Wed,4.88062015503876,3.0,51,645,256,165,63,45.915208,9.322061
MARATEA,REG,Wed,2.5105105105105103,1.0,26,333,86,59,21,39.995028,15.70975
MARCONI,REG,Wed,16.5,0.0,2,2,1,1,1,,
MARINELLA,REG,Wed,1.2692307692307692,2.0,10,130,11,0,0,40.999129,9.55362
MARMORE,REG,Wed,2.8214285714285716,2.0,26,336,110,42,8,42.547499,12.715224
MARRADI,REG,Wed,4.160493827160494,3.0,19,243,112,52,9,44.07973,11.619174
MARSALA,REG,Wed,1.071651090342679,1.0,25,321,63,18,9,37.793514,12.443174
MASSAFISCAGLIA,REG,Wed,1.6178343949044587,1.0,18,157,17,7,5,,
MASSAROSA BOZZANO,REG,Wed,1.8559670781893005,2.0,19,243,40,12,0,43.855652,10.352022
MAZARA DEL VALLO,REG,Wed,0.5545171339563862,0.0,25,321,39,20,10,37.652448,12.594565
MEDE,REG,Wed,5.388888888888889,4.0,24,288,164,90,18,45.095009,8.742594
MELZO,REG,Wed,2.755364806866953,1.0,93,1165,312,212,67,45.502191,9.420653
MEOLO,REG,Wed,8.0,4.0,2,2,2,1,1,45.61319,12.453969
MERCATO SAN SEVERINO,REG,Wed,0.6861313868613139,0.0,16,137,23,12,1,40.783095,14.759749
METAPONTO,REG,Wed,-0.07792207792207792,-2.0,6,77,13,8,3,40.368496,16.815176
MEZZOCORONA,REG,Wed,4.944327731092437,3.0,74,952,467,285,88,46.207258,11.128595
MILANO DATEO,REG,Wed,4.775461584276355,3.0,271,3358,1616,951,281,45.462341,9.209277
MILANO PORTA ROMANA,REG,Wed,1.0,1.0,1,1,0,0,0,45.445844,9.213128
MILANO REPUBBLICA,REG,Wed,4.817287630402385,3.0,271,3355,1625,921,258,,
MILANO S. CRISTOFORO,REG,Wed,0.6263520157325467,-1.0,91,1017,169,101,37,45.442404,9.130258
MILANO VILLAPIZZONE,REG,Wed,4.6836124401913874,3.0,133,1672,735,380,99,,
MODENA,REG,Wed,1.7750952986022872,0.0,131,1574,344,226,98,44.654461,10.930373
MOMO,REG,Wed,1.9710144927536233,2.0,16,207,41,16,6,45.574646,8.55689
MONSELICE,REG,Wed,0.2673056443024494,0.0,73,939,130,70,16,45.246116,11.74789
MONTECOSARO,REG,Wed,3.4985590778097984,2.0,27,347,107,56,15,43.289297,13.646378
MONTELLO GORLAGO,REG,Wed,2.278242677824268,2.0,37,478,119,52,8,45.67017,9.808488
MONTELUPO CAPRAIA,REG,Wed,14.318181818181818,9.0,21,22,18,15,9,43.733357,11.018997
MONTENERO PETACCIATO,REG,Wed,1.8089430894308942,1.0,19,246,33,19,7,42.033286,14.851015
MONTEPAONE - MONTAURO,REG,Wed,1.625,1.0,5,64,17,9,1,38.728548,16.541944
MONTEPESCALI,REG,Wed,2.6968911917098444,2.0,30,386,94,52,18,42.869518,11.068743
MONTERONI D`ARBIA,REG,Wed,0.18248175182481752,0.0,25,274,24,6,3,43.230036,11.419662
MONTEROSSO,REG,Wed,2.6795827123695974,1.0,79,671,173,108,23,44.145967,9.649009
MONTESILVANO,REG,Wed,2.1578947368421053,1.0,53,684,147,91,26,42.515766,14.152567
MORENGO BARIANO,REG,Wed,7.0,4.0,2,2,2,1,0,45.521639,9.703114
MORI,REG,Wed,8.0,8.0,3,3,3,3,0,45.861216,11.002648
MOSCIANO S. ANGELO,REG,Wed,5.960334029227558,8.0,38,479,256,246,134,42.710309,13.908563
NARNI AMELIA,REG,Wed,0.0,0.0,1,1,0,0,0,42.53128,12.519592
NICHELINO,REG,Wed,5.1263345195729535,4.0,44,562,351,201,27,44.99132,7.642068
NIZZA DI SICILIA,REG,Wed,3.426621160409556,2.0,23,293,100,50,11,37.996937,15.412334
NIZZA MONFERRATO,REG,Wed,1.202020202020202,0.0,16,198,13,9,4,44.772905,8.361146
NOCERA UMBRA,REG,Wed,2.1210526315789475,1.0,15,190,45,33,10,43.100663,12.767207
NOGARA,REG,Wed,2.962962962962963,2.0,40,513,155,84,36,45.179937,11.070572
NUS,REG,Wed,2.4725274725274726,2.0,38,455,116,45,11,45.738786,7.4712
OFFIDA CASTEL DI LAMA,REG,Wed,1.6266318537859008,1.0,30,383,58,29,12,42.862074,13.720285
OLEGGIO,REG,Wed,2.838888888888889,2.0,14,180,43,11,4,45.598029,8.632586
OLGIATA,REG,Wed,3.298312883435583,3.0,125,1304,408,126,14,42.01538,12.363864
OLMENETA,REG,Wed,2.4524089306698,1.0,66,851,203,122,52,45.231099,10.03194
ORA,REG,Wed,10.875,9.0,8,8,8,8,4,46.36092,11.296781
ORBETELLO,REG,Wed,2.1482758620689655,1.0,23,290,61,45,8,42.450615,11.248972
ORICOLA-PERETO,REG,Wed,2.1153846153846154,1.0,12,156,22,11,4,42.067835,13.044214
ORIOLO,REG,Wed,2.4849137931034484,2.0,49,464,155,47,7,42.166825,12.138499
ORISTANO,REG,Wed,0.3841059602649007,-1.0,24,302,44,26,15,39.902033,8.603974
ORNAVASSO,REG,Wed,3.408284023668639,2.0,13,169,53,34,5,45.970296,8.415892
ORTONA,REG,Wed,2.6842105263157894,1.0,22,285,72,35,12,42.354196,14.407698
ORVIETO,REG,Wed,5.279141104294479,3.0,26,326,128,77,38,42.723379,12.127412
OSPEDALETTO LODIGIANO,REG,Wed,1.9405594405594406,1.0,22,286,83,47,9,45.16933,9.575164
OZZANO DELL'EMILIA,REG,Wed,5.94342762063228,5.0,48,601,380,240,71,44.450797,11.487297
OZZANO TARO,REG,Wed,4.665768194070081,3.0,33,371,164,99,30,44.712268,10.141022
P.C.CANARO,REG,Wed,1.5617977528089888,1.0,7,89,17,12,1,44.923012,11.675223
PADOVA,REG,Wed,-0.21934713375796178,-1.0,203,2512,327,139,31,45.417846,11.880794
PAESE CASTAGNOLE,REG,Wed,2.990322580645161,2.0,40,310,62,20,3,45.691182,12.182619
PALAGIANO CHIATONA,REG,Wed,0.8125,0.0,5,64,8,6,3,40.516998,17.059217
PALAZZOLO SULL`OGLIO,REG,Wed,3.0893203883495146,2.0,40,515,183,93,17,45.601486,9.896235
PALIZZI,REG,Wed,1.5870967741935484,1.0,12,155,37,16,3,37.91881,15.986405
PARCO LEONARDO,REG,Wed,2.570684039087948,2.0,125,1535,374,106,15,41.79932,12.29543
PARMA,REG,Wed,2.3196614583333335,1.0,124,1536,401,261,96,44.810203,10.32837
PATTI-SAN PIERO PATTI,REG,Wed,1.1947565543071161,1.0,42,534,91,42,11,38.146905,14.975331
PEDEROBBA CAVASO POSSAGNO,REG,Wed,3.3947368421052633,2.0,24,190,74,40,7,45.877299,11.965222
PEGOGNAGA,REG,Wed,2.146153846153846,1.0,14,130,21,16,9,,
PERAROLO DI CADORE,REG,Wed,1.5827338129496402,1.0,18,139,26,3,1,46.386277,12.352493
PESCARA PORTA NUOVA,REG,Wed,1.057742782152231,1.0,59,762,111,55,9,42.458072,14.211663
PIADENA,REG,Wed,5.301272984441301,4.0,56,707,408,241,74,45.127608,10.369962
PIANORO,REG,Wed,0.9443478260869566,0.0,54,575,69,39,15,44.380589,11.340675
PIAZZA AL SERCHIO,REG,Wed,0.8497109826589595,0.0,27,346,50,19,5,44.182515,10.296615
PIAZZA CAVOUR,REG,Wed,11.0,11.0,1,1,1,1,1,40.855248,14.255175
PIEDIMONTE-V.S.L.-AQUINO,REG,Wed,1.2114285714285715,1.0,42,525,55,31,11,,
PIETRASANTA,REG,Wed,3.605577689243028,3.0,65,753,290,160,43,43.95583,10.229731
PIEVE ALBIGNOLA,REG,Wed,6.118055555555555,5.0,24,288,191,108,22,45.116248,8.959723
PIEVE LIGURE,REG,Wed,6.333333333333333,6.0,3,3,2,2,1,44.372644,9.090975
PIEVE VERGONTE,REG,Wed,0.9345238095238095,-1.0,13,168,31,15,5,46.009783,8.276298
PINAROLO PO,REG,Wed,4.521341463414634,3.0,26,328,163,98,27,45.073415,9.170273
PINEROLO,REG,Wed,1.1785714285714286,0.0,22,280,87,45,6,44.887673,7.337402
PIOMBINO,REG,Wed,-0.9239130434782609,-1.0,14,92,7,3,1,42.924854,10.530959
PISA CENTRALE,REG,Wed,1.2337110481586402,1.0,172,2118,407,192,66,43.70794,10.398183
PISCINA DI PINEROLO,REG,Wed,2.8267857142857142,1.0,44,560,204,142,56,44.921744,7.425482
PISCIOTTA PALINURO,REG,Wed,2.3324468085106385,1.0,30,376,104,62,21,40.091539,15.243601
PISTOIA,REG,Wed,1.732902033271719,1.0,87,1082,239,128,41,43.926804,10.914624
PIZZIGHETTONE,REG,Wed,3.3181818181818183,3.0,6,66,28,16,4,45.181772,9.777133
POGGIO FIDONI,REG,Wed,7.969230769230769,8.0,5,65,65,57,6,42.395811,12.795429
POMEZIA - S.PALOMBA,REG,Wed,2.4352392065344226,1.0,67,857,205,110,36,41.706171,12.573611
PONTE A MORIANO,REG,Wed,3.6366366366366365,3.0,26,333,132,59,13,43.908371,10.534264
PONTE A TRESSA,REG,Wed,2.075,1.0,11,120,21,3,2,43.250844,11.39617
PONTE D`ADDA,REG,Wed,4.562111801242236,3.0,26,322,138,93,37,45.184352,9.790737
PONTE D`ADIGE,REG,Wed,1.6778761061946903,1.0,44,565,145,46,4,46.485444,11.297719
PONTE GARDENA,REG,Wed,2.7221297836938434,1.0,47,601,150,109,40,46.6012,11.53251
PONTENURE,REG,Wed,2.696629213483146,2.0,7,89,20,13,3,45.001687,9.792103
PONTI,REG,Wed,3.5,3.0,17,220,96,42,5,44.629979,8.365262
PONTICINO,REG,Wed,3.541747572815534,3.0,40,515,210,98,22,43.481446,11.71657
POPULONIA,REG,Wed,0.4444444444444444,0.0,8,9,0,0,0,42.996412,10.540659
PORTO CERESIO,REG,Wed,3.7788018433179724,2.0,17,217,73,41,20,45.903675,8.900357
PORTOMAGGIORE,REG,Wed,2.1620111731843576,1.0,28,358,81,39,16,44.696699,11.799785
POSTO COMUNICAZIONE DOLCE`,REG,Wed,5.412987012987013,4.0,30,385,215,151,69,45.601513,10.850588
POTENZA CENTRALE,REG,Wed,-0.672514619883041,-1.0,27,342,31,18,7,40.629469,15.806808
POZZALLO,REG,Wed,2.138888888888889,1.0,12,144,31,15,8,36.733821,14.848708
PRACCHIA,REG,Wed,1.12,1.0,12,150,15,5,3,44.05479,10.90691
PRATIGNONE,REG,Wed,36.0,36.0,1,1,1,1,1,43.849273,11.162008
QUERCIANELLA,REG,Wed,3.3367003367003365,2.0,24,297,92,53,19,43.454922,10.37255
QUISTELLO,REG,Wed,2.8396946564885495,2.0,14,131,40,24,7,,
RAPALLO,REG,Wed,5.0,5.0,11,12,7,5,2,44.351398,9.231282
REGGIO CALABRIA LIDO,REG,Wed,1.6666666666666667,0.0,3,3,1,0,0,38.117668,15.649171
REGGIO DI CALABRIA PELLARO,REG,Wed,1.2023346303501945,1.0,42,514,66,28,5,38.02561,15.650064
REGGIO DI CALABRIA S.CATERINA,REG,Wed,1.0,1.0,1,1,0,0,0,,
REGGIO EMILIA,REG,Wed,3.3961089494163423,2.0,115,1285,428,286,98,44.697793,10.643093
RHO,REG,Wed,3.8141403320835563,3.0,149,1867,732,398,97,45.523813,9.043563
RIGNANO SULL`ARNO REGGELLO,REG,Wed,2.265017667844523,1.0,66,849,219,116,29,43.720834,11.452383
RIMINIFIERA,REG,Wed,3.8151260504201683,3.0,35,119,45,24,4,,
RIONERO ATELLA RIPACANDITA,REG,Wed,2.781163434903047,2.0,28,361,126,79,13,40.922066,15.678699
RIVA TRIGOSO,REG,Wed,3.127016129032258,2.0,40,496,160,107,22,44.26391,9.429277
ROCCA D`EVANDRO,REG,Wed,3.8700361010830324,2.0,22,277,107,67,25,41.438861,13.911338
ROCCAPALUMBA-ALIA,REG,Wed,1.945770065075922,1.0,37,461,112,68,29,37.793751,13.673628
ROCCASECCA,REG,Wed,0.363905325443787,-1.0,54,676,68,43,13,41.526377,13.645814
ROCCAVIONE,REG,Wed,2.108614232209738,1.0,25,267,34,14,3,44.314445,7.485361
ROCCHETTA TANARO CERRO,REG,Wed,1.5266272189349113,1.0,13,169,25,8,2,44.875574,8.351402
ROMA MONTE MARIO,REG,Wed,1.3985695708712613,1.0,144,1538,157,60,9,41.939088,12.421732
ROMA TUSCOLANA,REG,Wed,0.7758565481908422,0.0,278,3123,340,134,28,41.879384,12.523505
ROMANO,REG,Wed,2.3572267920094006,1.0,68,851,213,118,48,45.523839,9.753402
ROMETTA MESSINESE,REG,Wed,1.2155555555555555,1.0,36,450,49,31,5,38.228455,15.405894
RONCEGNO BAGNI-MARTER,REG,Wed,2.4926829268292683,2.0,16,205,70,20,1,46.03618,11.398818
RONTA,REG,Wed,3.4979423868312756,3.0,19,243,91,52,11,44.009432,11.434125
ROSETO DEGLI ABRUZZI,REG,Wed,2.745406824146982,2.0,59,762,234,124,37,42.677852,14.01535
ROSIGNANO,REG,Wed,2.7276190476190476,1.0,42,525,135,73,27,43.387899,10.438041
ROVERETO - S.V. - MEDELANA,REG,Wed,0.9430379746835443,0.0,18,158,16,7,4,,
ROVIANO,REG,Wed,0.6824034334763949,0.0,19,233,35,17,5,42.026476,12.991119
ROVIGO,REG,Wed,-0.6735340729001584,-2.0,49,631,100,61,20,45.076993,11.780892
RUDALZA,REG,Wed,1.4692307692307693,1.0,10,130,3,1,0,40.994082,9.531214
S. AMBROGIO,REG,Wed,2.477777777777778,1.0,42,540,109,53,10,45.101161,7.360933
S. CRISTINA E BISSONE,REG,Wed,4.624561403508772,4.0,22,285,167,92,12,45.160533,9.401006
S. GIULIANO PIACENTINO,REG,Wed,4.137142857142857,3.0,14,175,56,23,7,45.070627,9.985919
S.AGATA M.,REG,Wed,0.06356968215158924,-1.0,32,409,57,35,13,38.073554,14.640622
S.AGATA SUL SANTERNO,REG,Wed,4.36,3.0,4,50,25,15,5,44.436774,11.858855
S.ALESSIO SICULO FORZA D`AGRO`,REG,Wed,3.490625,2.0,25,320,109,65,12,37.923992,15.347322
S.ANTIMO S.ARPINO,REG,Wed,3.6666666666666665,4.0,3,3,2,1,0,40.949188,14.247415
S.BIAGIO,REG,Wed,4.118110236220472,3.0,10,127,43,23,7,44.594511,11.87054
S.CRISTOFORO AL LAGO-ISCHIA,REG,Wed,3.703883495145631,3.0,16,206,91,48,1,46.039743,11.23375
S.CROCE DEL LAGO,REG,Wed,2.3059360730593608,2.0,19,219,42,12,2,46.094795,12.324068
S.DONNINO BADIA,REG,Wed,4.75,3.0,4,4,2,1,0,43.785424,11.142169
S.GIORGIO P.,REG,Wed,3.22992700729927,2.0,44,548,179,111,33,44.646641,11.37901
S.GIUSTINA CESIO,REG,Wed,0.5872576177285319,0.0,46,361,24,16,6,46.077655,12.04294
S.LIBERATO,REG,Wed,2.0,2.0,1,1,0,0,0,42.478853,12.443006
S.LORENZO COLLI,REG,Wed,0.4727272727272727,0.0,69,880,26,6,2,38.16292,13.316449
S.LORENZO MAGGIORE,REG,Wed,4.271317829457364,2.0,10,129,53,41,20,41.219748,14.648419
S.MINIATO FUCECCHIO,REG,Wed,17.46153846153846,9.0,12,13,11,8,5,43.701383,10.831605
S.PATRIZIO,REG,Wed,5.061224489795919,5.0,4,49,29,19,6,,
S.ROMANO MONTOPOLI S.CROCE,REG,Wed,2.9055851063829787,2.0,64,752,199,112,30,43.690575,10.760152
S.VITO LANCIANO,REG,Wed,2.698529411764706,1.0,21,272,64,36,13,42.307401,14.448093
SALBERTRAND,REG,Wed,2.1147902869757176,1.0,35,453,70,37,11,45.073478,6.887428
SALEMI GIBELLINA,REG,Wed,3.2434210526315788,2.0,12,152,37,23,10,37.806619,12.865517
SALERNO,REG,Wed,0.4281938325991189,0.0,117,1135,202,109,43,40.675137,14.772822
SALICETO,REG,Wed,1.412621359223301,1.0,16,206,13,7,3,44.404437,8.172887
SAN GIUSEPPE DI CAIRO,REG,Wed,-0.4595070422535211,-1.0,44,568,33,25,12,44.370096,8.28864
SAN MARCO D`ALUNZIO T.,REG,Wed,2.357142857142857,1.0,22,280,49,17,4,38.094202,14.675909
SANFRE`,REG,Wed,2.427230046948357,1.0,33,426,93,47,13,44.74799,7.796793
SANTA SEVERA,REG,Wed,1.6641929499072357,1.0,42,539,76,32,7,42.020645,11.969077
SANTA TERESA DI RIVA,REG,Wed,2.6161417322834644,2.0,40,508,158,101,19,37.946295,15.367682
SARNO,REG,Wed,4.186186186186186,3.0,26,333,140,85,29,40.813063,14.612442
SARONNO,REG,Wed,0.014121037463976945,0.0,303,3470,59,21,5,45.625309,9.030839
