stop_name,day_of_week,avg_arrival_delay,median_arrival_delay,count_trains,count_stops,count_3m_delay,count_5m_delay,count_10m_delay,stop_lat,stop_lon
ACATE,Fri,0.5909090909090909,0.0,4,44,7,4,0,36.996592,14.42545
ACCIANO,Fri,7.1875,7.0,5,48,48,35,4,42.175994,13.711345
ACIREALE,Fri,2.863128491620112,1.0,79,716,148,111,59,37.600514,15.163697
ALBA,Fri,0.5228426395939086,0.0,18,197,17,3,1,44.697713,8.030629
ALBAIRATE VERMEZZO,Fri,1.3605664488017428,0.0,93,918,188,115,55,,
ALBATE-TRECALLO,Fri,2.8449612403100777,2.0,22,258,72,28,4,45.777391,9.095752
AMANTEA,Fri,3.030588235294118,0.0,41,425,82,56,33,39.134353,16.068448
ANNONE VENETO,Fri,2.5984848484848486,2.0,22,264,46,24,9,45.774904,12.680334
ANTIGNANO,Fri,5.166666666666667,2.0,4,6,3,2,1,43.492482,10.328827
ANZIO,Fri,1.6428571428571428,2.0,56,518,53,18,6,41.4532,12.633205
ARAGONA CALDARE,Fri,1.961630695443645,1.0,39,417,85,44,15,37.381097,13.636837
ARBOSTELLA,Fri,0.6052631578947368,0.0,36,38,1,1,0,40.677263,15.623814
ARCISATE,Fri,2.660323501427212,2.0,85,1051,213,110,34,45.858579,8.86241
AREZZO,Fri,2.699623352165725,2.0,102,1062,332,205,88,43.461725,11.874189
ARQUA`,Fri,2.3388429752066116,2.0,10,121,39,21,3,45.006465,11.748518
AULLA LUNIGIANA,Fri,1.6681957186544343,1.0,66,654,137,81,30,44.210555,9.970015
AVERSA,Fri,2.8053265694356373,1.0,150,1577,384,286,134,40.973323,14.218578
BAGHERIA,Fri,0.7941176470588235,0.0,102,1020,72,34,18,38.089905,13.507215
BAGNARA,Fri,0.8330058939096268,-1.0,48,509,63,43,19,38.282695,15.800327
BALDICHIERI,Fri,2.438902743142145,2.0,33,401,85,36,4,44.899204,8.091198
BALESTRATE,Fri,4.125984251968504,2.0,16,127,35,19,11,38.053364,13.007374
BARAGIANO,Fri,4.208860759493671,3.0,18,158,69,48,13,40.695213,15.569206
BARGA GALLICANO,Fri,3.5,3.0,34,322,126,59,7,44.068114,10.451938
BARI CENTRALE,Fri,1.056644880174292,-1.0,181,1836,346,247,136,41.11774,16.869601
BARI PARCO NORD,Fri,57.0,57.0,1,1,1,1,1,41.123916,16.837018
BARI ZONA INDUSTRIALE,Fri,1.7486631016042782,1.0,77,748,152,92,33,,
BARRUCCANA,Fri,1.018421052631579,-1.0,49,380,55,41,17,,
BASILIANO,Fri,1.8664850136239781,2.0,35,367,56,27,6,46.012737,13.109233
BASTIA,Fri,4.0062111801242235,3.0,43,483,207,120,28,43.07133,12.547735
BELLANTE RIPATTONE,Fri,3.6265560165975104,4.0,22,241,142,49,12,42.705775,13.837978
BELVEDERE MARITTIMO,Fri,3.614886731391586,3.0,31,309,120,65,24,39.616549,15.853039
BERCETO,Fri,2.9057377049180326,2.0,42,488,146,97,40,44.555912,9.931759
BERNALDA,Fri,2.98,3.0,4,50,16,10,3,40.397616,16.682281
BOLLATE NORD,Fri,0.7049586776859504,0.0,101,1210,82,29,2,,
BOLOGNA CORTICELLA,Fri,3.9450980392156865,2.0,49,510,193,105,37,44.551985,11.35401
BOLOGNA S.RUFFILLO,Fri,1.52,1.0,60,600,82,36,11,44.462657,11.372967
BOLOGNA SAN VITALE,Fri,4.006673021925644,2.0,106,1049,380,231,75,,
BORGO REVEL,Fri,2.185185185185185,2.0,27,324,81,27,7,45.189827,8.02021
BORGO VALSUGANA EST,Fri,3.32967032967033,2.0,15,182,59,22,8,46.05224,11.462119
BORORE,Fri,-0.4794520547945205,-1.0,10,73,1,1,1,40.218992,8.809535
BOTRICELLO,Fri,2.772853185595568,2.0,31,361,99,62,29,38.933943,16.857433
BRANCALEONE,Fri,4.590296495956873,3.0,35,371,161,106,46,37.965475,16.103301
BRANDIZZO,Fri,2.124394184168013,1.0,53,619,128,60,8,45.178915,7.841218
BRESSANA BOTTARONE,Fri,5.712401055408971,3.0,31,379,189,129,37,45.086298,9.110602
BRIATICO,Fri,3.2241379310344827,3.0,16,174,70,32,4,38.725447,16.025765
BRINDISI,Fri,3.084440227703985,1.0,114,1054,294,197,117,40.634339,17.938978
BRONI,Fri,5.535433070866142,4.0,32,381,191,120,42,45.066263,9.258751
BRUZOLO,Fri,0.797270955165692,0.0,44,513,53,31,10,45.131032,7.201497
BUDOIA POLCENIGO,Fri,-0.6,-1.0,14,165,2,2,2,46.031464,12.537637
BUSTO ARSIZIO,Fri,2.2034956304619224,1.0,330,3204,739,404,113,45.616164,8.865031
CABIATE,Fri,-0.052830188679245285,0.0,47,530,1,0,0,,
CAIRO MONTENOTTE,Fri,0.4460093896713615,0.0,23,213,14,8,5,44.394747,8.278786
CALOLZIOCORTE OLGINATE,Fri,3.388208269525268,2.0,114,1306,413,232,88,45.801619,9.42698
CALTIGNAGA,Fri,2.42,1.0,20,200,38,13,6,45.519167,8.591602
CAMPAGNA SERRE PERSANO,Fri,3.206896551724138,1.0,8,87,21,13,7,40.595667,15.113986
CAMPELLO,Fri,2.2972972972972974,2.0,7,74,20,9,1,42.822814,12.761253
CAMPIGLIA MARITTIMA,Fri,2.6411290322580645,1.0,73,744,196,122,52,43.017118,10.586558
CAMPOMARINO,Fri,3.1354166666666665,3.0,8,96,37,21,4,41.957398,15.042416
CAMPORGIANO,Fri,3.3419354838709676,2.0,33,310,97,40,8,44.161448,10.334849
CANDIOLO,Fri,4.436567164179104,4.0,46,536,279,180,16,44.961155,7.598973
CANICATTI`,Fri,3.0694444444444446,1.0,15,144,37,20,10,37.359879,13.855395
CAPO BONIFATI,Fri,2.5236486486486487,2.0,30,296,85,37,9,39.558342,15.874052
CAPO D`ORLANDO-NASO,Fri,3.6341463414634148,1.0,57,533,143,93,49,38.157941,14.744844
CAPRALBA,Fri,6.401826484018265,4.0,43,438,235,158,72,45.443871,9.640015
CAPRANICA,Fri,1.562363238512035,1.0,47,457,72,37,15,42.245195,12.157194
CAPUA,Fri,3.2448453608247423,2.0,40,388,118,72,27,41.101306,14.210347
CARATE-CALO`,Fri,3.356701030927835,2.0,40,485,189,95,11,45.676451,9.252304
CARIATI,Fri,5.8731884057971016,4.0,24,276,148,100,50,39.496884,16.952018
CARNATE USMATE,Fri,2.7185454545454544,1.0,117,1375,380,250,92,45.653072,9.375089
CARPI,Fri,1.5153061224489797,0.0,49,588,108,47,16,44.782919,10.891952
CARPIGNANO SESIA,Fri,2.9304635761589406,2.0,44,302,82,25,4,45.528934,8.422898
CARRITO-ORTONA,Fri,1.1666666666666667,-1.0,5,6,1,1,0,42.026506,13.720179
CASALNUOVO,Fri,2.818877551020408,2.0,72,784,230,115,41,40.915559,14.35296
CASERTA,Fri,3.8899868247694336,2.0,150,1518,502,334,191,41.068655,14.328457
CASLETTO-ROGENO,Fri,3.0517241379310347,2.0,15,174,51,20,3,45.786028,9.275375
CASLINO D'ERBA,Fri,0.0076045627376425855,0.0,23,263,0,0,0,,
CASORATE SEMPIONE,Fri,4.740458015267175,4.0,33,393,209,115,22,45.675075,8.743954
CASTEL MADAMA,Fri,2.630081300813008,2.0,23,246,63,30,7,41.988389,12.864938
CASTELDACCIA,Fri,6.0,6.0,4,4,4,3,0,38.060474,13.536867
CASTELDEBOLE,Fri,2.304029304029304,2.0,107,1092,285,114,19,44.503974,11.27456
CASTELLALTO CANZANO,Fri,0.8932461873638344,1.0,42,459,35,20,7,42.69564,13.793043
CASTELLAMMARE DEL GOLFO,Fri,4.488188976377953,2.0,16,127,41,23,11,38.024309,12.912209
CASTELLANETA,Fri,1.393939393939394,1.0,29,297,19,7,1,,
CASTELLINA CH,Fri,1.5730337078651686,1.0,35,356,71,32,9,43.408744,11.212379
CASTELMAGGIORE,Fri,3.1237721021611002,2.0,49,509,152,87,32,44.576055,11.366901
CASTELRAIMONDO CAMERINO,Fri,2.886861313868613,2.0,32,274,99,45,7,43.210511,13.057274
CASTELROSSO,Fri,2.021671826625387,2.0,27,323,54,12,4,45.201802,7.932162
CASTELVETRO,Fri,1.3833333333333333,1.0,18,180,24,16,6,45.100095,9.982181
CASTIONE ANDEVENNO,Fri,2.6153846153846154,2.0,1,13,2,1,1,46.161659,9.806151
CASTRO-POFI,Fri,2.016786570743405,1.0,55,417,59,36,10,41.533014,13.410741
CAVA CARBONARA,Fri,3.3741935483870966,3.0,26,310,137,51,19,45.147055,9.071387
CAVA MANARA,Fri,5.442048517520216,3.0,30,371,181,122,34,45.144867,9.115332
CAVARIA OGGIONA JERAGO,Fri,4.153388822829965,2.0,71,841,322,205,73,45.698145,8.8035
CAVAZZALE,Fri,1.6588235294117648,2.0,36,425,87,36,6,45.596079,11.569823
CECCANO,Fri,0.9417249417249417,0.0,56,429,55,29,10,41.573583,13.336417
CEFALU`,Fri,1.6462585034013606,0.0,49,441,78,51,28,38.03285,14.019526
CENGIO,Fri,2.083532219570406,1.0,35,419,61,31,16,44.390798,8.191824
CENTOLA,Fri,8.0,3.0,2,2,1,1,1,40.090672,15.34674
CESANO DI ROMA,Fri,2.1416454622561494,2.0,112,1179,229,69,28,42.061833,12.326669
CEVA,Fri,1.414027149321267,0.0,37,442,49,24,19,44.389861,8.031958
CHAMBAVE,Fri,-1.0,-1.0,1,1,0,0,0,45.744163,7.557301
CHIAVENNA,Fri,1.1649484536082475,1.0,17,194,14,9,2,46.321258,9.407129
CHIUSI C.T.,Fri,2.2358078602620086,1.0,72,687,184,114,56,43.002466,11.957893
CIANO D'ENZA,Fri,2.3448275862068964,2.0,10,87,24,12,1,,
CISMON DEL GRAPPA,Fri,2.9707602339181287,2.0,14,171,40,21,5,45.919664,11.729272
CITTADUCALE,Fri,3.8904593639575973,3.0,32,283,119,63,17,42.387764,12.94269
CIVITA D`ANTINO-MORINO,Fri,2.2844827586206895,1.0,12,116,28,15,2,41.870632,13.458868
CIVITANOVA MARCHE,Fri,3.0238331678252233,1.0,99,1007,294,180,60,43.3091,13.7257
CODOGNO,Fri,5.519148936170213,2.0,77,940,392,269,113,45.154897,9.701376
COGOLETO,Fri,1.3168771526980483,1.0,101,871,111,56,21,44.389762,8.643906
COLFELICE,Fri,1.3333333333333333,1.0,3,3,0,0,0,,
COLLE MATTIA,Fri,1.4478417266187051,1.0,54,556,73,30,10,41.832756,12.728329
COLLEVECCHIO,Fri,1.3888888888888888,1.0,34,396,45,11,4,42.298089,12.520546
COMO S. GIOVANNI,Fri,2.7425219941348975,1.0,162,1705,501,304,109,45.808946,9.072331
CONTEA LONDA,Fri,3.600502512562814,3.0,44,398,178,86,21,43.865124,11.531603
CONTURSI TERME,Fri,2.089430894308943,1.0,12,123,36,23,12,40.630046,15.235486
CORBEZZI,Fri,1.4866666666666666,1.0,12,150,11,4,3,43.993948,10.919676
CORONELLA,Fri,3.511111111111111,2.0,11,135,37,19,8,,
CORTEOLONA,Fri,5.57037037037037,4.0,22,270,153,103,40,45.159701,9.375477
COSIO TRAONA,Fri,3.5603112840466924,2.0,21,257,98,59,15,46.135564,9.525498
CRESCENTINO,Fri,3.0925925925925926,3.0,27,324,105,39,6,45.194302,8.107175
CRESPINO DEL LAMONE,Fri,3.6238938053097347,3.0,22,226,88,57,16,,
CRESSA FONTANETO,Fri,3.92,2.0,20,200,77,58,13,45.646331,8.498435
CREVALCORE,Fri,1.618811881188119,0.0,78,808,180,120,43,44.719156,11.152625
CROPANI,Fri,3.8421052631578947,3.0,31,361,125,73,26,38.921968,16.813562
CROTONE,Fri,3.977635782747604,3.0,27,313,127,81,33,39.0845,17.108418
CUNEO,Fri,-0.3868194842406877,-2.0,44,349,31,18,11,44.387914,7.536235
DESENZANO,Fri,4.728183118741058,3.0,60,699,307,192,75,45.462677,10.536322
DESIO,Fri,4.4308632543926665,3.0,143,1309,551,339,121,45.620112,9.218495
DIANO,Fri,10.818181818181818,10.0,9,11,10,9,5,,
DICOMANO,Fri,4.420654911838791,3.0,43,397,180,97,25,43.893489,11.519148
DOGATO,Fri,0.6583850931677019,0.0,18,161,11,4,2,,
DOLO,Fri,1.104490500863558,0.0,109,1158,147,86,25,45.453466,12.07161
DORIO,Fri,3.6408668730650153,2.0,28,323,121,75,18,46.102756,9.319063
DORMELLETTO,Fri,3.209844559585492,2.0,33,386,130,79,20,45.7233,8.581906
DOSSOBUONO,Fri,4.414860681114551,4.0,27,323,164,79,16,45.392382,10.914831
EMPOLI,Fri,1.1648963075366716,0.0,199,1977,329,187,72,43.715708,10.94915
ENNA,Fri,3.881679389312977,1.0,35,262,71,41,25,37.581134,14.289579
EQUI TERME,Fri,3.1846153846153844,2.0,28,260,76,34,3,44.170282,10.153624
FAENZA,Fri,3.1563236449332286,1.0,113,1273,370,258,124,44.293594,11.883268
FAGNANO CAMPANA,Fri,1.675,1.0,7,40,8,3,0,42.250575,13.562743
FALCONARA MARITTIMA,Fri,1.1183478951548849,1.0,112,1259,199,109,36,43.630577,13.397378
FALCONE,Fri,3.3210526315789473,2.0,16,190,66,34,9,38.119573,15.080467
FELONICA PO,Fri,2.9363057324840764,1.0,18,157,37,22,8,,
FERNO LONATE POZZOLO,Fri,0.7043269230769231,1.0,38,416,12,4,2,,
FERRARA,Fri,1.8798283261802575,1.0,128,1398,329,196,80,44.843047,11.603594
FIDENZA,Fri,2.18970189701897,1.0,126,1476,336,221,110,44.86773,10.06339
FIERA,Fri,-2.1222222222222222,-2.0,60,720,3,2,1,38.144004,13.351336
FIRENZE CASTELLO,Fri,1.378839590443686,1.0,84,879,143,78,25,43.819444,11.21838
FIRENZE RIFREDI,Fri,1.701670644391408,1.0,332,3352,606,343,140,43.800873,11.235729
FIRENZE S.M.N.,Fri,2.027065527065527,0.0,336,3510,848,549,253,43.776893,11.247373
FIUMELATTE,Fri,2.3870967741935485,1.0,27,310,83,46,12,45.999017,9.292857
FORMIA-GAETA,Fri,3.7007874015748032,1.0,117,1143,350,231,110,41.258773,13.605996
FRANCAVILLA AL MARE,Fri,1.986254295532646,1.0,25,291,57,31,7,42.421316,14.288062
FRASSO T. DUGENTA,Fri,8.741463414634147,6.0,22,205,123,106,61,41.137244,14.459459
FRATTE,Fri,1.5,1.0,27,262,49,24,5,40.705637,14.778362
FUNO CENTERGROSS,Fri,3.7888675623800383,2.0,50,521,162,102,45,44.593646,11.370672
GAMBETTOLA,Fri,3.19364161849711,2.0,29,346,105,64,16,44.116718,12.327555
GEMONA DEL FRIULI,Fri,0.4855072463768116,0.0,35,276,11,4,1,46.274243,13.127978
GENGA S.VITTORE TERME,Fri,2.0602739726027397,1.0,32,365,79,30,10,43.403011,12.977163
GENOVA QUINTO AL MARE,Fri,10.333333333333334,11.0,6,6,5,5,4,44.385184,9.020514
GENOVA SESTRI PONENTE,Fri,1.2355685131195335,1.0,170,1715,211,114,48,44.422374,8.847707
GENOVA STURLA,Fri,5.4,5.0,5,5,3,2,1,44.397977,8.981466
GHEDI,Fri,4.482315112540193,3.0,25,311,134,94,38,45.409439,10.280506
GIOJOSA MAREA,Fri,1.6156462585034013,1.0,31,294,64,39,9,38.175149,14.894794
GONZAGA-REGGIOLO,Fri,3.0906801007556677,1.0,33,397,96,62,26,44.939239,10.815533
GORGO AL MONTICANO,Fri,2.3446969696969697,1.0,22,264,41,22,11,45.784444,12.553737
GRANAROLO,Fri,3.156862745098039,2.0,14,153,31,21,10,44.357356,11.937441
GROANE,Fri,0.3333333333333333,0.0,18,18,0,0,0,,
GRUGLIASCO,Fri,4.0,4.0,1,1,1,0,0,,
GUARDIA PIEMONTESE TERME,Fri,7.0,7.0,1,1,1,1,0,39.464259,15.979237
GUIDONIA-MONTECELIO-S.ANGELO,Fri,2.439655172413793,2.0,66,696,179,68,12,41.993405,12.725681
HONE BARD,Fri,2.520446096654275,2.0,53,269,83,48,6,45.613918,7.741345
ISERNIA,Fri,2.6133333333333333,-1.0,8,75,19,15,8,41.596946,14.235421
ISOLA LIRI,Fri,0.3333333333333333,0.0,3,3,0,0,0,41.681712,13.581088
ISOLETTA-S.GIOVANNI I.,Fri,1.962962962962963,1.0,54,405,48,30,10,41.527873,13.547095
ISPICA,Fri,3.3445378151260505,1.0,12,119,38,29,15,36.77804,14.914315
LABICO,Fri,2.43796992481203,2.0,51,532,103,39,6,,
LAMBRINIA,Fri,6.825278810408922,5.0,22,269,168,121,43,45.164376,9.527436
LAMEZIA TERME NICASTRO,Fri,1.9795918367346939,1.0,35,343,65,33,5,38.966779,16.320043
LATIANO,Fri,3.78125,2.0,16,192,50,29,15,40.558074,17.717629
LAVENO MOMBELLO,Fri,3.5195530726256985,2.0,32,358,129,80,18,45.903272,8.624583
LEGNAGO,Fri,2.4187725631768955,2.0,30,277,56,23,8,45.189034,11.304724
LEGNANO,Fri,4.172490706319703,3.0,120,1345,604,343,86,45.593653,8.910638
LENTINI,Fri,4.454545454545454,2.0,41,319,123,84,44,37.300916,14.99758
LIERNA,Fri,1.3498452012383901,0.0,28,323,54,25,11,45.960973,9.303071
LOMELLO,Fri,3.8900709219858154,3.0,26,282,99,56,13,45.117276,8.799121
LONGARONE ZOLDO,Fri,1.9791666666666667,2.0,23,144,33,5,0,46.267466,12.301953
LONIGO,Fri,18.0,15.0,2,2,2,2,2,45.413269,11.345016
LUINO,Fri,4.872340425531915,3.0,17,188,92,56,13,45.996643,8.737464
LUNGHEZZA,Fri,0.9621621621621622,0.0,86,925,180,86,19,41.923253,12.667212
MADIGNANO,Fri,6.7236533957845435,4.0,42,427,223,162,71,45.34383,9.730179
MANERBIO,Fri,3.240875912408759,2.0,33,411,118,54,30,45.357212,10.132348
MARANO TICINO,Fri,2.7425149700598803,1.0,14,167,29,14,5,45.629485,8.626172
MARECHIARO,Fri,0.1970954356846473,0.0,53,482,28,13,5,41.470762,12.6123
MARINELLA,Fri,1.1382113821138211,1.0,12,123,4,1,0,40.999129,9.55362
MARRADI,Fri,4.273109243697479,3.0,23,238,119,68,12,44.07973,11.619174
MASCALI,Fri,3.0,1.0,1,2,1,0,0,37.765403,15.1942
MASSALOMBARDA,Fri,5.416666666666667,3.0,4,48,20,13,7,44.448948,11.828068
MERANO MAIA BASSA,Fri,1.9267399267399268,1.0,49,546,108,32,5,46.656202,11.147931
MERGOZZO,Fri,2.882051282051282,2.0,17,195,54,34,12,45.961303,8.440881
METAPONTO,Fri,2.6666666666666665,1.0,15,183,54,44,21,40.368496,16.815176
MEZZANO,Fri,3.385321100917431,2.0,34,327,76,33,15,44.463,12.098501
MEZZOCORONA,Fri,4.243040685224839,3.0,96,934,411,227,70,46.207258,11.128595
MI P.GAR.SOTT.,Fri,4.376340882002384,3.0,344,3356,1506,808,236,45.484228,9.185122
MILANO BOVISA FNM,Fri,1.5608726249120337,1.0,151,1421,276,111,36,45.502993,9.159235
MILANO GRECO PIRELLI,Fri,3.8823529411764706,2.0,339,3638,1390,861,288,45.51272,9.214456
MILANO NORD DOMODOSSOLA,Fri,0.001708567244325116,0.0,398,4097,0,0,0,,
MILANO S. CRISTOFORO,Fri,1.5035971223021583,-1.0,101,973,214,138,63,45.442404,9.130258
MILITELLO,Fri,1.6341463414634145,-1.0,8,41,7,4,4,37.277194,14.78317
MIRTO CROSIA,Fri,4.542222222222223,3.0,20,225,112,77,20,39.604876,16.777366
MODENA PIAZZA MANZONI,Fri,0.2591549295774648,0.0,40,355,17,10,1,,
MODICA,Fri,2.902097902097902,1.0,15,143,41,31,17,36.8529,14.754255
MOGLIANO VENETO,Fri,1.1565656565656566,1.0,133,1386,199,98,30,45.561964,12.23274
MOIANA,Fri,2.9482758620689653,2.0,15,174,45,16,3,45.787082,9.255607
MOLFETTA,Fri,3.4508716323296356,2.0,123,1262,413,266,97,41.196008,16.596793
MOLINA CASTEL VECCHIO SUBAQUEO,Fri,2.25,2.0,29,292,74,32,2,42.143476,13.739644
MONCALIERI SANGONE,Fri,4.048417132216015,3.0,46,537,253,142,17,45.000393,7.667991
MONEGLIA,Fri,9.0,3.0,2,2,1,1,1,44.242449,9.486957
MONFALCONE,Fri,1.2744695414099931,1.0,146,1461,213,113,42,45.807683,13.542929
MONGUELFO VALLE DI CASIES,Fri,1.101010101010101,1.0,9,99,6,6,4,46.752775,12.107264
MONTAGNANA,Fri,2.4807121661721068,2.0,35,337,92,29,5,45.228238,11.459873
MONTE S.BIAGIO,Fri,2.5777080062794346,1.0,72,637,140,89,34,41.345967,13.347037
MONTECORVINO,Fri,14.0,8.0,3,3,3,3,1,40.617439,14.944628
MONTEPAONE - MONTAURO,Fri,2.4107142857142856,2.0,5,56,16,9,2,38.728548,16.541944
MONTEPESCALI,Fri,2.222513089005236,1.0,34,382,86,37,14,42.869518,11.068743
MONTEVARCHI TERRANUOVA,Fri,2.9292196007259528,2.0,107,1102,335,187,56,43.525165,11.563983
MONZONE-M.DEI BANCHI-ISOLANO,Fri,3.21455938697318,2.0,28,261,79,34,3,44.165637,10.123827
MONZUNO,Fri,1.8638941398865785,1.0,52,529,93,48,13,44.322277,11.262082
MORANO SUL PO,Fri,1.563467492260062,1.0,27,323,65,29,2,45.170793,8.366168
MORBEGNO,Fri,5.020338983050848,3.0,47,590,266,155,59,46.136663,9.568646
MOROLO,Fri,2.2230392156862746,1.0,46,408,95,51,13,41.667018,13.194557
MORREA-CASTRONOVO-RENDINARA,Fri,0.6666666666666666,0.0,3,3,0,0,0,,
MORROVALLE MONTE S.GIUSTO,Fri,2.281609195402299,2.0,39,348,77,26,8,43.279189,13.58285
MULINETTI,Fri,4.0,4.0,1,1,1,0,0,44.362614,9.129499
MUSSOTTO,Fri,0.8268156424581006,0.0,34,358,19,11,3,44.713227,8.015194
NAPOLI CAMPI FLEGREI,Fri,-0.6972664218686251,-1.0,201,2451,137,80,37,40.822462,14.194649
NAPOLI CENTRALE,Fri,2.721927497789567,1.0,207,2262,661,481,257,40.852933,14.272908
NAPOLI PIAZZA LEOPARDI,Fri,0.5490412979351033,0.0,230,2712,248,118,48,40.82397,14.199117
NARNI AMELIA,Fri,0.25,0.0,3,4,0,0,0,42.53128,12.519592
NICOTERA,Fri,2.63,1.0,20,200,49,23,10,38.549328,15.933749
NOCERA INFERIORE,Fri,2.9527991218441274,2.0,84,911,238,100,31,40.745318,14.635346
NOGARA,Fri,2.667976424361493,2.0,52,509,157,94,33,45.179937,11.070572
NONE,Fri,4.460820895522388,4.0,46,536,320,190,16,44.938011,7.540068
NOVARA,Fri,1.9275882704967087,1.0,170,1671,375,177,71,45.451376,8.624895
NOVATE MILANESE,Fri,2.822429906542056,2.0,31,321,94,36,2,,
NOVELLARA,Fri,-0.28191489361702127,-1.0,26,188,16,10,4,,
OLBIA,Fri,0.345679012345679,-1.0,19,162,16,12,3,40.924595,9.498293
OLEGGIO,Fri,2.718232044198895,2.0,28,181,39,15,5,45.598029,8.632586
OLGIATE-CALCO-BRIVIO,Fri,3.362047440699126,1.0,69,801,208,126,53,45.729166,9.40377
OLMI SPERCENIGO,Fri,3.08745247148289,2.0,22,263,56,27,12,45.679467,12.338101
OMEGNA CRUSINALLO,Fri,3.7350993377483444,2.0,16,151,43,27,5,45.898138,8.413929
ORIO LITTA,Fri,6.617100371747212,5.0,22,269,161,116,42,45.166778,9.550592
ORIOLO,Fri,3.447598253275109,3.0,47,458,176,75,17,42.166825,12.138499
ORVIETO,Fri,3.756521739130435,2.0,40,460,161,95,45,42.723379,12.127412
OSCHIRI,Fri,1.7313432835820894,1.0,27,201,29,23,9,40.713273,9.107749
OSPEDALETTO EUGANEO,Fri,2.540059347181009,1.0,35,337,67,31,10,45.221706,11.606553
OSPEDALETTO LODIGIANO,Fri,4.458955223880597,2.0,22,268,112,79,29,45.16933,9.575164
OSTIA PARMENSE,Fri,3.497159090909091,2.0,30,352,122,84,30,44.520136,9.844981
OTTAVIA,Fri,2.5458039718129406,2.0,147,1561,297,110,33,,
OZIERI CHILIVANI,Fri,0.08602150537634409,-1.0,40,279,36,19,9,40.609496,8.933744
PADIGLIONE,Fri,0.3609022556390977,0.0,57,532,64,20,7,41.513518,12.629476
PADOVA CAMPO MARTE,Fri,92.0,92.0,1,1,1,1,1,,
PAESE CASTAGNOLE,Fri,2.9393939393939394,3.0,41,297,70,16,1,45.691182,12.182619
PALAZZOLO,Fri,1.3146067415730338,1.0,28,267,25,13,4,,
PALAZZOLO VERCELLESE,Fri,3.20679012345679,3.0,27,324,107,36,4,45.189004,8.232787
PALIDANO,Fri,4.909090909090909,3.0,32,385,147,85,27,44.972228,10.777412
PALMA S.GENNARO,Fri,4.919254658385094,3.0,33,322,155,85,30,40.864149,14.540472
PALMANOVA,Fri,2.0098360655737704,2.0,27,305,61,28,5,45.906862,13.296461
PARCO LEONARDO,Fri,2.7220026350461133,2.0,126,1518,388,122,24,41.79932,12.29543
PARGHELIA,Fri,3.6264367816091956,3.0,16,174,74,35,5,38.683341,15.925042
PARTINICO,Fri,3.7857142857142856,2.0,16,126,33,16,11,38.05857,13.108956
PASTENA,Fri,1.8575949367088607,2.0,62,316,24,5,1,,
PATTI-SAN PIERO PATTI,Fri,2.512396694214876,1.0,63,605,143,92,38,38.146905,14.975331
PEGOGNAGA,Fri,2.264,0.0,14,125,21,14,7,,
PERI,Fri,5.514666666666667,4.0,34,375,208,146,54,45.658402,10.900314
PERUGIA,Fri,2.6404958677685952,2.0,42,484,146,84,29,43.103808,12.375567
PESCARA PORTA NUOVA,Fri,1.1422594142259415,1.0,71,717,112,57,11,42.458072,14.211663
PESCIA,Fri,2.9250764525993884,2.0,65,654,239,154,38,43.886811,10.686074
PESSIONE,Fri,2.373134328358209,2.0,33,402,77,16,1,44.965132,7.841321
PETROSINO STRASATTI,Fri,2.1466666666666665,1.0,31,300,60,37,15,37.725466,12.509434
PIAN DI VENOLA,Fri,2.8442307692307693,2.0,47,520,146,39,8,44.332136,11.188609
PIANA BELLA MONTELIBRETTI,Fri,1.723331039229181,1.0,121,1453,106,40,14,42.105159,12.632938
PIANORO,Fri,0.7237076648841355,-1.0,56,561,67,40,11,44.380589,11.340675
PIETRASANTA,Fri,4.1290760869565215,3.0,78,736,286,169,56,43.95583,10.229731
PIEVE ALBIGNOLA,Fri,6.270462633451957,4.0,26,281,184,101,19,45.116248,8.959723
PIEVE SALICETO,Fri,4.0,4.0,1,1,1,0,0,,
PIEVE VERGONTE,Fri,1.196319018404908,-1.0,17,163,28,15,3,46.009783,8.276298
PINAROLO PO,Fri,5.596214511041009,4.0,26,317,161,99,36,45.073415,9.170273
PIOLTELLO LIMITO,Fri,3.275203395825964,2.0,262,2827,933,578,184,45.486019,9.329319
PIRAINETO,Fri,1.5702970297029704,1.0,76,505,37,20,12,38.169148,13.14256
PISTOIA OVEST,Fri,0.7,0.0,12,150,7,3,3,,
PIZZO,Fri,3.132183908045977,2.0,16,174,63,36,7,38.726323,16.150615
POGGIO FIDONI,Fri,9.258620689655173,8.0,6,58,57,51,13,42.395811,12.795429
POGGIO MIRTETO,Fri,-0.05152671755725191,-1.0,44,524,21,11,5,42.242187,12.633043
POGGIO RENATICO,Fri,3.988372093023256,2.0,42,430,165,94,37,44.767292,11.483701
POGGIRIDENTI-TRESIVIO-PIATEDA,Fri,2.1403508771929824,1.0,5,57,12,6,1,46.166888,9.93382
POLESELLA,Fri,2.239669421487603,2.0,10,121,26,14,3,44.961039,11.738498
PONTE A ELSA,Fri,1.5169491525423728,1.0,33,354,44,25,10,43.694385,10.906008
PONTE DI PIAVE,Fri,1.2007575757575757,0.0,22,264,30,19,7,45.719624,12.460683
PONTE S.PIETRO,Fri,4.667781493868451,3.0,74,897,374,249,66,45.69916,9.584322
PONTECURONE,Fri,3.5418060200668897,3.0,30,299,105,55,17,44.962014,8.929717
PONTIDA,Fri,4.523929471032746,3.0,32,397,162,91,25,45.730084,9.511632
POPOLI VITTORITO,Fri,0.23835616438356164,0.0,40,365,29,10,4,42.172354,13.826152
PORRETTA  TERME,Fri,1.8680351906158357,1.0,30,341,69,21,9,44.155757,10.978039
PORTO S. GIORGIO FERMO,Fri,3.361462728551336,2.0,68,711,233,147,51,43.17972,13.7975
PORTOGRUARO CAORLE,Fri,1.9041501976284585,1.0,88,1012,168,85,38,45.781438,12.832375
POSTO COMUNICAZIONE DOLCE`,Fri,4.919786096256685,4.0,33,374,188,125,54,45.601513,10.850588
POTENZA MACCHIA ROMANA,Fri,4.871345029239766,3.0,34,342,128,48,19,,
POTENZA SUPERIORE,Fri,2.023017902813299,0.0,38,391,55,36,20,40.64586,15.800966
POVO,Fri,2.7384615384615385,2.0,16,195,56,25,6,,
POZZUOLI SOLFATARA,Fri,0.9540816326530612,1.0,113,1372,138,69,20,40.827586,14.126163
POZZUOLO MARTESANA,Fri,7.0,3.0,2,2,1,1,1,45.510567,9.459096
PRACCHIA,Fri,1.0201342281879195,1.0,12,149,10,3,3,44.05479,10.90691
PREGANZIOL,Fri,11.75,11.0,4,4,3,3,3,45.60367,12.23138
PUNTA RAISI,Fri,1.224622030237581,1.0,56,463,40,10,4,38.188892,13.110059
QUISTELLO,Fri,3.225806451612903,1.0,14,124,36,24,10,,
RAPOLANO TERME,Fri,2.9431818181818183,2.0,35,264,85,38,6,43.283331,11.602504
RASTIGNANO,Fri,1.9981884057971016,1.0,56,552,91,42,14,44.443592,11.357617
RECCO,Fri,1.826219512195122,1.0,108,984,237,142,52,44.361215,9.146788
REGGIO CALABRIA CENTRALE,Fri,-0.17971334068357223,-2.0,79,907,106,69,38,38.103884,15.635844
REGGIO CALABRIA LIDO,Fri,2.0,2.0,1,1,0,0,0,38.117668,15.649171
REGGIO DI CALABRIA S.GREGORIO,Fri,0.6120689655172413,0.0,29,348,26,12,4,38.061274,15.652053
REMEDELLO SOTTO,Fri,7.946488294314381,7.0,24,299,239,181,67,45.257477,10.388402
RENATE-VEDUGGIO,Fri,3.6008676789587852,3.0,38,461,200,95,13,45.728304,9.279834
RHO,Fri,3.342245989304813,3.0,181,1870,692,371,85,45.523813,9.043563
RICADI,Fri,2.705,2.0,20,200,46,26,10,38.630676,15.839848
RIDOTTI-COLLEPIANO,Fri,0.5,0.0,2,2,0,0,0,,
RIMINI,Fri,1.3142857142857143,-1.0,140,1435,329,227,138,44.064176,12.574093
RIOMAGGIORE,Fri,6.5,3.0,2,2,1,1,0,44.105203,9.729105
RIPAFRATTA,Fri,2.636080870917574,2.0,68,643,166,72,17,43.821711,10.415733
RIVA TRIGOSO,Fri,3.033195020746888,2.0,47,482,140,86,37,44.26391,9.429277
ROBBIO,Fri,3.4407407407407407,3.0,22,270,116,36,11,45.293542,8.597051
ROBILANTE,Fri,0.11363636363636363,-1.0,36,264,14,7,2,44.296496,7.510906
ROCCALUMERA MANDANICI,Fri,3.922818791946309,2.0,32,298,108,74,21,37.972946,15.391411
ROLO NOVI FABBRICO,Fri,3.2181818181818183,1.0,32,385,95,64,28,44.886561,10.867882
ROMA PRENESTINA,Fri,0.40090600226500567,0.0,81,883,57,34,15,41.897571,12.545803
ROMA TUSCOLANA,Fri,1.059316569954868,0.0,304,3102,416,181,47,41.879384,12.523505
ROMAGNANO V.,Fri,5.2272727272727275,3.0,2,22,10,7,4,40.610041,15.447651
ROMETTA MESSINESE,Fri,1.1531322505800463,1.0,40,431,51,18,2,38.228455,15.405894
RONCHI DEI LEGIONARI NORD,Fri,1.2646153846153847,0.0,43,325,55,26,7,45.830285,13.505962
RUFINA,Fri,2.9020100502512562,2.0,43,398,142,76,14,43.822236,11.485072
S. DONA` DI PIAVE,Fri,2.601246105919003,1.0,82,963,217,114,43,45.63983,12.559791
S. PIETRO VERNOTICO,Fri,7.0,7.0,1,1,1,1,0,40.48902,18.000716
S. STEFANO DI MAGRA,Fri,2.7842003853564545,2.0,52,519,139,82,31,44.156857,9.915202
S. STINO DI LIVENZA,Fri,2.2235817575083425,1.0,77,899,162,90,32,45.721088,12.682769
S.AGATA M.,Fri,1.4596273291925466,-1.0,53,483,103,68,31,38.073554,14.640622
S.AGATA SUL SANTERNO,Fri,5.729166666666667,3.0,4,48,22,13,7,44.436774,11.858855
S.ALESSIO SICULO FORZA D`AGRO`,Fri,4.061855670103093,2.0,31,291,110,70,23,37.923992,15.347322
S.ANDREA DELL`JONIO,Fri,11.0,11.0,1,1,1,1,1,38.620097,16.553449
S.BENEDETTO DEL TRONTO,Fri,3.732456140350877,2.0,89,912,347,210,83,42.954386,13.882297
S.CANDIDO,Fri,2.0408163265306123,1.0,5,49,6,3,1,46.732728,12.271917
S.CASSIANO,Fri,4.425742574257426,4.0,19,202,103,58,11,44.143684,11.687503
S.ELENA - ESTE,Fri,2.1335616438356166,1.0,27,292,77,42,12,45.199209,11.712883
S.FREDIANO A SETTIMO,Fri,10.166666666666666,10.0,5,6,5,5,3,43.680508,10.517254
S.GIOVANNI VALDARNO,Fri,3.2713114754098362,2.0,117,1220,391,229,65,43.56601,11.527033
S.GIUSTINA CESIO,Fri,0.6160458452722063,0.0,48,349,21,5,1,46.077655,12.04294
S.ILARIO,Fri,3.3969957081545066,2.0,39,466,137,78,34,44.765795,10.450469
S.LORENZO COLLI,Fri,0.6275695284159613,0.0,69,827,37,15,5,38.16292,13.316449
S.MARINO,Fri,2.9883040935672516,2.0,14,171,32,14,5,45.897699,11.692241
S.VINCENZO V.R.,Fri,0.6666666666666666,0.0,3,3,0,0,0,41.832988,13.526148
S.VITO LANCIANO,Fri,2.2890625,1.0,22,256,64,38,8,42.307401,14.448093
SAIRANO,Fri,6.304832713754647,4.0,25,269,177,97,17,45.138858,9.046868
SAIRANO ZINASCO,Fri,6.277580071174377,4.0,26,281,184,101,19,45.133795,9.030153
SALEMI GIBELLINA,Fri,3.7019867549668874,1.0,18,151,33,23,14,37.806619,12.865517
SALERNO,Fri,1.1865211200759374,-1.0,218,2107,442,291,170,40.675137,14.772822
SALORNO,Fri,10.25,8.0,7,8,8,8,2,46.245842,11.202681
SALSOMAGGIORE T.,Fri,0.2604166666666667,0.0,24,288,9,2,2,44.81866,9.988129
SALUGGIA,Fri,3.857541899441341,2.0,36,358,141,82,21,45.23443,8.017112
SALUSSOLA,Fri,0.29411764705882354,0.0,44,374,7,4,1,45.44438,8.115195
SAMPIERI,Fri,3.8559322033898304,2.0,12,118,43,29,13,36.73188,14.744577
SAN BENEDETTO PO,Fri,2.693548387096774,1.0,14,124,30,19,8,,
SAN GIORGIO DI NOGARO,Fri,1.5784114052953158,0.0,44,491,85,42,19,45.82917,13.210315
SAN GIOVANNI IN PERSICETO,Fri,2.897277227722772,2.0,78,808,275,169,58,44.643151,11.189444
SAN GIUSEPPE DI CAIRO,Fri,0.06104129263913824,-1.0,50,557,35,25,20,44.370096,8.28864
SAN SEVERO,Fri,2.8081180811808117,2.0,24,271,91,69,27,41.684512,15.392567
SANTOPADRE,Fri,1.0,1.0,3,3,0,0,0,,
SARMATO,Fri,11.0,6.0,3,3,3,2,1,45.063043,9.491116
SARTIRANA,Fri,2.431972789115646,1.0,32,294,76,47,15,45.111728,8.67012
SASSO MARCONI,Fri,1.8433566433566433,1.0,64,715,105,30,11,44.394939,11.254333
SCHIVENOGLIA,Fri,3.28,1.0,14,125,35,24,12,,
SCICLI,Fri,4.17948717948718,2.0,12,117,44,31,14,36.789939,14.698759
SCOPETI,Fri,4.846361185983827,4.0,41,371,213,136,28,43.841117,11.497001
SCORCETOLI,Fri,9.444444444444445,6.0,3,18,13,10,3,44.34431,9.911853
SEGRATE,Fri,3.0,3.0,1,1,0,0,0,45.480702,9.298873
SELLA DI CORNO,Fri,1.6842105263157894,0.0,17,152,26,16,10,42.360461,13.189876
SERRADIFALCO,Fri,0.32653061224489793,-2.0,5,49,4,4,4,37.431804,13.883299
SERRAVALLE PISTOIESE,Fri,3.8786764705882355,3.0,28,272,117,63,23,43.908016,10.85168
SESTO S. GIOVANNI,Fri,3.4598635034124148,2.0,296,3077,1110,676,212,45.541087,9.23926
SETTIMO,Fri,2.5,2.0,77,864,230,103,11,45.139834,7.769335
SGURGOLA,Fri,2.4425427872860634,1.0,46,409,105,59,12,41.687018,13.146199
SIDERNO,Fri,3.8747433264887063,2.0,47,487,189,124,39,38.2708,16.302
SIGNA,Fri,11.857142857142858,9.0,20,28,24,19,10,43.775441,11.095961
SILLA,Fri,2.6252354048964217,1.0,48,531,142,54,9,44.177652,10.980635
SILVI,Fri,2.500747384155456,1.0,63,669,168,112,22,42.55911,14.110365
SINALUNGA,Fri,2.78,3.0,38,300,108,38,10,43.216189,11.744866
SIPICCIANO,Fri,2.7916666666666665,1.0,18,216,39,26,13,42.546495,12.254318
SOLARUSSA,Fri,0.18,0.0,6,50,3,2,0,39.952525,8.679813
SOMMA LOMBARDO,Fri,3.7837150127226464,3.0,33,393,160,96,18,45.686423,8.712991
SORA,Fri,0.9741379310344828,1.0,12,116,26,8,2,41.716618,13.618601
SORI,Fri,22.0,22.0,1,1,1,1,1,44.369795,9.106006
SPADAFORA,Fri,9.5,9.0,2,4,4,4,0,38.221922,15.377196
SPELLO,Fri,3.2178423236514524,2.0,43,482,153,93,22,42.9844,12.668884
SQUINZANO,Fri,2.381516587677725,1.0,56,422,96,46,21,40.439266,18.046097
STELLATA FICAROLO,Fri,0.0,0.0,1,1,0,0,0,,
STRADELLA,Fri,4.244493392070485,2.0,37,454,172,111,47,45.079465,9.300865
STRAMBINO,Fri,2.6656976744186047,2.0,33,344,88,41,11,45.382508,7.887955
STREVI,Fri,4.241206030150754,4.0,21,199,113,64,5,44.697771,8.525525
SU CANALE,Fri,3.2580645161290325,2.0,9,62,22,12,1,40.838375,9.404226
TALAMONE,Fri,4.0,2.0,2,2,1,1,0,42.56461,11.164524
TARVISIO BOSCOVERDE,Fri,1.1224489795918366,0.0,12,49,7,4,3,46.505956,13.608012
TASSIGNANO,Fri,4.546511627906977,4.0,24,258,143,95,10,43.834131,10.570495
TEANO,Fri,2.778781038374718,1.0,46,443,111,59,25,41.231804,14.077075
TELESE CERRETO,Fri,6.332129963898917,3.0,29,277,136,113,59,41.211709,14.526165
TERME EUGANEE-ABANO-MONTEGR.,Fri,1.3837638376383763,0.0,73,813,144,83,28,45.32744,11.79604
TERMOLI,Fri,3.4082397003745317,1.0,46,534,189,141,73,42.000623,14.992805
TERRENOVE,Fri,2.0,2.0,1,1,0,0,0,37.748755,12.480604
TERZO MONTABONE,Fri,3.5492957746478875,3.0,23,213,97,46,8,44.671932,8.428705
TOLENTINO,Fri,2.0255474452554743,1.0,32,274,81,36,7,43.214556,13.290501
TOLLO CANOSA SANNITA,Fri,10.0,10.0,1,1,1,1,0,42.394208,14.339984
TORRE DE` PICENARDI,Fri,5.59,3.0,8,100,49,34,15,45.137198,10.286849
TORRE ORSAIA,Fri,14.0,14.0,1,1,1,1,1,40.099017,15.481204
TORTONA,Fri,3.7202970297029703,2.0,75,808,294,182,63,44.900126,8.861777
TRACCIA,Fri,4.1891891891891895,3.0,3,37,15,4,2,,
TRAPANI,Fri,1.7605633802816902,-2.0,15,142,20,18,13,38.017092,12.518814
TREMESTIERI,Fri,17.0,17.0,1,1,1,1,1,38.150323,15.535528
TREVI,Fri,2.8193548387096774,1.0,29,310,75,50,24,42.8762,12.733709
TREVIGLIO OVEST,Fri,1.6687737041719342,1.0,69,791,116,57,19,45.521762,9.580281
TREVISO C.,Fri,1.0939254721796836,0.0,199,1959,291,149,54,45.659608,12.24614
TRICESIMO - SAN PELAGIO,Fri,5.0,5.0,1,1,1,0,0,,
TRINO VERCELLESE,Fri,2.506172839506173,2.0,27,324,86,34,2,45.190066,8.294093
TRIVIGNO,Fri,1.8,0.0,4,50,12,6,3,40.588598,15.997824
TROFARELLO,Fri,1.5015873015873016,1.0,153,1575,262,98,16,44.980471,7.735206
TROMELLO,Fri,4.221476510067114,3.0,25,298,122,43,11,45.211988,8.872154
TUORO SUL TRASIMENO,Fri,4.610526315789474,4.0,8,95,51,32,7,43.196631,12.0796
TUSA,Fri,0.463768115942029,0.0,23,207,20,14,6,38.007989,14.256693
UGOVIZZA VALBRUNA,Fri,0.47619047619047616,-1.0,18,84,4,3,2,46.502902,13.494972
VAGLIA,Fri,1.7775467775467775,1.0,47,481,99,55,18,43.924442,11.284576
VAIRANO,Fri,3.343137254901961,2.0,56,510,143,82,47,41.317446,14.104022
VALENZA,Fri,3.0972222222222223,2.0,75,792,278,160,33,45.023527,8.625808
VALLE LOMELLINA,Fri,3.13265306122449,2.0,32,294,97,55,17,45.150588,8.685874
VALMADRERA,Fri,2.5668016194331984,1.0,41,494,125,64,22,45.846439,9.368183
VARIGNANA,Fri,5.615671641791045,4.0,52,536,336,196,52,44.436796,11.523078
VENEZIA CARPENEDO,Fri,9.875,9.0,7,8,7,7,3,45.506697,12.247609
VENEZIA MESTRE OSPEDALE,Fri,14.0,14.0,1,1,1,1,1,,
VESPRI,Fri,1.8773690078037903,2.0,106,897,75,20,9,38.101996,13.362701
VIA LUNGA,Fri,0.5682926829268292,0.0,46,410,34,10,2,,
VIAREGGIO,Fri,3.572923935799023,2.0,139,1433,522,293,104,43.865947,10.257886
VICENZA,Fri,0.9514563106796117,0.0,171,1854,367,212,90,45.541102,11.540762
VIGNA CLARA,Fri,0.9619047619047619,1.0,9,105,5,2,1,41.96827,12.409026
VIGNOLA,Fri,1.5723684210526316,1.0,17,152,14,6,4,,
VILLA SAN GIOVANNI,Fri,1.6111111111111112,-1.0,95,1026,148,105,64,38.216638,15.634336
VILLAFRANCA - BAGNONE,Fri,2.811175337186898,1.0,52,519,159,96,32,44.294399,9.948096
VILLAFRANCA DI VERONA,Fri,3.2043343653250775,2.0,27,323,113,59,14,45.349801,10.849016
VILLALBA,Fri,0.8979591836734694,0.0,10,98,13,7,2,37.668526,13.885155
VILLANOVA,Fri,0.48504273504273504,0.0,40,468,44,15,2,44.963159,7.947136
VILLAROSA,Fri,4.618181818181818,2.0,15,110,21,11,9,37.567205,14.200464
VILLASANTA,Fri,2.2845360824742267,1.0,40,485,118,50,16,45.603434,9.304923
VILLASOR,Fri,1.119289340101523,1.0,45,394,43,21,4,39.381451,8.935907
VILLAZZANO,Fri,2.394871794871795,1.0,16,195,30,13,6,46.045911,11.13906
VILLETTA,Fri,0.16962025316455695,0.0,37,395,11,2,0,41.738237,12.649463
VISONE,Fri,6.0,6.0,1,1,1,1,0,44.661951,8.500198
VITERBO PORTA FIORENTINA,Fri,1.441860465116279,-1.0,24,215,32,21,14,42.425237,12.106204
VITTUONE ARLUNO,Fri,3.0022346368715085,2.0,90,895,286,138,35,45.491054,8.947299
ZAMBRA,Fri,0.6723646723646723,-1.0,67,702,99,52,15,43.825856,11.206206
ABANO TERME,Fri,1.9912790697674418,2.0,32,344,77,40,11,45.355199,11.811533
ACQUAVIVA DELLE FONTI,Fri,0.7348066298342542,1.0,35,362,21,4,1,40.892806,16.839826
AGLIANO CASTELNUOVO CALCEA,Fri,1.174863387978142,0.0,16,183,17,7,3,44.786108,8.267723
ALBANO LAZIALE,Fri,-0.7477477477477478,-1.0,22,222,2,1,0,41.72632,12.658056
ALBIZZATE SOLBIATE ARNO,Fri,2.0261593341260404,1.0,71,841,215,140,53,45.724117,8.80621
ALBONESE,Fri,3.556,2.0,28,250,72,35,13,45.297785,8.714601
ALI` TERME,Fri,3.55632183908046,1.0,48,435,143,97,35,38.013952,15.435184
ALTAVILLA TAVERNELLE,Fri,3.8517520215633425,2.0,40,371,159,108,41,45.511805,11.454702
ANTRODOCO CENTRO,Fri,8.553191489361701,9.0,31,282,177,162,108,42.409844,13.07096
ARDENNO MASINO,Fri,3.5310077519379846,2.0,21,258,93,53,15,46.16198,9.651374
ARDORE,Fri,3.0625,1.0,12,144,33,23,10,38.175698,16.207311
ARENZANO,Fri,0.8244186046511628,0.0,101,860,118,64,21,44.403089,8.678322
ARIANO IRPINO,Fri,7.222222222222222,4.0,3,36,21,16,12,41.181883,15.117508
ARONA,Fri,1.3566666666666667,1.0,65,600,153,98,33,45.755392,8.559075
ARPINO,Fri,2.4757281553398056,2.0,11,103,26,11,2,41.648296,13.59959
ARSOLI,Fri,2.628140703517588,1.0,19,199,46,22,7,42.045852,13.013064
ASCOLI SATRIANO,Fri,2.3043478260869565,1.0,10,92,31,21,4,41.219859,15.547828
ASSO,Fri,0.005988023952095809,0.0,15,167,0,0,0,45.855228,9.268513
ASTI,Fri,1.9649122807017543,1.0,94,1026,241,127,30,44.89479,8.208112
AUGUSTA,Fri,3.328358208955224,1.0,43,335,101,72,35,37.24334,15.218628
AVIANO,Fri,0.06097560975609756,0.0,14,164,2,2,2,46.064362,12.590686
AVIGLIANA,Fri,1.5363735070575462,1.0,96,921,148,93,23,45.085276,7.401096
AVOLA,Fri,2.9125,1.0,16,160,37,26,11,36.907434,15.125733
BADOLATO,Fri,4.785714285714286,4.0,5,56,35,23,7,38.572268,16.567646
BALVANO R.,Fri,2.391304347826087,2.0,3,23,9,2,0,40.649993,15.495304
BANDITO,Fri,1.7635467980295567,1.0,37,406,61,27,7,44.722075,7.819452
BARCELLONA,Fri,2.346210995542348,1.0,69,673,129,79,35,38.14918,15.212499
BARCO,Fri,0.19428571428571428,0.0,20,175,16,2,2,,
BARDONECCHIA,Fri,1.12,0.0,31,250,48,27,16,45.076447,6.709959
BARI S. SPIRITO,Fri,3.231578947368421,2.0,78,760,248,135,36,41.159653,16.746324
BARLETTA,Fri,4.504392386530014,2.0,133,1366,495,353,177,41.315227,16.278867
BARONISSI,Fri,1.6590038314176245,1.0,27,261,52,30,7,40.743779,14.77224
BATTAGLIA TERME,Fri,3.8151260504201683,2.0,33,357,143,113,27,45.291475,11.77838
BAZZANO,Fri,-0.16939890710382513,-1.0,41,366,25,9,6,,
BEAULARD,Fri,2.593967517401392,1.0,55,431,87,41,19,45.046495,6.759713
BELGIRATE,Fri,4.768421052631579,3.0,17,190,95,62,33,45.843337,8.570821
BELLANO TARTAVELLE TERME,Fri,3.660060975609756,1.0,54,656,217,129,43,46.039448,9.302776
BELLUNO,Fri,0.4019607843137255,0.0,54,408,19,5,2,46.141594,12.209703
BERCHIDDA,Fri,1.5523809523809524,1.0,19,105,11,7,4,40.772052,9.181312
BERGAMO,Fri,3.2865497076023393,2.0,117,1368,455,262,88,45.690271,9.675082
BESANA,Fri,2.6469344608879495,2.0,39,473,169,84,11,45.702824,9.28288
BICOCCA,Fri,1.9183673469387754,0.0,27,147,26,14,6,37.460617,15.044594
BIELLA S.PAOLO,Fri,-0.42016806722689076,-1.0,46,357,24,10,2,45.557334,8.067541
BIFORCO,Fri,5.3628318584070795,5.0,22,226,136,83,22,44.068431,11.602243
BOLOGNA C.LE,Fri,1.6035628822121777,0.0,364,3761,931,602,292,44.50626,11.342267
BONORVA,Fri,0.7884615384615384,0.0,11,52,5,3,2,40.417763,8.760707
BORGHETTO,Fri,12.666666666666666,13.0,3,3,3,3,3,45.696721,10.927083
BORGO A BUGGIANO,Fri,4.962962962962963,4.0,30,297,156,113,37,43.880724,10.730079
BORGO LAVEZZARO,Fri,2.8055555555555554,2.0,28,252,63,27,14,45.318783,8.703242
BORGONE,Fri,0.501953125,-1.0,44,512,54,31,10,45.123191,7.236037
BORGONUOVO,Fri,2.933333333333333,3.0,63,705,248,94,13,,
BORGORATTO,Fri,1.0552763819095476,0.0,21,199,18,12,6,44.835999,8.538182
BOVA MARINA,Fri,4.240625,2.0,31,320,118,74,25,37.930269,15.923897
BOZZOLO,Fri,6.973760932944606,5.0,27,343,222,150,63,45.107246,10.472655
BRA,Fri,0.46766169154228854,0.0,37,402,32,13,6,44.693556,7.848643
BRACCIANO,Fri,3.0652866242038215,2.0,62,628,212,82,19,42.103667,12.173023
BRENNERO,Fri,0.14206128133704735,-2.0,32,359,55,43,24,47.004117,11.505711
BRISIGHELLA,Fri,4.42436974789916,3.0,23,238,109,60,19,44.220565,11.769757
BRUNICO NORD,Fri,1.8383838383838385,1.0,9,99,10,5,3,,
BUCCINO S.,Fri,3.227272727272727,2.0,11,88,34,20,8,40.600806,15.374199
BUCINE,Fri,6.157894736842105,5.0,13,19,18,7,1,43.480478,11.617609
BUSCHE LENTIAI MEL,Fri,-0.1419141914191419,0.0,41,303,22,7,0,46.040092,11.979251
BUSSI,Fri,0.1566265060240964,0.0,9,83,6,3,0,42.194154,13.849075
BUTTRIO,Fri,1.7425149700598803,1.0,43,334,38,19,8,46.012664,13.329039
CALCERANICA,Fri,4.37948717948718,3.0,16,195,86,40,8,46.007384,11.240713
CALDIERO,Fri,4.256756756756757,2.0,39,370,127,89,45,45.41407,11.169753
CALTAGIRONE,Fri,2.761904761904762,-2.0,4,21,5,5,3,37.225276,14.521165
CALVISANO,Fri,5.3244147157190636,4.0,24,299,152,101,42,45.346572,10.349411
CAMBIANO SANTENA,Fri,1.086848635235732,1.0,33,403,41,15,1,44.966491,7.773225
CAMMARATA S.GIOVANNI GEMINI,Fri,1.1024844720496894,1.0,29,322,96,50,12,37.653759,13.673791
CAMOGLI SAN FRUTTUOSO,Fri,9.4,9.0,4,5,4,4,1,44.348166,9.156743
CAMPODARSEGO,Fri,0.0,0.0,1,1,0,0,0,45.505721,11.900894
CAMPOLEONE,Fri,1.8074626865671641,1.0,143,1340,268,129,33,41.642396,12.648341
CAMPOSANTO,Fri,2.7367491166077738,2.0,56,566,154,86,18,44.787527,11.143587
CANCELLIERA,Fri,3.6030150753768844,3.0,47,398,152,60,10,41.710587,12.621758
CANCELLO,Fri,3.684256055363322,3.0,111,1156,421,206,67,40.993063,14.418877
CANCELLO ARNONE,Fri,2.1333333333333333,1.0,15,180,35,21,10,41.063369,14.02901
CANDIA CANAVESE,Fri,2.9577039274924473,2.0,31,331,88,39,17,45.329824,7.891819
CANEGRATE,Fri,5.63768115942029,5.0,79,828,561,319,76,45.569235,8.926593
CANISTRO,Fri,0.3333333333333333,0.0,3,3,0,0,0,,
CANTU`- CERMENATE,Fri,4.5,4.0,5,6,4,1,0,45.716236,9.099284
CAPACCIO ROCCADASPIDE,Fri,2.997624703087886,1.0,41,421,132,84,43,40.454518,15.013551
CAPACI,Fri,10.5,11.0,4,4,4,3,3,38.171794,13.232398
CARAVAGGIO,Fri,4.553775743707094,2.0,43,437,163,119,52,45.491158,9.637723
CARIMATE,Fri,3.2349665924276167,2.0,99,898,281,189,68,45.697094,9.107188
CARINI,Fri,1.0082449941107186,1.0,102,849,41,16,6,38.147696,13.186624
CARONNO PERTUSELLA,Fri,1.0809968847352025,1.0,31,321,32,9,2,,
CAROVIGNO,Fri,7.5,7.0,2,2,2,2,0,40.737337,17.683791
CARSOLI,Fri,1.641025641025641,1.0,33,312,59,33,10,42.09578,13.080388
CARUGO - GIUSSANO,Fri,0.0041841004184100415,0.0,42,478,0,0,0,,
CASALECCHIO DI RENO,Fri,3.075177304964539,3.0,63,705,232,89,11,44.474298,11.276097
CASALETTO VAPRIO,Fri,5.207762557077626,3.0,43,438,193,136,52,45.408641,9.631746
CASSANO D`ADDA,Fri,2.518843120070114,1.0,103,1141,277,167,56,45.514372,9.512746
CASSINE,Fri,4.467336683417085,4.0,21,199,120,64,5,44.751513,8.533613
CASSINO,Fri,0.6072992700729927,-1.0,74,685,85,63,44,41.484306,13.832125
CASTEGGIO,Fri,9.0,9.0,1,1,1,1,0,45.017365,9.124595
CASTEL D`ARIO,Fri,1.0980392156862746,0.0,23,204,25,15,8,45.183399,10.97531
CASTEL GANDOLFO,Fri,0.7804295942720764,0.0,39,419,70,11,1,41.746946,12.652266
CASTEL S.ANGELO,Fri,3.870848708487085,3.0,31,271,100,58,18,42.379666,13.017612
CASTEL S.GIOVANNI,Fri,4.241279069767442,3.0,28,344,140,90,30,45.063272,9.436856
CASTELFIORENTINO,Fri,10.488372093023257,9.0,26,43,40,39,18,43.60542,10.968048
CASTELFRANCO D'EMILIA,Fri,3.5075075075075075,2.0,84,999,300,200,81,44.597381,11.056408
CASTELLEONE,Fri,5.349557522123894,3.0,44,452,204,137,64,45.301826,9.76779
CASTELLO D`ANNONE,Fri,2.5962732919254656,2.0,17,161,36,18,4,44.878742,8.312724
CASTELNUOVO BERARDENGA,Fri,2.4585365853658536,2.0,30,205,56,20,1,43.306882,11.484912
CASTELNUOVO DI GARFAGNANA,Fri,2.2035928143712575,2.0,35,334,84,37,6,44.116351,10.409054
CASTELPLANIO CUPRAMONTANA,Fri,1.0474040632054176,0.0,42,443,64,29,12,43.481403,13.084733
CASTELVETRANO,Fri,0.4870689655172414,-2.0,25,232,39,28,17,37.684977,12.799552
CASTIGLION DEL LAGO,Fri,3.421545667447307,3.0,40,427,160,79,24,43.123195,12.032077
CASTIONE DEI MARCHESI,Fri,3.128205128205128,2.0,15,156,36,16,7,44.915157,10.044449
CATTOLICA S.GIOVANNI GABICCE,Fri,2.0980392156862746,1.0,48,561,133,77,25,43.959931,12.745087
CAULONIA,Fri,4.803571428571429,4.0,5,56,32,20,5,38.343785,16.467278
CAVA DEI TIRRENI,Fri,1.7916666666666667,1.0,83,936,177,80,21,40.703662,14.708461
CAVALLEGGERI AOSTA,Fri,0.25870646766169153,0.0,180,2211,164,62,13,40.819292,14.185679
CAVI,Fri,0.0,0.0,1,1,0,0,0,44.29354,9.37251
CERCHIO,Fri,2.909090909090909,1.0,10,44,8,6,1,42.061082,13.597972
CERLANO LAGHETTO,Fri,1.421195652173913,0.0,37,368,65,44,16,,
CERNUSCO-MERATE,Fri,3.6626794258373208,1.0,72,836,236,146,65,45.695096,9.396794
CERVIA-MILANO MARITTIMA,Fri,3.7184684684684686,1.0,53,444,105,64,30,44.258444,12.347096
CERVIGNANO A.G.,Fri,1.2570781426953568,1.0,78,883,138,71,27,45.823948,13.342866
CESENA,Fri,1.852772466539197,0.0,89,1046,270,196,95,44.145449,12.24964
CHIAVARI,Fri,2.972463768115942,1.0,144,1380,363,217,79,44.315156,9.322464
CHIGNOLO PO,Fri,5.855018587360595,4.0,22,269,149,106,43,45.160942,9.494196
CHIVASSO,Fri,1.6478232618583495,1.0,161,1539,294,135,47,45.193637,7.889666
CINISI TERRASINI,Fri,3.8947368421052633,1.0,15,114,25,16,11,38.155314,13.096673
CIRO',Fri,5.4548736462093865,4.0,24,277,146,90,40,39.368701,17.116997
CISANO CAPRINO BERGAMASCO,Fri,3.16,2.0,34,400,111,61,19,45.739606,9.474261
COLLARMELE,Fri,2.159090909090909,1.0,10,44,8,7,1,,
COLLEFERRO-SEGNI-PALIANO,Fri,0.6518264840182648,0.0,94,876,87,37,15,41.740062,13.00299
COLORNO,Fri,3.3759791122715406,2.0,32,383,132,85,25,44.927943,10.382935
COMPIOBBI,Fri,3.3765347885402455,3.0,73,733,284,154,43,43.782527,11.358695
COMPRE S.VINCENZO,Fri,0.5,0.0,2,2,0,0,0,,
CONTESSE,Fri,1.2760736196319018,1.0,14,163,19,12,5,38.16193,15.544717
CORNIGLIA,Fri,3.694200351493849,2.0,93,569,176,98,34,44.119938,9.711051
CORNUDA,Fri,2.436619718309859,1.0,32,213,49,17,2,45.833846,12.012886
CORRIDONIA MOGLIANO,Fri,1.2108433734939759,1.0,22,166,18,5,2,43.281616,13.477697
COSTA MASNAGA,Fri,3.0806100217864922,3.0,38,459,185,92,12,45.76343,9.285231
CRESPELLANO,Fri,2.031941031941032,2.0,46,407,74,21,4,,
CROCICCHIE,Fri,11.6,3.0,5,5,2,2,1,42.0559,12.238888
DERVIO,Fri,2.668730650154799,2.0,28,323,106,57,14,46.077709,9.30596
DIAMANTE BUONVICINO,Fri,2.8854489164086687,2.0,32,323,112,66,24,39.67701,15.824278
DOMODOSSOLA,Fri,1.4527472527472527,-1.0,42,455,124,91,35,46.115429,8.296684
DORMELLETTO PAESE,Fri,1.910179640718563,1.0,14,167,17,7,4,45.730032,8.574324
DUBINO,Fri,0.8534704370179949,0.0,35,389,28,9,4,46.172802,9.432188
EBOLI,Fri,4.549668874172186,3.0,30,302,130,91,39,40.611057,15.052382
ELLERA CORCIANO,Fri,3.8587896253602305,3.0,30,347,136,87,25,43.094699,12.318574
ELMAS AEROPORTO,Fri,1.0966620305980528,1.0,150,1438,130,78,29,,
FABRIANO,Fri,1.5400372439478585,0.0,52,537,96,57,23,43.345429,12.905336
FAGARE,Fri,2.587121212121212,2.0,22,264,49,25,10,45.70705,12.444296
FASANO,Fri,2.4177489177489178,1.0,102,924,222,127,42,40.851753,17.3859
FEDERICO,Fri,0.7719054242002782,2.0,60,719,0,0,0,38.144862,13.344966
FERRUZZANO,Fri,3.897810218978102,2.0,12,137,44,30,14,38.016304,16.134486
FIDENE,Fri,1.5274592637296318,1.0,136,1657,149,72,19,41.979773,12.508451
FIRENZE STATUTO,Fri,3.1699029126213594,2.0,37,412,156,93,25,43.787273,11.249738
FIUMEFREDDO DI SICILIA,Fri,2.7967914438502675,1.0,57,561,154,81,35,37.795247,15.205615
FIVIZZANO - GASSANO,Fri,3.260115606936416,2.0,20,173,51,24,1,44.202672,10.091691
FOGGIA,Fri,4.5052531041069726,2.0,102,1047,402,285,165,41.466,15.555816
FOGNANO,Fri,5.813953488372093,5.0,21,215,132,97,30,,
FONTANA LIRI INFERIORE,Fri,0.6666666666666666,0.0,3,3,0,0,0,,
FONTANETTO PO,Fri,3.1512345679012346,3.0,27,324,108,39,5,45.191238,8.188697
FORLIMPOPOLI,Fri,3.2141057934508814,2.0,33,397,106,65,24,44.194165,12.128125
FORTE DEI MARMI SERRAVEZZA Q.,Fri,3.565040650406504,2.0,78,738,244,147,45,43.97777,10.19936
FOSCIANDORA - CESERANA,Fri,3.0923076923076924,2.0,9,65,18,9,1,44.118559,10.444212
FRASCATI,Fri,-1.8341708542713568,-2.0,18,199,4,3,0,41.806881,12.677962
FROSINONE,Fri,-0.26558265582655827,-1.0,83,738,72,46,31,41.625333,13.328728
FURCI,Fri,5.097014925373134,4.0,28,268,145,86,29,37.961714,15.380022
GALLESE IN TEVERINA,Fri,1.8131313131313131,1.0,34,396,50,18,4,42.380901,12.439732
GALLIERA,Fri,5.3428571428571425,4.0,41,420,211,126,45,44.737738,11.441551
GARLASCO,Fri,1.842281879194631,1.0,25,298,64,24,8,45.198948,8.926829
GATTEO A MARE,Fri,4.271767810026385,2.0,45,379,89,56,30,44.170691,12.432057
GAZZADA SCHIANNO MORAZZONE,Fri,3.0404280618311534,2.0,71,841,207,115,46,45.77862,8.824815
GAZZO DI BIGARELLO,Fri,0.44607843137254904,0.0,23,204,18,9,5,45.176648,10.894005
GELA,Fri,2.2525252525252526,1.0,9,99,30,23,10,37.07283,14.259461
GENOVA BOLZANETO,Fri,0.8448275862068966,1.0,54,638,64,29,4,44.459208,8.900193
GENOVA BORZOLI,Fri,4.5137931034482754,2.0,23,290,120,99,28,44.434704,8.866648
GENOVA BRIGNOLE,Fri,1.8955436720142602,1.0,262,2805,626,384,156,44.407213,8.947553
GENOVA NERVI,Fri,2.4320695102685623,1.0,132,1266,344,233,65,44.381271,9.039895
GENOVA PEGLI,Fri,4.6,5.0,5,5,3,2,0,44.426236,8.816767
GENOVA VIA DI FRANCIA,Fri,5.0,4.0,7,9,5,4,1,44.411126,8.90192
GHIVIZZANO - COREGLIA,Fri,3.9627329192546585,3.0,34,322,139,75,16,44.027583,10.510183
GIACHERY,Fri,-5.325,-6.0,30,360,2,1,0,38.138135,13.355856
GIAMPILIERI,Fri,1.4587912087912087,0.0,36,364,66,46,20,38.080121,15.493863
GIAVE,Fri,2.3333333333333335,1.0,10,51,8,4,2,40.455875,8.729388
GINOSA,Fri,3.933333333333333,2.0,6,75,18,15,10,40.429201,16.890968
GIOIA DEL COLLE,Fri,-0.10222222222222223,-1.0,43,450,34,18,9,40.796983,16.916569
GIOIA TAURO,Fri,2.5157142857142856,0.0,65,700,125,96,52,38.423436,15.897516
GORIANO SICOLI,Fri,3.227272727272727,1.0,10,44,14,8,4,42.082698,13.78286
GOZZANO,Fri,2.5511363636363638,1.0,18,176,47,28,11,45.741039,8.438726
GRASSANO,Fri,4.475409836065574,2.0,10,122,49,30,19,40.593317,16.241049
GRAVELLONA TOCE,Fri,2.477272727272727,1.0,18,176,39,23,5,45.934051,8.428346
GRIZZANA,Fri,2.2566539923954374,1.0,52,526,98,53,17,44.258292,11.181194
GROTTAGLIE,Fri,2.515625,0.0,16,192,46,24,14,40.528989,17.424503
GROTTE S.STEFANO,Fri,2.6805555555555554,1.0,18,216,40,22,13,42.51512,12.169372
GRUMO APPULA,Fri,1.7209944751381216,1.0,35,362,33,7,1,41.01199,16.718777
GUADAGNA,Fri,1.5551839464882944,1.0,106,897,57,19,8,,
GUALDO TADINO,Fri,2.562790697674419,2.0,21,215,52,28,12,43.233475,12.7672
GUALTIERI,Fri,-1.1846846846846846,-1.0,25,222,7,2,1,,
GUARDIA MANGANO SANTA VENERINA,Fri,3.0,3.0,1,1,0,0,0,37.661812,15.169447
IGEA MARINA,Fri,2.2797202797202796,0.0,52,429,64,41,27,44.131972,12.481636
IGLESIAS,Fri,-0.04048582995951417,-1.0,24,247,11,7,5,39.310563,8.539786
INCISA,Fri,2.457920792079208,2.0,82,808,217,122,33,43.656541,11.452728
INVERIGO,Fri,0.002044989775051125,0.0,43,489,0,0,0,,
IPOGEO DEGLI OTTAVI,Fri,2.6547085201793723,2.0,147,1561,381,138,37,41.968391,12.409026
ISOLA DELLA SCALA,Fri,5.059016393442623,4.0,29,305,158,107,41,45.269474,11.013312
LA GIUSTINIANA,Fri,2.662179487179487,2.0,147,1560,329,124,32,41.985243,12.403457
LA RUSTICA UIR,Fri,1.0329380764163374,0.0,67,759,92,45,13,,
LA STORTA,Fri,2.0121065375302662,1.0,157,1652,260,98,32,42.001748,12.381254
LABRO MOGGIO,Fri,9.771428571428572,7.0,4,35,33,27,11,42.506131,12.746224
LADISPOLI-CERVETERI,Fri,1.472,1.0,88,1000,170,91,17,41.953502,12.081675
LAMEZIA TERME CENTRALE,Fri,1.5145631067961165,-1.0,86,927,189,125,73,38.921347,16.255577
LANCENIGO,Fri,4.0,4.0,1,1,1,0,0,45.710087,12.265663
LANUVIO,Fri,1.2347826086956522,1.0,62,575,73,34,14,41.672211,12.690885
LATERINA,Fri,3.287109375,2.0,55,512,148,77,22,43.496458,11.660573
LAVAGNA,Fri,1.5,0.0,2,2,0,0,0,44.305677,9.346371
LAVEZZOLA,Fri,2.632978723404255,1.0,38,376,93,49,16,44.559591,11.880154
LE PIAGGE,Fri,11.833333333333334,6.0,6,6,5,4,1,43.789684,11.171665
LECCO MAGGIANICO,Fri,2.404551201011378,1.0,68,791,196,115,45,45.831179,9.411691
LESA,Fri,5.3052631578947365,4.0,17,190,97,67,31,45.833042,8.566471
LESEGNO,Fri,-0.43147208121827413,-1.0,18,197,7,5,4,44.385891,7.94266
LETOJANNI,Fri,2.956923076923077,1.0,35,325,98,63,20,37.877581,15.303128
LEVANTO,Fri,1.686021505376344,1.0,99,930,224,133,42,44.174167,9.616018
LIMONE,Fri,-2.3157894736842106,-3.0,18,133,3,2,1,44.203799,7.577912
LISON,Fri,2.299651567944251,1.0,25,287,52,31,5,45.751947,12.759416
LOANO,Fri,3.0286624203821657,2.0,66,628,209,128,32,44.122429,8.254523
LUNGAVILLA,Fri,2.7442528735632186,1.0,29,348,82,50,23,45.049837,9.068968
LUZZARA,Fri,-0.19339622641509435,0.0,24,212,9,3,1,,
MACOMER,Fri,0.6571428571428571,-1.0,26,210,36,27,16,40.267899,8.772279
MAGIONE,Fri,2.745508982035928,2.0,29,334,110,64,21,43.137356,12.202238
MAGLIANO CRAVA MOROZZO,Fri,0.0,-1.0,18,196,11,8,3,44.445259,7.777852
MAGNACAVALLO,Fri,1.957142857142857,1.0,16,140,28,15,8,,
MAGRE`- CORTACCIA,Fri,10.0,9.0,5,6,6,5,3,46.287976,11.232646
MALEO,Fri,7.878787878787879,5.0,7,66,43,30,13,45.170118,9.755201
MANTOVA FRASSINE,Fri,0.7990196078431373,0.0,23,204,16,7,4,45.150491,10.831007
MANZANO,Fri,1.7245508982035929,1.0,43,334,42,23,7,45.98811,13.375016
MARCIANISE,Fri,11.5,7.0,2,2,2,2,1,41.03596,14.287658
MARINA DI SAN LORENZO,Fri,2.7709923664122136,2.0,11,131,36,19,5,37.919844,15.826365
MARINO,Fri,0.20993227990970656,-1.0,41,443,79,9,2,41.768961,12.655994
MARMORE,Fri,3.0980392156862746,2.0,35,306,94,49,11,42.547499,12.715224
MASSA CENTRO,Fri,4.141333333333334,2.0,108,1125,438,278,91,44.023741,10.136041
MASSAFISCAGLIA,Fri,1.434782608695652,1.0,18,161,15,3,1,,
MAZARA DEL VALLO,Fri,1.7333333333333334,0.0,31,300,55,38,21,37.652448,12.594565
MEDA,Fri,0.005660377358490566,0.0,47,530,1,0,0,,
MELFI,Fri,2.9016949152542373,2.0,30,295,107,70,20,40.989871,15.646895
MERANA,Fri,5.244131455399061,5.0,23,213,145,95,9,44.519368,8.298327
MERCENASCO,Fri,3.8187311178247736,3.0,31,331,128,61,17,45.353436,7.886405
MESSINA MARITTIMA,Fri,21.580645161290324,15.0,8,31,22,18,16,38.14988,15.534997
MEZZANI RONDANI,Fri,5.1354466858789625,4.0,29,347,178,122,32,44.966764,10.398818
MILANO AFFORI,Fri,2.1198501872659175,2.0,28,267,55,18,6,,
MILANO DATEO,Fri,4.118295589988081,3.0,344,3356,1442,827,242,45.462341,9.209277
MILANO REPUBBLICA,Fri,4.196662693682956,3.0,344,3356,1443,803,235,,
MILANO ROGOREDO,Fri,2.968803418803419,1.0,424,4680,1443,896,360,45.433866,9.2391
MILANO VILLAPIZZONE,Fri,3.9911608721272835,3.0,176,1697,682,369,92,,
MINTURNO,Fri,3.2234726688102895,1.0,69,622,176,134,63,41.257621,13.720664
MIRADOLO TERME,Fri,7.204460966542751,6.0,22,269,185,137,53,45.162007,9.449952
MIRAMARE,Fri,1.1295180722891567,1.0,43,332,62,26,6,,
MIRANDOLA,Fri,3.9665841584158414,2.0,78,808,287,180,58,44.891638,11.111689
MONDOVI`,Fri,1.049462365591398,0.0,39,465,55,28,16,44.398255,7.816339
MONOPOLI,Fri,2.6200331125827816,1.0,127,1208,288,159,61,40.952017,17.292455
MONTECATINI TERME,Fri,3.010670731707317,2.0,66,656,226,134,45,43.879327,10.780588
MONTECHIARO DENICE,Fri,3.924882629107981,3.0,23,213,105,55,7,44.600827,8.352185
MONTECOSARO,Fri,2.7850746268656716,2.0,38,335,86,42,7,43.289297,13.646378
MONTEMAGGIORE,Fri,3.140684410646388,2.0,25,263,77,40,12,37.859037,13.693193
MONTEREALE VALCELLINA,Fri,-1.1049382716049383,-1.0,14,162,2,1,1,46.148009,12.658923
MONTEROSSO,Fri,2.7851239669421486,1.0,104,847,259,164,51,44.145967,9.649009
MONTEROTONDO,Fri,0.18018018018018017,0.0,129,1554,68,34,14,42.06409,12.595753
MONZA SOBBORGHI,Fri,3.2515463917525773,2.0,40,485,134,65,21,45.582082,9.284375
MORENGO BARIANO,Fri,42.75,12.0,4,4,4,4,4,45.521639,9.703114
MORI,Fri,24.0,24.0,1,1,1,1,1,45.861216,11.002648
MORNAGO CIMBRO,Fri,2.164265129682997,1.0,31,347,74,48,16,45.729742,8.734193
MOZIA-BIRGI,Fri,2.3846153846153846,1.0,30,286,60,30,14,37.884956,12.499016
NAPOLI MONTESANTO,Fri,4.6,3.0,10,10,5,5,0,40.847807,14.244022
NAPOLI PIAZZA GARIBALDI,Fri,4.7272727272727275,4.0,10,11,7,4,0,40.852326,14.275159
NAPOLI S.GIOV.BARRA,Fri,0.11629315566323441,0.0,145,1651,98,41,18,40.831269,14.307811
NICORVO,Fri,4.5464684014869885,4.0,22,269,142,59,9,45.275462,8.6712
NOALE SCORZE`,Fri,0.5685279187817259,1.0,64,788,82,31,8,45.553833,12.074888
NOLA,Fri,4.846153846153846,4.0,33,325,169,95,24,40.923652,14.525004
NOTO,Fri,2.8875,1.0,16,160,39,26,11,36.88247,15.074523
NOZZANO,Fri,5.285714285714286,4.0,19,182,103,67,19,43.829956,10.40716
NUOVO SALARIO,Fri,1.6107423053711527,2.0,136,1657,209,86,24,41.956195,12.510317
OCCHIOBELLO,Fri,3.1735537190082646,2.0,10,121,42,28,4,44.899384,11.621197
OFFIDA CASTEL DI LAMA,Fri,1.5258855585831064,1.0,43,367,52,30,8,42.862074,13.720285
OLCIO,Fri,3.274193548387097,2.0,27,310,104,52,13,45.938011,9.313898
OLEVANO,Fri,3.464163822525597,2.0,32,293,101,49,13,45.212119,8.71182
OLIVERI TINDARI,Fri,2.3,2.0,16,190,57,31,7,38.128346,15.056573
OLMENETA,Fri,3.118279569892473,1.0,75,837,224,134,66,45.231099,10.03194
ORIA,Fri,3.0989583333333335,1.0,16,192,45,23,13,40.508167,17.646534
ORTA MIASINO,Fri,2.7556818181818183,1.0,18,176,46,27,10,45.795865,8.421217
ORTANOVA,Fri,3.4285714285714284,2.0,52,448,158,90,26,41.350441,15.732059
ORTONA,Fri,2.16044776119403,1.0,23,268,70,32,7,42.354196,14.407698
OSPITALETTO MANTOVANO,Fri,7.216216216216216,4.0,6,74,46,30,17,45.129748,10.604406
OSTUNI,Fri,3.927652733118971,2.0,77,622,225,126,52,40.752356,17.580809
OVADA,Fri,3.205298013245033,1.0,24,302,85,59,23,44.630377,8.632301
OZZANO TARO,Fri,4.588235294117647,3.0,33,374,178,93,28,44.712268,10.141022
P.C.CANARO,Fri,1.891566265060241,1.0,7,83,19,15,0,44.923012,11.675223
PACECO,Fri,1.5833333333333333,0.0,10,72,4,3,3,37.991354,12.550844
PAESTUM,Fri,5.571428571428571,3.0,6,7,3,3,1,40.421691,15.014915
PALAZZO REALE-ORLEANS,Fri,-0.17831074035453598,-1.0,113,959,33,15,8,38.10878,13.353962
PALERMO BRANCACCIO,Fri,0.8058690744920993,0.0,49,443,32,16,2,38.093141,13.392508
PALESTRO,Fri,3.702127659574468,3.0,15,141,51,20,6,45.307274,8.534511
PANTANELLA,Fri,3.065989847715736,3.0,37,394,186,56,3,,
PARABIAGO,Fri,4.707259953161593,4.0,81,854,465,274,60,45.552441,8.946319
PEDASO,Fri,3.2954048140043763,2.0,47,457,138,82,27,43.094694,13.844906
PEDEROBBA CAVASO POSSAGNO,Fri,2.92896174863388,2.0,26,183,60,28,1,45.877299,11.965222
PERCA,Fri,1.1919191919191918,0.0,9,99,8,6,4,,
PERGINE,Fri,1.8461538461538463,1.0,16,195,41,17,6,46.062482,11.232637
PESCARA,Fri,2.2692939244663384,1.0,114,1218,344,202,104,42.467789,14.205066
PESCARA S. MARCO,Fri,-0.26181818181818184,-2.0,28,275,133,52,9,42.44613,14.208981
PESCHIERA DEL GARDA,Fri,4.8896103896103895,3.0,67,770,338,227,89,45.438502,10.702509
PESCINA,Fri,2.9761904761904763,1.0,8,42,9,6,1,42.037564,13.668981
PETTENASCO,Fri,4.323863636363637,2.0,18,176,61,32,13,45.820498,8.406802
PIACENZA,Fri,3.0956521739130434,1.0,120,1380,451,303,141,45.052238,9.70633
PIADENA,Fri,5.694202898550724,4.0,55,690,381,261,95,45.127608,10.369962
PIANA,Fri,3.7981220657276995,3.0,23,213,83,67,10,44.486383,8.308796
PICERNO,Fri,3.2151898734177213,1.0,18,158,54,40,11,40.640122,15.641612
PIETRA LIGURE,Fri,3.4642857142857144,2.0,65,616,236,137,31,44.145345,8.277403
PINEROLO OLIMPICA,Fri,4.273069679849341,3.0,46,531,210,100,18,44.893325,7.349043
PIOMBINO DESE,Fri,1.0826972010178118,1.0,64,786,102,35,11,45.60944,12.00058
PISA CENTRALE,Fri,2.144545096494683,1.0,249,2539,627,357,117,43.70794,10.398183
PISCINA DI PINEROLO,Fri,2.4812734082397006,1.0,46,534,197,119,38,44.921744,7.425482
PISCIOTTA PALINURO,Fri,3.796338672768879,1.0,45,437,126,80,38,40.091539,15.243601
PLOAGHE,Fri,2.07,2.0,31,200,50,13,4,40.66132,8.728075
PONTE DELLA VENTURINA,Fri,2.554054054054054,2.0,12,148,47,15,4,44.128589,10.990756
PONTE D`ADIGE,Fri,1.6318681318681318,1.0,49,546,133,52,4,46.485444,11.297719
PONTE GALERIA,Fri,2.263056092843327,2.0,128,1551,269,90,25,41.818349,12.344733
PONTE GARDENA,Fri,2.4966777408637872,1.0,53,602,173,103,39,46.6012,11.53251
PONTE NELLE ALPI POLPET,Fri,0.22174840085287847,0.0,56,469,16,7,2,46.182328,12.277604
PONTECAGNANO,Fri,2.892929292929293,2.0,48,495,148,87,30,40.641033,14.870272
PONTENURE,Fri,4.055555555555555,1.0,8,90,16,12,5,45.001687,9.792103
PORCARI,Fri,4.5,4.0,25,270,149,99,10,43.831263,10.619212
PORTO DI VASTO,Fri,2.003731343283582,1.0,23,268,49,28,9,42.167774,14.698057
POSSIDENTE,Fri,4.647887323943662,3.0,35,355,119,65,20,40.781144,15.777104
PRASCO CREMOLINO,Fri,3.217241379310345,2.0,23,290,76,45,15,44.648906,8.55001
PRIVERNO FOSSANOVA,Fri,1.880690737833595,0.0,72,637,134,91,38,41.421853,13.186406
QUARTO DI MARANO,Fri,1.02803738317757,0.0,24,107,8,6,3,40.871086,14.122801
QUARTO D`ALTINO,Fri,2.7363737486095663,2.0,77,899,215,106,36,45.574576,12.365032
QUATTRO VENTI,Fri,2.177036561898653,1.0,148,1559,252,92,31,41.880145,12.459731
QUATTRO VILLE,Fri,1.2050561797752808,1.0,60,712,82,40,15,,
QUILIANO VADO,Fri,8.0,8.0,1,1,1,1,0,44.279933,8.435562
RACALMUTO,Fri,1.313953488372093,0.0,9,86,10,7,4,37.406065,13.72752
RAGUSA IBLA,Fri,-1.0,-1.0,1,1,0,0,0,36.93133,14.750993
REGGIO DI CALABRIA OMECA,Fri,0.0,0.0,3,3,0,0,0,,
RIETI,Fri,3.334319526627219,2.0,37,338,121,61,16,42.405918,12.862596
RIGOROSO,Fri,6.0,6.0,1,1,1,1,0,44.670577,8.896487
RIO DI PUSTERIA,Fri,1.346938775510204,1.0,9,98,5,2,1,46.79712,11.670028
RIONERO ATELLA RIPACANDITA,Fri,4.112676056338028,3.0,35,355,150,91,23,40.922066,15.678699
ROCCA DI CORNO,Fri,0.92,0.0,18,175,29,14,4,42.388164,13.143939
ROCCA DI FONDI,Fri,2.0745341614906834,1.0,19,161,28,12,8,42.39799,13.095825
ROCCHETTA CAIRO,Fri,2.5492957746478875,2.0,23,213,30,13,6,44.427477,8.295356
ROCCHETTA S.ANT.LAC.,Fri,1.9384615384615385,1.0,6,65,23,14,4,41.1518,15.53295
ROMA OSTIENSE,Fri,0.754180602006689,0.0,377,4186,517,235,91,41.87265,12.483917
ROMA TIBURTINA PIAZZALE EST,Fri,-0.6666666666666666,-1.0,41,453,16,9,4,41.910903,12.530749
ROMA TRASTEVERE,Fri,2.7774744027303755,2.0,390,4395,1223,468,96,41.872279,12.466162
RONCO SCR.,Fri,1.6859592711682745,1.0,82,933,191,125,43,44.614537,8.949421
ROSARNO,Fri,2.38480697384807,1.0,73,803,162,117,55,38.488593,15.970149
ROSIGNANO,Fri,2.5196850393700787,1.0,54,508,135,72,25,43.387899,10.438041
ROSSIGLIONE,Fri,3.6556291390728477,3.0,24,302,112,60,26,44.566955,8.668051
ROVASENDA,Fri,2.2046204620462047,2.0,44,303,53,25,4,45.537291,8.317376
ROVATO,Fri,3.1832344213649852,1.0,116,1348,353,229,103,45.55193,10.000924
ROVERBELLA,Fri,2.6573208722741435,2.0,27,321,96,51,19,45.252645,10.796795
ROVERETO - S.V. - MEDELANA,Fri,0.9192546583850931,0.0,18,161,15,4,2,,
S. ANTONINO DI SALUGGIA,Fri,4.295031055900621,3.0,33,322,144,84,27,45.253967,8.039728
S. GIACOMO DI TEGLIO,Fri,2.088888888888889,2.0,4,45,5,3,2,46.159722,10.027405
S. GIULIANO MILANESE,Fri,0.5691699604743083,-1.0,65,506,66,24,4,45.391226,9.286418
S. MARGHERITA LIGURE PORTOFINO,Fri,2.623069936421435,1.0,117,1101,315,186,66,44.33676,9.216673
S. PIETRO A VICO,Fri,3.193916349809886,2.0,29,263,88,45,15,43.875094,10.530945
S. VINCENZO,Fri,2.1460446247464504,1.0,53,493,123,62,21,43.100366,10.539823
S.ANTONIO MANTOVANO,Fri,2.6510903426791277,2.0,27,321,84,52,20,45.187447,10.785806
S.BIAGIO,Fri,3.6,2.0,11,125,41,24,2,44.594511,11.87054
S.BIAGIO DI CALLALTA,Fri,0.7083333333333334,0.0,22,264,24,19,7,45.686134,12.374316
S.MARCO ROGGIANO,Fri,-0.9132947976878613,-1.0,14,173,6,4,1,39.605223,16.208776
S.MARIA LA BRUNA,Fri,1.9144736842105263,1.0,73,760,136,70,29,40.755435,14.407647
S.MINIATO FUCECCHIO,Fri,8.166666666666666,6.0,6,6,5,5,2,43.701383,10.831605
S.NICOLO',Fri,4.08843537414966,3.0,24,294,119,77,21,45.058843,9.606443
S.PIETRO IN CASALE,Fri,1.9759725400457666,1.0,78,874,181,109,47,44.697928,11.404763
S.PIETRO IN GU`,Fri,2.12,1.0,32,325,53,20,6,45.605039,11.673157
S.VITO AL TAGLIAMENTO,Fri,2.3255813953488373,2.0,26,301,99,35,2,45.912433,12.851594
SALA AL BARRO-GALBIATE,Fri,4.100446428571429,3.0,37,448,190,95,20,45.821086,9.359223
SALANDRA,Fri,6.36,4.0,4,50,26,21,8,40.583446,16.351564
SAMOLACO,Fri,1.3333333333333333,1.0,32,375,53,14,3,46.246436,9.423582
SAN GAVINO,Fri,0.3727810650887574,-1.0,59,507,72,37,16,39.546206,8.788017
SAN LEONARDO DI CUTRO,Fri,2.0,2.0,1,1,0,0,0,38.954221,16.964409
SANGIANO,Fri,5.808139534883721,4.0,31,344,212,121,31,45.874464,8.630769
SANTA MARINELLA,Fri,1.294701986754967,1.0,80,906,120,66,14,42.035892,11.863122
SANTO STEFANO DI CAMASTRA,Fri,1.3471074380165289,-1.0,41,363,51,32,16,38.01778,14.35104
SASSA TORNIMPARTE,Fri,2.110655737704918,1.0,27,244,37,23,11,42.360549,13.295333
SASSARI,Fri,1.0585106382978724,1.0,25,188,37,11,4,40.729506,8.554157
SASSUOLO RADICI,Fri,3.2698412698412698,3.0,8,63,22,14,3,,
SCAFA S.VALENTINO CARAMANICO T,Fri,0.5449871465295629,0.0,42,389,32,20,8,42.26717,13.99909
SCAFATI,Fri,1.8598639455782313,1.0,65,735,141,67,25,40.746028,14.523253
SCALEA S.DOMENICA TALAO,Fri,5.482625482625482,2.0,53,518,211,147,71,39.8083,15.80139
SCALETTA ZANCLEA,Fri,4.864686468646864,2.0,45,303,106,74,30,38.04635,15.465376
SCHIO,Fri,-1.74,-3.0,17,200,10,8,7,45.710848,11.355508
SCORDIA,Fri,1.7560975609756098,0.0,8,41,8,4,2,37.294595,14.851219
SEDICO BRIBANO,Fri,0.8034188034188035,0.0,50,351,20,6,1,46.095424,12.086508
SENIGALLIA,Fri,2.7095046854083,2.0,65,747,234,155,48,43.716277,13.221652
SEREGNO,Fri,3.45,2.0,182,1720,559,359,119,45.64601,9.20285
SERRAMANNA NURAMINIS,Fri,0.7817258883248731,0.0,45,394,31,16,4,39.426123,8.916579
SESTO CALENDE,Fri,3.1843393148450243,2.0,60,613,213,120,33,45.726241,8.628135
SETTEQUERCE,Fri,4.071428571428571,4.0,37,406,230,95,4,46.508448,11.264785
SEVESO,Fri,0.05018181818181818,0.0,142,1375,6,3,0,45.648187,9.140488
SIBARI,Fri,1.352059925093633,0.0,23,267,78,43,19,39.749863,16.456922
SOLOPACA,Fri,5.829896907216495,3.0,22,194,91,72,42,41.210521,14.571413
SOMMARIVA BOSCO,Fri,1.7865707434052758,0.0,38,417,70,41,9,44.770754,7.777086
SONDRIO,Fri,3.903587443946188,2.0,36,446,142,88,43,46.167064,9.872928
SORGENTI DEL PESCHIERA,Fri,7.468085106382978,7.0,6,47,41,30,8,42.36428,12.996973
SOVERATO,Fri,3.9529780564263324,3.0,31,319,128,80,32,38.684339,16.549416
SPINETTA,Fri,2.1839080459770117,2.0,18,174,32,14,4,44.882378,8.683146
STAZIONE PER L`ALPAGO,Fri,2.01840490797546,2.0,34,326,51,10,3,46.137574,12.316066
STRADA CASALE,Fri,5.083333333333333,5.0,3,36,24,17,3,44.183511,11.697496
STRIGNO,Fri,3.912280701754386,3.0,14,171,76,28,7,46.051003,11.514327
SULMONA,Fri,-0.12834224598930483,-1.0,46,374,30,17,8,42.060836,13.907156
TAGGIA ARMA,Fri,2.7844574780058653,2.0,64,682,208,121,35,43.840764,7.835604
TALAMONA,Fri,3.980544747081712,3.0,21,257,109,61,18,46.13952,9.599528
TARCENTO,Fri,0.8384279475982532,0.0,21,229,15,5,2,46.209134,13.196211
TARGIA,Fri,2.5,2.0,1,10,2,2,0,37.10963,15.245908
TARQUINIA,Fri,1.034920634920635,0.0,27,315,37,18,10,42.239463,11.727009
TAVAZZANO,Fri,-0.5691699604743083,-2.0,65,506,44,20,3,45.32629,9.402748
TERMINI IMERESE,Fri,0.21856027753686036,-1.0,122,1153,134,80,44,37.980132,13.703631
TEZZE DI GRIGNO,Fri,4.280701754385965,3.0,14,171,72,39,6,45.990485,11.669726
THIENE,Fri,2.042452830188679,1.0,36,424,94,37,8,45.700697,11.475407
TOMMASO NATALE,Fri,5.666666666666667,7.0,3,3,2,2,0,38.190283,13.28819
TOR SAPIENZA,Fri,0.35050251256281406,-1.0,71,796,61,37,13,41.907095,12.594489
TORINO LINGOTTO,Fri,1.113030303030303,1.0,309,3300,516,231,56,45.0266,7.657469
TORINO P.NUOVA,Fri,1.7631091918568784,0.0,170,1621,315,178,93,45.060969,7.67747
TORINO PORTA SUSA,Fri,1.3893501288290868,0.0,339,3493,591,309,114,45.075906,7.667673
TORINO STURA,Fri,1.4752747252747254,1.0,134,1456,265,107,15,45.121932,7.713202
TORRE ANNUNZIATA CENTRALE,Fri,2.211302211302211,1.0,77,814,173,80,27,40.747131,14.463744
TORRE DEL GRECO,Fri,1.4019138755980862,0.0,80,836,116,71,29,40.787631,14.363159
TORREGROTTA,Fri,11.0,11.0,2,3,3,3,2,38.208376,15.352813
TORRILE S. POLO,Fri,1.941772151898734,1.0,33,395,69,36,19,44.885677,10.362814
TORRIONE,Fri,2.3734177215189876,2.0,62,316,58,8,1,,
TORRITA DI SIENA,Fri,3.8533333333333335,3.0,38,300,142,50,9,43.174187,11.78758
TRABIA,Fri,3.0,3.0,2,2,0,0,0,37.996408,13.65567
TRAPPETO,Fri,4.147058823529412,1.0,13,102,26,16,9,38.065089,13.036873
TRE CROCI,Fri,3.0839160839160837,2.0,16,143,35,20,8,42.331525,12.086159
TRECELLA,Fri,4.0,4.0,1,1,1,0,0,45.512792,9.480674
TRENTO,Fri,2.1740121580547114,2.0,119,1316,395,217,92,46.072414,11.118941
TREVIGNANO SIGNORESSA,Fri,3.3973063973063975,3.0,41,297,124,36,2,45.74789,12.103123
TRIESTE AIRPORT,Fri,1.3403083700440528,0.0,80,908,135,65,24,,
VAIANO,Fri,1.4260089686098654,1.0,44,446,65,39,13,43.961772,11.130773
VALLE AURELIA,Fri,4.365487674169346,4.0,176,1866,1058,304,50,41.899356,12.447667
VALLO DELLA LUC. CASTELNUOVO,Fri,4.818827708703375,2.0,54,563,215,144,65,40.233316,15.266511
VALMADONNA,Fri,3.4340425531914893,2.0,48,470,143,81,23,44.972588,8.610667
VANDOIES,Fri,1.2551020408163265,1.0,9,98,8,3,1,46.814822,11.723079
VELLETRI,Fri,0.5286195286195287,-1.0,31,297,31,17,8,41.682421,12.780864
VENAFRO,Fri,-1.606936416184971,-3.0,23,173,27,18,8,41.482975,14.048722
VERBANIA-PALLANZA,Fri,1.8863636363636365,1.0,45,440,109,63,24,45.943821,8.47224
VERCEIA,Fri,-0.1909814323607427,-1.0,34,377,16,7,3,46.202832,9.458412
VERCELLI,Fri,1.7521206409048067,1.0,97,1061,198,103,39,45.329909,8.416028
VERDELLO DALMINE,Fri,1.6217948717948718,1.0,111,1248,160,90,33,45.605715,9.619797
VERGATO,Fri,2.4661654135338344,2.0,48,532,107,34,6,44.282723,11.114386
VERRES,Fri,2.480088495575221,2.0,70,452,139,65,18,45.659822,7.690012
VEZZANO LIGURE,Fri,2.9184397163120566,2.0,62,564,167,95,38,44.127081,9.88928
VIADANA BRESCIANA,Fri,4.448160535117057,3.0,24,299,135,89,33,45.373648,10.331792
VIGNA DI VALLE,Fri,3.828488372093023,3.0,30,344,129,54,7,42.076863,12.210716
VIGODARZERE,Fri,0.22010398613518198,0.0,53,577,35,14,7,45.453289,11.891641
VILLA BONELLI,Fri,2.745751633986928,2.0,127,1530,368,128,25,41.8477601,12.455223
VILLA CLAUDIA,Fri,1.6568047337278107,1.0,55,507,55,17,7,41.484326,12.61709
VILLA DI TIRANO,Fri,2.066666666666667,1.0,4,45,3,2,1,46.196164,10.13033
VILLA OPICINA,Fri,1.6,2.0,2,25,6,4,2,45.6944,13.791142
VILLADOSSOLA,Fri,1.9375,1.0,18,176,26,11,3,46.064151,8.264675
VILLAFRANCA C.,Fri,0.556989247311828,0.0,39,465,54,27,4,44.908916,8.043692
VILLAMASSARGIA DOMUSNOVAS,Fri,-1.0432835820895523,-2.0,69,670,18,12,8,39.294811,8.641986
VILLASTELLONE,Fri,4.0,4.0,1,1,1,0,0,44.920531,7.749572
VILLETTA MALAGNINO,Fri,4.15,3.0,8,100,41,21,7,45.137019,10.111943
VILPIANO-NALLES,Fri,3.773399014778325,4.0,37,406,212,88,6,46.554251,11.220143
VITERBO PORTA ROMANA,Fri,0.3482142857142857,0.0,39,336,24,17,11,42.411974,12.110482
VIZZINI,Fri,2.05,0.0,8,40,3,3,3,37.182566,14.729457
ABBASANTA,Fri,1.042857142857143,0.0,26,210,32,17,15,40.128801,8.817733
ACQUA ACETOSA,Fri,2.8908629441624365,2.0,37,394,120,40,4,41.794294,12.616449
ACQUAFREDDA,Fri,8.0,8.0,1,1,1,1,0,40.035527,15.671846
ACQUAMELA,Fri,15.0,15.0,1,1,1,1,1,,
ACQUANEGRA CREMONESE,Fri,7.046153846153846,3.0,6,65,31,21,13,45.172102,9.888456
ACQUAVIVA,Fri,3.710280373831776,3.0,29,321,138,70,12,37.570258,13.674927
ACQUEDOLCI-S.FRATELLO,Fri,0.3812154696132597,0.0,18,181,15,12,4,38.058459,14.587597
ADRIA,Fri,0.9421487603305785,0.0,14,121,18,11,4,45.06058,12.054228
AFRICO NUOVO,Fri,4.95,2.0,10,120,44,29,13,38.053759,16.144283
AGRIGENTO BASSA,Fri,1.9850746268656716,1.0,38,402,77,39,14,37.319148,13.588094
AGRIGENTO CENTRALE,Fri,2.0579710144927534,1.0,20,207,48,22,12,37.309051,13.584412
AGROPOLI CASTELLABATE,Fri,4.199608610567514,2.0,50,511,172,122,58,40.351521,15.002053
AIRASCA,Fri,4.53932584269663,4.0,46,534,335,191,22,44.928093,7.483536
ALANNO,Fri,5.665517241379311,5.0,30,290,257,102,14,42.287185,14.019595
ALANO FENER VALDOBBIADENE,Fri,1.5592417061611374,1.0,30,211,33,12,1,45.90229,11.944546
ALASSIO,Fri,4.708392603129445,4.0,70,703,368,250,68,44.007889,8.17112
ALBA ADRIATICA NERETO CONTR.,Fri,3.79136690647482,2.0,27,278,97,63,15,42.83438,13.91733
ALBACINA,Fri,2.7590579710144927,2.0,56,552,154,74,16,43.345686,12.986501
ALBANO DI LUCANIA,Fri,3.64,2.0,4,50,12,9,5,40.574707,16.021247
ALBANOVA,Fri,8.25,7.0,4,4,3,3,2,40.996117,14.128596
ALBENGA,Fri,3.9643347050754456,3.0,73,729,324,222,62,44.04722,8.221663
ALBINIA,Fri,1.179245283018868,0.0,28,318,43,17,9,42.502165,11.21134
ALBISOLA,Fri,1.7642679900744418,1.0,94,806,123,60,23,44.33469,8.512092
ALBUZZANO,Fri,5.7749077490774905,3.0,22,271,125,84,42,45.172504,9.261624
ALCAMO DIRAMAZIONE,Fri,4.136690647482014,2.0,17,139,40,24,13,37.978894,12.915916
ALFONSINE,Fri,2.6988636363636362,1.0,36,352,69,39,14,44.512364,12.039155
ALTAVILLA M.,Fri,0.15164835164835164,0.0,50,455,28,9,4,38.048392,13.554421
ALTOPASCIO,Fri,4.4578125,4.0,63,640,345,204,41,43.817418,10.672754
ALVIANO,Fri,6.84,5.0,18,25,22,12,3,42.591917,12.259583
AMBIVERE MAPELLO,Fri,3.9147869674185465,3.0,34,399,137,72,17,45.722163,9.550444
AMOROSI MELIZZANO,Fri,6.694117647058824,5.0,18,170,97,72,35,41.173509,14.470759
ANGRI,Fri,3.2176870748299318,3.0,65,735,269,118,31,40.746404,14.575366
ANGUILLARA,Fri,2.945843828715365,2.0,77,794,244,78,19,42.068133,12.304978
ANTRODOCO BORGO VELINO,Fri,2.88339222614841,2.0,32,283,80,41,18,42.415393,13.076193
ANZOLA,Fri,4.166994106090374,2.0,43,509,166,113,45,,
ARCE,Fri,1.9736842105263157,1.0,12,114,26,8,3,41.583695,13.571848
ARCORE,Fri,2.888804265041889,1.0,109,1313,365,233,84,45.623493,9.322798
ARENA PO,Fri,4.061349693251533,2.0,14,163,59,36,14,45.082065,9.360394
AROSIO,Fri,0.00408997955010225,0.0,43,489,0,0,0,,
ARQUATA SCRIVIA,Fri,1.348327566320646,1.0,78,867,189,125,43,44.692533,8.885342
ASCEA,Fri,4.627586206896551,2.0,44,435,151,102,41,40.140955,15.172626
ASCIANO,Fri,2.337962962962963,2.0,31,216,68,23,1,43.235245,11.579237
ASCIANO MONTE OLIVETO MAGGIORE,Fri,3.49,3.0,38,300,116,48,6,43.231706,11.563621
ASCOLI PICENO,Fri,-1.3169398907103824,-2.0,22,183,10,7,5,42.855474,13.587939
ASOLA,Fri,7.167202572347267,6.0,25,311,227,165,60,45.220454,10.402313
ASSEMINI,Fri,0.5491803278688525,0.0,91,854,64,40,13,39.287603,8.997936
ASSEMINI CARMINE,Fri,0.3264705882352941,0.0,35,340,25,6,1,,
ASSISI,Fri,3.7285714285714286,3.0,50,560,235,150,36,43.058921,12.585304
ATTIGLIANO,Fri,3.0099403578528827,2.0,42,503,154,79,37,42.518054,12.294761
AVIO,Fri,13.666666666666666,8.0,3,3,3,3,1,45.733892,10.955842
BAGNACAVALLO,Fri,4.828703703703703,3.0,37,432,205,128,45,44.412138,11.969398
BAGNI DI LUCCA,Fri,2.679640718562874,2.0,35,334,95,53,14,44.003447,10.551631
BAGNI DI TIVOLI,Fri,2.2519181585677748,2.0,74,782,168,82,18,41.949593,12.722208
BAGNOLI AGNANO TERME,Fri,0.041,-1.0,181,1000,55,33,14,40.819444,14.166694
BALZOLA,Fri,2.3962848297213624,1.0,27,323,70,32,4,45.173985,8.402174
BARBIANO,Fri,5.541666666666667,3.0,5,48,21,14,5,44.387263,11.878086
BARI TORRE A MARE,Fri,1.6613508442776737,1.0,112,1066,207,114,40,41.082637,16.995772
BARI VILLAGGIO DEL LAVORATORE,Fri,3.376854599406528,2.0,33,337,151,111,7,,
BASSANO DEL GRAPPA,Fri,0.670846394984326,1.0,54,638,99,39,5,45.766697,11.741525
BELLARIA,Fri,2.914027149321267,1.0,53,442,80,55,33,44.150249,12.461168
BENEVENTO,Fri,7.138888888888889,5.0,30,324,183,147,90,41.141901,14.769998
BESOZZO,Fri,2.6815642458100557,1.0,32,358,115,66,21,45.842188,8.662997
BEVILACQUA,Fri,2.6320474777448073,2.0,35,337,97,39,7,45.230145,11.398643
BIAGIONI LAGACCI,Fri,2.48993288590604,2.0,12,149,25,6,3,44.086359,10.948257
BIANZONE,Fri,2.0,1.0,5,57,6,4,1,46.179383,10.112507
BINARIO S.MARCO VECCHIO,Fri,2.0467532467532465,2.0,39,385,94,41,12,43.790336,11.267403
BITETTO PALO DEL COLLE,Fri,0.8149171270718232,1.0,35,362,21,7,0,41.041481,16.74053
BOGLIASCO,Fri,13.0,5.0,2,2,2,1,1,44.379207,9.066042
BOLLATE CENTRO,Fri,0.6355371900826446,0.0,101,1210,75,26,2,,
BOLOGNA C.LE/AV,Fri,3.122014202711427,1.0,125,1549,529,353,159,44.50626,11.342267
BOLZANO NOVARESE,Fri,1.7692307692307692,1.0,3,26,3,0,0,45.759357,8.440754
BONDENO,Fri,1.8742138364779874,0.0,18,159,27,18,7,,
BONFERRARO,Fri,1.6666666666666667,2.0,23,204,55,35,10,45.185651,11.009247
BORETTO,Fri,0.4840182648401826,0.0,25,219,14,8,2,,
BORGO A MOZZANO,Fri,4.370967741935484,3.0,33,310,144,76,19,43.977207,10.541285
BORGO S.L.RIMORELLI,Fri,8.406862745098039,7.0,25,204,188,143,45,43.953279,11.400076
BORGO VAL DI TARO,Fri,3.1533477321814254,2.0,40,463,143,88,37,44.486522,9.781489
BORGO VALSUGANA CENTRO,Fri,3.155440414507772,2.0,16,193,57,25,9,46.051182,11.453967
BORGOFRANCO,Fri,2.2333333333333334,1.0,5,60,19,8,1,45.514775,7.854612
BOSCHI S.ANNA,Fri,3.818452380952381,3.0,35,336,142,74,9,45.217328,11.362302
BOVALINO,Fri,4.654986522911051,2.0,35,371,160,115,43,38.149087,16.180584
BUONCONVENTO,Fri,0.4453125,0.0,12,128,14,5,2,43.135503,11.483773
BUSA DI VIGONZA,Fri,4.0,1.0,2,2,1,1,0,,
BUSALLA,Fri,-0.4802158273381295,-1.0,47,556,36,19,9,44.57558,8.943611
BUTTAPIETRA,Fri,4.203125,3.0,7,64,23,13,2,45.338787,10.988059
CADEO,Fri,2.235955056179775,0.0,7,89,15,8,3,44.967283,9.853181
CAGLIARI,Fri,1.076607387140903,0.0,77,731,81,48,29,39.216078,9.107984
CALCIO,Fri,43.333333333333336,36.0,3,3,3,3,3,45.532937,9.841342
CALDE`,Fri,5.07492795389049,4.0,31,347,188,120,24,45.945812,8.663157
CALTANISSETTA XIRBI,Fri,1.747228381374723,0.0,54,451,76,39,20,37.536296,14.056902
CALUSCO,Fri,6.081836327345309,5.0,40,501,349,241,55,45.684113,9.470646
CAMAIORE LIDO CAPEZZANO,Fri,10.5,9.0,2,2,2,2,1,43.912176,10.24765
CAMPO DI CARNE,Fri,1.8186813186813187,1.0,58,546,116,49,7,41.552116,12.635125
CAMPOBELLO RAVANUSA,Fri,4.348484848484849,3.0,6,66,28,16,7,37.265731,13.946251
CAMPOSAMPIERO,Fri,0.6866952789699571,0.0,104,932,73,41,9,45.568922,11.928293
CANDELA,Fri,5.448717948717949,4.0,8,78,43,32,10,41.151439,15.533163
CANDELO,Fri,1.9285714285714286,1.0,14,14,1,1,1,45.547433,8.100103
CAPALBIO,Fri,1.1235955056179776,0.0,23,267,42,18,9,42.407974,11.370982
CAPANNELLE,Fri,2.058466211085801,2.0,130,1317,290,116,20,41.830713,12.568884
CAPISTRELLO,Fri,1.6058394160583942,1.0,14,137,13,5,2,41.97051,13.399276
CARONIA,Fri,1.0756756756756756,1.0,21,185,21,10,4,38.034475,14.443761
CARRARA AVENZA,Fri,13.733333333333333,12.0,10,15,14,13,8,44.051239,10.062927
CARRUBA,Fri,14.0,11.0,3,3,2,2,2,37.694344,15.196143
CASALBORDINO POLLUTRI,Fri,14.0,14.0,1,1,1,1,1,42.193653,14.633045
CASALBUTTANO,Fri,3.7367256637168142,1.0,44,452,144,99,47,45.255398,9.962361
CASALGRANDE,Fri,1.2682926829268293,1.0,16,123,18,9,3,,
CASALMAGGIORE,Fri,3.929113924050633,3.0,33,395,170,100,30,44.993139,10.425023
CASALPUSTERLENGO,Fri,4.911798396334479,2.0,74,873,309,209,86,45.182473,9.653627
CASARSA,Fri,1.9255765199161425,1.0,92,954,188,86,24,45.953002,12.8406
CASORIA,Fri,2.0169875424688564,1.0,84,883,169,108,49,40.907762,14.29874
CASTAGNETO CARDUCCI,Fri,4.857142857142857,5.0,5,7,4,3,0,43.16816,10.56399
CASTAGNO,Fri,1.9733333333333334,1.0,12,150,21,4,3,44.012359,10.91538
CASTEL LAGOPESOLE,Fri,3.5887323943661973,2.0,35,355,102,48,19,40.787682,15.758093
CASTEL S.GIORGIO ROCCAPIEMONTE,Fri,5.0,5.0,1,1,1,0,0,40.758713,14.692352
CASTELBOLOGNESE,Fri,3.6856899488926746,2.0,109,1174,417,269,102,44.325391,11.804174
CASTELFRANCO VENETO,Fri,0.8482293423271501,1.0,179,1779,173,65,18,45.666439,11.934315
CASTELLAMMARE DI STABIA,Fri,0.6,0.0,7,15,1,1,0,40.701398,14.483737
CASTELLANETA MARINA,Fri,3.78,1.0,5,50,14,11,6,40.481111,16.965434
CASTELLO DI GODEGO,Fri,0.942381562099872,1.0,64,781,127,44,6,45.688082,11.87759
CASTELLUCCHIO,Fri,5.122448979591836,3.0,27,343,154,109,52,45.144293,10.64749
CASTELVECCHIO PASCOLI,Fri,3.2857142857142856,3.0,15,126,44,19,2,44.09007,10.455061
CASTIGLIONCELLO,Fri,5.142857142857143,4.0,10,14,8,4,2,43.404619,10.414354
CASTIGLIONE COSENTINO,Fri,0.7856115107913669,1.0,62,695,54,33,8,39.35542,16.244388
CASTRONNO,Fri,3.0190703218116806,2.0,71,839,213,116,47,45.74524,8.810302
CATANIA OGNINA,Fri,23.0,16.0,2,2,2,2,2,,
CATANZARO,Fri,3.7485380116959064,3.0,35,342,149,75,8,38.896222,16.599081
CEGGIA,Fri,20.0,4.0,2,2,2,1,1,45.688394,12.633987
CENTALLO,Fri,2.4521739130434783,1.0,55,460,98,43,16,44.496223,7.591035
CEREA,Fri,2.784313725490196,2.0,23,204,44,16,5,45.196556,11.213921
CERIALE,Fri,9.0,1.0,2,2,1,1,1,44.098922,8.234216
CERIGNOLA,Fri,3.178649237472767,2.0,53,459,155,91,23,41.315664,15.897298
CERTALDO,Fri,3.2635983263598325,2.0,68,717,251,128,28,43.547124,11.037711
CESATE,Fri,0.5256198347107438,0.0,101,1210,55,14,2,,
CESENATICO,Fri,3.4514672686230248,1.0,53,443,98,65,33,44.20065,12.391186
CHATILLON SAINT VINCENT,Fri,2.2986725663716814,2.0,70,452,113,52,20,45.7434,7.619309
CHIARI,Fri,19.428571428571427,10.0,7,7,6,6,3,45.54011,9.926474
CHIETI-MAD.D.P.,Fri,5.8053097345132745,4.0,35,339,241,118,22,,
CIAMPINO,Fri,1.11003861003861,1.0,213,2072,293,109,30,41.804442,12.599546
CISTERNA DI LATINA,Fri,1.8183118741058655,1.0,77,699,136,75,23,41.586511,12.827538
CITTADELLA,Fri,0.11603053435114503,0.0,61,655,50,23,8,45.643868,11.789857
CIVITAVECCHIA,Fri,2.4486301369863015,1.0,77,876,201,128,59,42.088287,11.79815
CIVITELLA ROVETO,Fri,1.7456140350877194,1.0,12,114,21,11,2,41.916419,13.424882
CLASSE,Fri,5.5863874345549736,2.0,20,191,66,40,18,44.382033,12.234995
COCCAGLIO,Fri,3.1315789473684212,1.0,41,494,139,78,24,45.560971,9.977648
COCULLO,Fri,1.0,-1.0,10,44,6,5,4,42.040723,13.776636
CODIGORO,Fri,3.962962962962963,4.0,9,81,42,12,2,,
CODISOTTO,Fri,0.0,0.0,1,1,0,0,0,,
COLICO,Fri,3.1206896551724137,2.0,68,812,207,127,50,46.138019,9.375222
COLLECCHIO,Fri,3.2990867579908674,2.0,38,438,132,76,29,44.755339,10.21228
COLLEGNO,Fri,1.2206521739130434,0.0,96,920,133,83,23,45.078854,7.574131
COLLI DI MONTE BOVE,Fri,3.5161290322580645,2.0,6,62,17,6,2,42.097103,13.15057
CONDOFURI,Fri,2.8091603053435112,2.0,11,131,37,18,3,37.92761,15.874952
CONEGLIANO,Fri,0.9188134270101483,0.0,131,1281,169,89,30,45.884706,12.298909
CONTIGLIANO,Fri,3.82312925170068,3.0,34,294,117,60,12,42.412072,12.779144
CORBETTA S. STEFANO,Fri,6.904761904761905,7.0,19,21,17,15,3,45.480829,8.917457
CORIGLIANO CALABRO,Fri,4.654545454545454,3.0,24,275,128,83,35,39.628223,16.514949
COSENZA,Fri,0.5086206896551724,-1.0,31,348,37,21,4,39.318386,16.260955
COSSATO,Fri,1.165016501650165,1.0,44,303,58,28,3,45.564216,8.175964
COTIGNOLA,Fri,5.375,3.0,2,24,9,2,2,44.387077,11.938037
CUCCIAGO,Fri,4.666666666666667,4.0,8,9,5,3,1,45.740813,9.082205
CUPONE,Fri,1.0,0.0,2,2,0,0,0,41.964628,13.377481
CUPRAMARITTIMA,Fri,3.297592997811816,2.0,47,457,137,79,28,43.02349,13.860812
CUSANO,Fri,11.0,11.0,1,1,1,1,1,45.945427,12.757485
CUTRO,Fri,11.04,6.0,2,25,21,14,8,39.02593,16.963809
DITTAINO,Fri,1.8407079646017699,-1.0,21,113,19,14,7,37.564605,14.462429
DONNAFUGATA,Fri,3.7096774193548385,2.0,9,93,29,24,14,36.882055,14.568968
DUEVILLE,Fri,2.1065375302663436,1.0,35,413,60,23,5,45.635,11.546108
ERBA,Fri,0.0024630541871921183,0.0,36,406,0,0,0,,
FALCIANO MONDRAGONE CAR.,Fri,4.225352112676056,2.0,57,497,170,122,55,41.123525,13.971792
FANO,Fri,2.5207496653279784,1.0,65,747,202,117,39,43.842977,13.02478
FANZOLO,Fri,2.0,1.0,47,325,49,14,5,45.708253,11.992069
FELIZZANO,Fri,2.005714285714286,2.0,19,175,33,11,2,44.893367,8.437155
FEROLETO ANTICA PIANOPOLI,Fri,5.666666666666667,7.0,2,3,2,2,0,38.938255,16.36622
FERRANDINA,Fri,3.544776119402985,2.0,11,134,40,29,15,40.516566,16.475276
FIESOLE CALDINE,Fri,2.160416666666667,2.0,46,480,101,52,18,43.833697,11.266047
FIGLINE VALDARNO,Fri,3.2063882063882065,2.0,117,1221,396,233,65,43.621596,11.473652
FINALE LIGURE MARINA,Fri,3.653225806451613,2.0,76,744,287,184,51,44.169116,8.34033
FIORENZUOLA,Fri,2.879474940334129,1.0,71,838,203,134,61,44.928716,9.917403
FISCIANO,Fri,1.7701149425287357,1.0,27,261,51,28,6,40.759095,14.77486
FOLIGNO,Fri,2.441860465116279,1.0,63,688,167,109,51,42.954261,12.711096
FOLLONICA,Fri,2.143911439114391,1.0,50,542,125,77,30,42.926687,10.755775
FORLI`,Fri,3.280330882352941,1.0,93,1088,329,245,122,44.22413,12.054871
FORMIGINE,Fri,2.283333333333333,2.0,20,180,33,10,0,,
FOSSACESIA - TORINO DI SANGRO,Fri,1.6953125,1.0,22,256,53,33,8,42.237648,14.525456
FRANCAVILLA FONTANA,Fri,2.792207792207792,1.0,20,231,50,34,17,40.523145,17.584714
FRANCIA,Fri,0.6912242686890574,0.0,110,923,41,15,7,38.155233,13.321938
FRANCIOSA,Fri,4.142857142857143,4.0,3,35,19,13,1,,
FRATTE CENTRO,Fri,35.0,34.0,2,2,2,2,2,45.585849,11.906637
GAIBANELLA,Fri,4.05,3.0,10,100,34,14,7,44.778116,11.671325
GALATI,Fri,1.865979381443299,1.0,26,291,54,33,12,38.104511,15.505313
GAMBOLO`REMONDO`,Fri,4.224832214765101,3.0,25,298,122,43,11,45.23587,8.79757
GARBAGNA,Fri,3.376,2.0,28,250,70,33,12,45.385552,8.66627
GAVORRANO,Fri,2.10752688172043,1.0,17,186,42,19,9,42.947959,10.9338
GAZZO PIEVE S. GIACOMO,Fri,5.33,3.0,8,100,50,35,12,45.137151,10.189922
GENOVA ACQUASANTA,Fri,5.489655172413793,4.0,23,290,146,109,46,44.458757,8.773197
GENOVA CORNIGLIANO,Fri,14.75,12.0,11,12,12,10,8,44.414752,8.865035
GENOVA P. PRINCIPE SOTTERRANEA,Fri,-0.7875722543352601,-2.0,69,692,56,30,13,44.414803,8.918041
GENOVA QUARTO DEI MILLE,Fri,2.690950920245399,1.0,134,1304,323,205,57,44.388607,8.99597
GENOVA SAMPIERDARENA,Fri,1.1599848714069592,1.0,247,2644,367,207,82,44.413102,8.887271
GIAROLE,Fri,2.0501672240802677,2.0,25,299,58,23,2,45.056125,8.5609
GIUGLIANO QUALIANO,Fri,2.2073643410852712,2.0,45,516,70,28,7,40.935018,14.10378
GIULIANOVA,Fri,2.304783092324805,1.0,82,899,199,131,41,42.751673,13.965743
GLORIE,Fri,2.1,2.0,5,50,11,5,0,44.483341,12.075736
GRAMMICHELE,Fri,1.2682926829268293,-1.0,8,41,5,5,4,37.209336,14.641256
GRANAIOLO,Fri,3.9040697674418605,4.0,32,344,182,88,16,43.652244,10.945223
GRICIGNANO,Fri,2.5440414507772022,1.0,34,386,81,49,21,40.998742,14.241657
GRISIGNANO DI ZOCCO,Fri,2.552166934189406,2.0,62,623,175,86,25,45.48638,11.710762
GRUMELLO DEL MONTE,Fri,3.298624754420432,2.0,44,509,145,70,27,45.634102,9.862767
IMOLA,Fri,4.006928406466512,2.0,122,1299,490,303,113,44.359418,11.718723
IMPERIA,Fri,3.0280112044817926,2.0,70,714,255,145,40,43.88051,8.019182
INDUNO OLONA,Fri,3.2114285714285713,2.0,85,1050,300,130,40,45.846432,8.838357
JOPPOLO,Fri,0.5402298850574713,0.0,16,174,17,12,5,38.580318,15.897025
LANZARA FIMIANI,Fri,5.0,5.0,1,1,1,0,0,40.769685,14.68115
LASTRA A SIGNA,Fri,9.291666666666666,3.0,18,24,11,10,5,,
LEONFORTE-PIRATO,Fri,4.2727272727272725,1.0,15,110,28,17,7,37.606305,14.376063
LEVATA,Fri,4.260752688172043,2.0,31,372,138,79,30,,
LEVICO,Fri,4.144329896907217,3.0,16,194,87,43,8,46.005729,11.30493
LICATA,Fri,5.3538461538461535,4.0,6,65,38,24,10,37.106024,13.938114
LIVORNO FERRARIS,Fri,1.9078212290502794,1.0,36,358,80,46,18,45.283402,8.073493
LODI,Fri,3.113438045375218,1.0,153,1719,528,327,137,45.308966,9.497585
LORETO,Fri,2.653796653796654,1.0,76,777,186,105,31,43.448376,13.620455
LUCCA,Fri,2.3666666666666667,2.0,115,1110,326,166,41,43.837186,10.506069
LUGO,Fri,5.422396856581533,3.0,42,509,245,151,63,44.414106,11.914723
L`AQUILA,Fri,1.3554006968641115,1.0,30,287,51,23,12,42.351055,13.384959
MACCARESE,Fri,1.5347150259067357,1.0,86,965,143,69,18,41.879372,12.23695
MACERATA,Fri,0.7556270096463023,0.0,35,311,43,18,7,43.293094,13.455172
MADDALONI INFERIORE,Fri,21.5,15.0,4,4,4,4,4,41.035954,14.380504
MAGENTA,Fri,2.7257824143070044,2.0,127,1342,377,169,49,45.468204,8.880633
MAGLIANA,Fri,2.4784313725490197,2.0,127,1530,360,123,25,41.834235,12.431017
MALPENSA AEROPORTO T1,Fri,0.0029411764705882353,0.0,39,340,0,0,0,,
MANAROLA,Fri,9.571428571428571,9.0,6,7,7,6,2,44.109904,9.727401
MANDATORICCIO CAMPANA,Fri,4.254716981132075,3.0,19,212,104,64,18,39.525442,16.893125
MANDELA-SAMBUCI,Fri,2.1580459770114944,1.0,36,348,78,45,13,42.016212,12.921976
MANDELLO DEL LARIO,Fri,3.8963414634146343,2.0,54,656,202,119,49,45.915208,9.322061
MANOPPELLO,Fri,1.1382978723404256,1.0,31,282,33,15,8,42.305848,14.061057
MANZIANA-CANALE MONTERANO,Fri,3.403930131004367,3.0,47,458,176,80,19,42.128246,12.134934
MARANO,Fri,3.6341463414634148,3.0,35,410,161,58,14,45.706864,11.4246
MARATEA,Fri,4.127314814814815,1.0,45,432,133,99,41,39.995028,15.70975
MARCELLINA VERBICARO ORSOMARSO,Fri,2.8701923076923075,1.0,20,208,56,37,13,39.766974,15.822665
MARCELLINA-PALOMBARA,Fri,1.882882882882883,2.0,54,555,114,46,8,41.999609,12.79134
MARIANO COMENSE,Fri,0.005988023952095809,0.0,44,501,0,0,0,45.693622,9.18147
MARINA DI MARATEA,Fri,9.0,9.0,1,1,1,1,0,39.959512,15.735953
MARSALA,Fri,1.9333333333333333,1.0,31,300,60,31,17,37.793514,12.443174
MARZABOTTO,Fri,1.9903691813804174,2.0,56,623,100,25,7,44.341237,11.207351
MASSAFRA,Fri,19.0,19.0,1,1,1,1,1,40.582968,17.107899
MEDE,Fri,5.277580071174377,4.0,26,281,165,93,17,45.095009,8.742594
MEDESANO,Fri,2.9166666666666665,2.0,2,24,6,3,0,44.749265,10.140335
MEINA,Fri,4.242105263157895,3.0,17,190,86,66,25,45.794389,8.535452
MELE,Fri,5.930795847750865,4.0,23,289,149,107,48,44.472797,8.733953
MELITO DI PORTO SALVO,Fri,1.793040293040293,0.0,50,546,110,75,33,37.916732,15.780816
MELZO,Fri,2.2728070175438595,1.0,102,1140,285,193,58,45.502191,9.420653
MEOLO,Fri,12.666666666666666,11.0,3,3,3,3,3,45.61319,12.453969
MERCATELLO,Fri,0.2619047619047619,0.0,52,252,3,1,0,40.606491,15.38979
MERCATO SAN SEVERINO,Fri,1.3525179856115108,1.0,16,139,30,13,5,40.783095,14.759749
MESSINA CENTRALE,Fri,1.9469496021220158,0.0,80,754,108,75,45,38.184975,15.561278
MIGLIARINO,Fri,1.124223602484472,1.0,18,161,10,3,1,,
MILANO BRUZZANO,Fri,1.5880149812734083,1.0,28,267,42,15,6,,
MILANO CENTRALE,Fri,4.319414893617021,2.0,336,3760,1429,947,448,45.486347,9.204528
MILANO LAMBRATE,Fri,4.12981455064194,2.0,374,4206,1486,957,381,45.484933,9.237333
MILANO LANCETTI,Fri,2.3885578069129916,1.0,344,3356,885,494,157,45.492632,9.175832
MILANO PORTA GARIBALDI,Fri,2.5174708818635607,1.0,263,3005,884,495,182,45.484917,9.187683
MILANO PORTA VITTORIA,Fri,2.2142431466030987,1.0,344,3356,922,530,160,45.459579,9.21813
MILANO VENEZIA,Fri,4.218116805721096,3.0,344,3356,1470,832,245,45.471121,9.201889
MODANE,Fri,4.642857142857143,0.0,4,14,6,5,3,,
MOLA DI BARI,Fri,2.3512396694214877,1.0,83,726,168,94,38,41.057227,17.080919
MOLTENO,Fri,2.7336601307189543,2.0,51,612,204,99,18,45.780939,9.301683
MOMO,Fri,2.71,2.0,20,200,53,24,7,45.574646,8.55689
MONASTERACE STILO,Fri,4.918495297805642,4.0,31,319,162,121,39,38.437591,16.574444
MONGARDINO,Fri,1.5344827586206897,1.0,16,174,16,8,1,44.84161,8.207411
MONTALE AGLIANA,Fri,10.0,10.0,1,1,1,1,0,43.912924,11.008309
MONTALTO DI CASTRO,Fri,0.33676975945017185,-1.0,25,291,38,16,6,42.334623,11.595085
MONTANARO,Fri,2.0869565217391304,2.0,34,345,77,33,12,45.232674,7.858331
MONTECATINI CENTRO,Fri,7.409160305343511,6.0,66,655,516,402,130,43.881216,10.77081
MONTEFIASCONE,Fri,2.574074074074074,1.0,18,216,37,24,14,42.520268,12.050448
MONTELUPO CAPRAIA,Fri,8.714285714285714,7.0,12,14,12,10,4,43.733357,11.018997
MONTEMARCIANO,Fri,3.3322683706070286,2.0,27,313,100,77,31,43.651397,13.346478
MONTERONI D`ARBIA,Fri,-0.10112359550561797,0.0,25,267,23,13,2,43.230036,11.419662
MONTESANTO,Fri,3.433846153846154,2.0,33,325,70,40,21,44.732964,11.73652
MONTI TELTI,Fri,1.3904761904761904,2.0,19,105,18,10,3,40.829632,9.322814
MONTICELLO D`ALBA,Fri,0.7675675675675676,0.0,19,185,9,5,1,44.703736,7.965002
MONZA,Fri,3.2400914634146343,2.0,363,3936,1223,719,262,45.577789,9.273253
MORTARA,Fri,3.220779220779221,2.0,80,616,212,127,37,45.252171,8.731639
MOSCIANO S. ANGELO,Fri,5.810457516339869,7.0,42,459,241,237,118,42.710309,13.908563
MOTTA DI LIVENZA,Fri,0.928030303030303,0.0,22,264,21,15,7,45.779114,12.607118
MOTTA S. DAMIANO,Fri,4.387453874538745,2.0,22,271,104,69,36,45.178344,9.219866
MURATELLA,Fri,2.842452208305867,2.0,126,1517,376,124,26,41.826182,12.412696
NAPOLI MERGELLINA,Fri,7.2,5.0,10,10,7,5,2,40.831531,14.218662
NAVACCHIO,Fri,2.911764705882353,2.0,50,510,169,83,17,43.685941,10.486806
NERA MONTORO,Fri,1.0,1.0,1,1,0,0,0,42.497855,12.476587
NIBBIA,Fri,3.125,3.0,4,40,16,5,0,45.481363,8.557993
NICHELINO,Fri,4.6716417910447765,4.0,46,536,302,164,24,44.99132,7.642068
NIZZA DI SICILIA,Fri,4.263940520446097,3.0,28,269,110,67,20,37.996937,15.412334
NOCERA SUPERIORE,Fri,2.307443365695793,2.0,82,927,196,80,22,40.742597,14.672398
NOVATE-MEZZOLA,Fri,0.7712082262210797,0.0,35,389,18,10,2,46.216595,9.446573
NUS,Fri,2.8871681415929205,2.0,70,452,129,54,14,45.738786,7.4712
OGGIONO,Fri,2.8525252525252527,2.0,41,495,140,72,17,45.788993,9.33748
ORA,Fri,9.0,9.0,5,6,5,4,2,46.36092,11.296781
ORBETELLO,Fri,1.7766990291262137,1.0,27,309,63,31,14,42.450615,11.248972
ORDONA,Fri,4.148514851485149,2.0,9,101,42,25,8,41.315006,15.620567
ORICOLA-PERETO,Fri,2.2348993288590604,1.0,14,149,26,11,2,42.067835,13.044214
ORTE,Fri,2.718137254901961,1.0,108,1224,334,199,90,42.43728,12.408986
OSNAGO,Fri,3.535,1.0,68,800,235,139,51,45.678532,9.386995
OSPITALETTO TRAVAGLIATO,Fri,2.810012836970475,1.0,64,779,172,97,39,45.546042,10.074363
OSTERIA NUOVA,Fri,3.1127633209417596,2.0,78,807,221,143,51,44.586613,11.236525
OULX CESANA CLAVIERE SESTRIERE,Fri,1.5262008733624455,1.0,57,458,59,37,19,45.038789,6.831432
OZZANO DELL'EMILIA,Fri,5.774696707105719,4.0,56,577,366,219,61,44.450797,11.487297
PABILLONIS,Fri,7.0,7.0,1,1,1,1,0,39.610878,8.741013
PADERNO ROBBIATE,Fri,6.491017964071856,6.0,40,501,356,255,74,45.678307,9.439202
PALAGIANO CHIATONA,Fri,1.9682539682539681,-1.0,5,63,16,11,7,40.516998,17.059217
PALAZZOLO SULL`OGLIO,Fri,4.083657587548638,2.0,46,514,200,112,31,45.601486,9.896235
PALERMO NOTARBARTOLO,Fri,-0.9204284621270085,-1.0,142,1307,24,13,8,38.132261,13.341572
PALIZZI,Fri,3.0482758620689654,2.0,13,145,39,22,6,37.91881,15.986405
PALMI,Fri,1.6424361493123771,1.0,48,509,84,51,18,38.364914,15.84438
PAOLA,Fri,1.6992561105207227,-1.0,90,941,171,127,73,39.359442,16.033093
PARONA LOMELLINA,Fri,3.0430711610486894,2.0,54,534,178,100,34,45.280107,8.780315
PASSIGNANO SUL TRASIMENO,Fri,4.002985074626865,3.0,29,335,130,83,21,43.188324,12.133128
PAVIA,Fri,3.966804979253112,3.0,184,2169,897,545,179,45.188843,9.144674
PAVIA PORTA GARIBALDI,Fri,6.645756457564576,4.0,22,271,156,97,37,45.183996,9.167331
PERAROLO DI CADORE,Fri,1.7569444444444444,1.0,23,144,29,9,0,46.386277,12.352493
PIAZZA AL SERCHIO,Fri,0.8588588588588588,0.0,35,333,45,26,7,44.182515,10.296615
PIEDIMULERA,Fri,3.3292682926829267,2.0,17,164,43,20,4,46.024348,8.261237
PIETRABISSARA,Fri,10.0,10.0,1,1,1,1,0,44.658637,8.926969
PIGNATARO MAGGIORE,Fri,27.0,27.0,1,1,1,1,1,41.17384,14.160545
PIOMBINO,Fri,-0.32432432432432434,0.0,17,74,11,2,1,42.924854,10.530959
PIOPPE DI SALVARO,Fri,2.0714285714285716,2.0,48,532,83,27,7,44.310761,11.161785
PISA SAN ROSSORE,Fri,2.9595490716180373,2.0,158,1508,442,236,65,43.723702,10.387363
PISTICCI,Fri,3.96,2.0,6,75,26,19,9,40.420848,16.552181
PISTOIA,Fri,1.5163398692810457,1.0,104,1071,203,119,41,43.926804,10.914624
POGGIO - CAREGGINE - VAGLI,Fri,3.2531645569620253,2.0,26,237,71,29,6,44.148541,10.350626
POLICORO TURSI,Fri,8.5,5.0,4,48,32,24,13,40.207304,16.688819
POLIGNANO A MARE,Fri,2.7352555701179555,1.0,86,763,183,110,42,40.990926,17.218676
POLLINA,Fri,0.6261682242990654,-1.0,23,214,25,16,11,38.018,14.175943
POMPEI,Fri,2.1308290155440415,1.0,68,772,173,75,26,40.745918,14.501109
PONTE A MORIANO,Fri,3.872670807453416,3.0,34,322,133,62,17,43.908371,10.534264
PONTE DI NONA,Fri,0.46463654223968565,-1.0,93,1018,130,55,15,42.061563,13.581585
PONTE D`ADDA,Fri,6.074303405572755,4.0,27,323,178,118,48,45.184352,9.790737
PONTECCHIO MARCONI,Fri,2.111111111111111,2.0,5,63,16,5,0,44.42294,11.26919
PONTELAGOSCURO,Fri,2.8016528925619837,1.0,10,121,37,25,4,44.873216,11.612526
PONTI,Fri,4.084507042253521,4.0,23,213,111,60,7,44.629979,8.365262
PORDENONE,Fri,1.0234741784037558,-1.0,83,852,119,77,25,45.956281,12.654126
PORTO D`ASCOLI,Fri,3.448657187993681,2.0,69,633,200,104,31,42.912792,13.896813
PORTO S. ELPIDIO,Fri,3.6228070175438596,2.0,47,456,144,94,32,43.256855,13.760749
PORTO VALTRAVAGLIA,Fri,3.9245810055865924,3.0,32,358,154,97,16,45.958219,8.674141
PORTOMAGGIORE,Fri,2.5482954545454546,1.0,36,352,65,34,17,44.696699,11.799785
POSTIOMA,Fri,2.3164983164983166,2.0,41,297,41,11,1,45.715862,12.148248
PRATO CENTRALE,Fri,0.7821565407772304,-1.0,176,1827,260,164,74,43.878737,11.109252
PRATOLA PELIGNA SUPERIORE,Fri,3.814432989690722,6.0,29,291,155,148,9,42.080415,13.87223
PRIMOLANO,Fri,3.5497076023391814,3.0,14,171,60,26,6,45.965315,11.700899
PRIOLO MELILLI,Fri,1.7973856209150327,1.0,19,153,27,17,7,37.157951,15.197038
QUARTESANA,Fri,-0.0440251572327044,0.0,18,159,10,5,2,,
RACCONIGI,Fri,2.281609195402299,1.0,58,522,86,47,17,44.771179,7.685681
RAGUSA,Fri,2.526627218934911,1.0,16,169,49,34,17,36.91927,14.725677
RAPALLO,Fri,8.851851851851851,6.0,20,27,20,14,9,44.351398,9.231282
REGGIO DI CALABRIA PELLARO,Fri,1.4032586558044806,1.0,41,491,67,36,9,38.02561,15.650064
REGGIO MEDIOPADANA,Fri,1.53475935828877,1.0,26,187,23,11,3,,
REMEDELLO SOPRA,Fri,6.62379421221865,5.0,25,311,203,147,51,45.27848,10.379211
RICCIONE,Fri,2.354330708661417,1.0,67,762,174,124,54,43.999218,12.658549
RIGNANO SULL`ARNO REGGELLO,Fri,2.1707920792079207,1.0,82,808,203,114,33,43.720834,11.452383
RIGOLI,Fri,1.6102941176470589,1.0,15,136,30,12,2,43.789681,10.419663
RIMINIFIERA,Fri,3.891304347826087,3.0,46,46,14,9,2,,
ROCCA D`EVANDRO,Fri,4.4147286821705425,3.0,27,258,105,62,23,41.438861,13.911338
ROCCA RAVINDOLA,Fri,2.6533333333333333,1.0,10,75,23,12,5,41.521035,14.122965
ROCCAVIONE,Fri,2.0606060606060606,1.0,36,264,30,11,2,44.314445,7.485361
ROCCHETTA TANARO CERRO,Fri,1.4409937888198758,1.0,17,161,20,9,2,44.875574,8.351402
RODALLO,Fri,1.9395770392749245,1.0,31,331,58,33,11,45.278714,7.878025
ROMA AURELIA,Fri,1.3342579750346741,1.0,64,721,115,49,16,41.88344,12.395271
ROMA MONTE MARIO,Fri,1.7277386290839205,1.0,147,1561,189,78,30,41.939088,12.421732
ROMA NOMENTANA L.L.,Fri,1.2751961375980687,1.0,136,1657,200,98,28,41.932935,12.523628
ROMA S.FILIPPO NERI,Fri,1.6860986547085202,1.0,147,1561,224,84,28,41.950262,12.412414
ROMA S.PIETRO,Fri,0.9973172367538564,0.0,272,2982,368,152,60,41.896143,12.454497
ROMA TERMINI,Fri,2.0450928381962865,0.0,515,5655,1165,726,364,41.900636,12.502026
ROMANORE,Fri,4.119791666666667,2.0,32,384,113,73,28,45.063834,10.750997
ROSETO DEGLI ABRUZZI,Fri,2.980392156862745,2.0,67,714,216,132,31,42.677852,14.01535
ROVIGO,Fri,0.049019607843137254,-1.0,71,816,129,89,38,45.076993,11.780892
RUBIERA,Fri,3.7677824267782425,2.0,40,478,144,88,34,44.65618,10.780252
RUDALZA,Fri,1.3225806451612903,1.0,12,124,2,1,0,40.994082,9.531214
S. CASSIANO VALCHIAVENNA,Fri,1.4251336898395721,1.0,32,374,68,16,3,46.275438,9.397419
S. EUROSIA,Fri,1.6684073107049608,1.0,46,383,37,15,7,41.675927,12.755105
S. GIOVANNI IN CROCE,Fri,4.734848484848484,3.0,33,396,196,131,43,45.075783,10.377527
S. GIULIANO PIACENTINO,Fri,3.482142857142857,2.0,17,168,52,25,9,45.070627,9.985919
S. MARIA DELLE MOLE,Fri,4.221453287197232,4.0,62,578,308,151,18,41.774417,12.606225
S. PAOLO SOLBRITO,Fri,1.7098445595854923,1.0,31,386,53,23,3,44.951753,7.975779
S. PIETRO BERBENNO,Fri,3.147286821705426,2.0,21,258,91,43,17,46.161347,9.740491
S. ZENO FOLZANO,Fri,3.8038067349926794,2.0,55,683,175,99,49,45.491552,10.211683
S.ANTIMO S.ARPINO,Fri,12.0,12.0,1,1,1,1,1,40.949188,14.247415
S.CATERINA DELL`JONIO,Fri,4.360655737704918,5.0,6,61,36,26,7,38.530452,16.571093
S.FELICE SP,Fri,2.7831474597273855,1.0,78,807,230,147,50,44.834527,11.140243
S.GIORGIO P.,Fri,3.5172413793103448,2.0,50,522,163,109,43,44.646641,11.37901
S.GIULIANO PIEMONTE,Fri,1.8255813953488371,1.0,18,172,30,11,4,44.890543,8.760933
S.LIBERATO,Fri,2.0,2.0,1,1,0,0,0,42.478853,12.443006
S.LORENZO MAGGIORE,Fri,4.121951219512195,2.0,14,123,44,29,17,41.219748,14.648419
S.LUCIDO MARINA,Fri,1.1176470588235294,2.0,4,51,5,1,1,39.313203,16.045546
S.MARIA CAPUA VETERE,Fri,4.0889929742388755,2.0,44,427,157,85,37,41.07353,14.254081
S.MARTINO DI LUPARI,Fri,6.0,6.0,1,1,1,1,0,45.655928,11.857227
S.NAZARIO,Fri,3.1228070175438596,2.0,14,171,39,11,5,45.838117,11.691321
S.PATRIZIO,Fri,6.708333333333333,5.0,4,48,27,18,7,,
S.PIERO A SIEVE,Fri,1.9521829521829521,1.0,47,481,80,50,15,43.958317,11.322742
S.ROMANO MONTOPOLI S.CROCE,Fri,2.971311475409836,2.0,79,732,206,110,32,43.690575,10.760152
SAGRADO,Fri,1.9745916515426498,1.0,62,551,94,48,10,45.872629,13.484004
SALBERTRAND,Fri,2.0368663594470044,1.0,55,434,64,35,14,45.073478,6.887428
SALERNO IRNO,Fri,2.3333333333333335,1.0,2,3,1,1,0,,
SALONE,Fri,0.6935064935064935,0.0,35,385,45,25,4,41.915253,12.636215
SAMASSI SERRENTI,Fri,0.41116751269035534,-1.0,45,394,32,15,4,39.483075,8.899035
SAMOGGIA,Fri,4.131465517241379,2.0,39,464,156,98,43,44.567307,11.146221
SAN BENEDETTO SAMBRO-CAST.PEPOLI,Fri,1.7292929292929293,1.0,49,495,89,43,13,44.22866,11.19226
SAN BONIFACIO,Fri,3.305521472392638,2.0,81,815,271,152,57,45.40276,11.27406
SAN GIORGIO,Fri,2.796875,1.0,26,256,65,38,8,38.173967,14.94414
SAN MARCO D`ALUNZIO T.,Fri,2.4082397003745317,1.0,27,267,55,25,8,38.094202,14.675909
SAN MOMME`,Fri,1.9733333333333334,2.0,12,150,18,3,3,44.027999,10.914798
SANGUINETTO,Fri,1.5931372549019607,1.0,23,204,31,10,5,45.188811,11.152467
SANNAZZARO,Fri,4.819787985865724,3.0,26,283,134,69,17,45.10554,8.905149
SANTE MARIE,Fri,1.4615384615384615,1.0,1,13,1,1,0,42.096993,13.21696
SANTHIA`,Fri,1.9990467111534795,1.0,101,1049,220,114,40,45.363726,8.180093
SANTUARIO,Fri,0.7792207792207793,1.0,10,77,2,0,0,44.34607,8.435756
SARONNO,Fri,0.027183342972816656,0.0,344,3458,64,19,3,45.625309,9.030839
SAVIGLIANO,Fri,2.8623265741728923,1.0,98,937,203,112,42,44.651337,7.663748
SAVIGNANO SUL RUBICONE,Fri,3.6030368763557483,2.0,39,461,142,84,21,44.095191,12.40421
SCURCOLA MARSICANA,Fri,1.3061224489795917,-1.0,5,49,5,3,2,42.053136,13.344374
SECUGNAGO,Fri,3.831140350877193,1.0,38,456,136,83,40,45.223253,9.58684
SERENELLA,Fri,2.953271028037383,3.0,31,321,93,32,2,,
SERRA S.QUIRICO,Fri,1.6876790830945558,1.0,32,349,72,25,7,43.444879,13.027408
SICIGNANO DEGLI ALBURNI,Fri,4.465648854961832,2.0,12,131,55,43,15,40.605454,15.290904
SIPICCIANO S.NICOLA,Fri,0.875,0.0,4,48,8,1,0,,
SIRACUSA,Fri,3.040160642570281,1.0,31,249,72,51,32,37.068906,15.280896
SOLAROLO,Fri,4.937777777777778,3.0,47,450,214,129,48,44.356425,11.849183
SOLERO,Fri,1.7592592592592593,1.0,17,162,31,9,2,44.915886,8.51043
SOLIGNANO,Fri,14.9,9.0,8,10,8,7,5,44.614024,9.98014
SPARANISE,Fri,2.954233409610984,1.0,46,437,113,62,27,41.185707,14.092954
SPIGNO,Fri,4.366197183098592,4.0,23,213,127,75,7,44.539437,8.317924
SPINEA,Fri,1.2325285895806861,1.0,64,787,98,35,9,45.491568,12.177168
SPOLETO,Fri,3.1682785299806575,1.0,47,517,142,91,46,42.748121,12.736142
STANGHELLA,Fri,3.6020408163265305,3.0,27,294,116,62,14,45.13209,11.749094
STRONGOLI,Fri,4.308411214953271,4.0,19,214,118,70,13,39.228139,17.108256
SUNO,Fri,4.054054054054054,1.0,7,74,24,17,6,45.620435,8.519344
SUZZARA,Fri,3.163132137030995,2.0,52,613,165,90,33,44.994432,10.756138
TERAMO,Fri,1.3608695652173912,1.0,22,230,21,10,4,42.660551,13.715882
TERLANO-ANDRIANO,Fri,3.347985347985348,3.0,49,546,236,92,2,46.528517,11.248394
TERME VIGLIATORE,Fri,6.0,6.0,1,1,1,1,0,38.133588,15.164396
TERNI,Fri,1.0724637681159421,0.0,54,483,101,54,16,42.570768,12.651091
TERONTOLA CORTONA,Fri,4.283428571428572,3.0,81,875,366,214,78,43.210263,12.007906
TOR VERGATA,Fri,3.1349072512647553,2.0,58,593,166,61,15,41.823224,12.666162
TORA PRESENZANO,Fri,4.6692307692307695,3.0,27,260,115,53,21,41.358861,14.04514
TORANO LATTARICO,Fri,0.8341708542713567,0.0,16,199,25,10,8,39.49455,16.210509
TORREBERETTI,Fri,3.206463195691203,2.0,56,557,196,84,28,45.060533,8.660431
TORRICOLA,Fri,1.649932157394844,1.0,73,737,160,77,13,41.809538,12.557716
TRANI,Fri,3.5741475019825537,2.0,122,1261,444,280,93,41.272693,16.417646
TREPUZZI,Fri,2.0,2.0,1,1,0,0,0,40.40964,18.076902
TRESENDA-APRICA-TEGLIO,Fri,2.8607594936708862,1.0,27,316,63,45,33,46.162082,10.083754
TRIESTE CENTRALE,Fri,1.0923076923076922,0.0,76,780,109,65,30,45.657456,13.771873
TRINITAPOLI S.FERDIN. DI P.,Fri,3.3411016949152543,2.0,54,472,163,98,30,41.349677,16.090839
TRIUGGIO-PONTE ALBIATE,Fri,1.7917525773195877,1.0,40,485,130,64,12,45.658956,9.266961
