stop_name,avg_arrival_delay,median_arrival_delay,count_trains,count_stops,count_3m_delay,count_5m_delay,count_10m_delay,stop_id,stop_name_short,stop_lat,stop_lon,stop_id_region
ABBASANTA,1.251249107780157,0.0,29,1403,205.0,131.0,79.0,S12873,Abbasanta,40.128801,8.817733,20.0
ABBIATEGRASSO,2.9788090128755367,2.0,57,3736,1105.0,596.0,209.0,S01062,Abbiategrasso,45.400631,8.921305,1.0
ACQUAVIVA,3.0137322216772926,2.0,30,2052,721.0,327.0,61.0,S12209,Acquaviva,37.570258,13.674927,14.0
ACQUAVIVA DELLE FONTI,1.0412156536219817,1.0,36,2402,158.0,74.0,35.0,S11504,Acquaviva,40.892806,16.839826,16.0
ACQUEDOLCI-S.FRATELLO,0.27212020033388984,0.0,18,1203,93.0,57.0,22.0,S12026,Acquedolci S.F.,38.058459,14.587597,14.0
ADRIA,0.8740648379052369,-1.0,28,1620,112.0,66.0,33.0,S05420,Adria,45.06058,12.054228,12.0
AFRICO NUOVO,4.0,2.0,10,711,247.0,143.0,57.0,S11872,Africo Nuovo,38.053759,16.144283,17.0
ALBA,0.5326170376055257,0.0,36,2622,104.0,34.0,15.0,S00825,Alba,44.697713,8.030629,3.0
ALBENGA,4.21236166214241,3.0,96,4947,2181.0,1423.0,452.0,S04516,Albenga,44.04722,8.221663,2.0
ALBISOLA,1.9523715803975594,1.0,101,5102,798.0,428.0,139.0,S04529,Albisola,44.33469,8.512092,2.0
ALLERONA-CASTEL VISCARDO,3.536281179138322,2.0,12,885,229.0,114.0,59.0,S08202,Allerona,42.78502,12.035236,6.0
ALPIGNANO,6.368421052631579,4.0,110,6139,10.0,8.0,4.0,S00216,Alpignano,45.091077,7.523745,3.0
ALTARE,1.3159851301115242,0.0,11,809,77.0,61.0,32.0,S04810,Altare,44.336169,8.332753,2.0
ALTAVILLA M.,0.056943056943056944,0.0,52,3008,166.0,61.0,12.0,S12011,Altavilla,38.048392,13.554421,14.0
ANAGNI-FIUGGI,1.6046289668336913,1.0,79,4206,677.0,383.0,101.0,S08658,Anagni-Fiuggi,41.71037,13.09597,5.0
ANCONA TORRETTE,6.166666666666667,2.0,74,4954,2.0,1.0,1.0,S07015,Ancona Torrette,43.609936,13.455777,11.0
ANDORA,2.5813076278290024,1.0,41,2397,749.0,491.0,124.0,S04525,Andora,,,
ANTIGNANO,4.346938775510204,2.0,19,1145,18.0,11.0,5.0,S06727,Antignano,43.492482,10.328827,13.0
ARBOSTELLA,0.3799126637554585,0.0,73,2526,4.0,2.0,0.0,S09838,Arbostella,40.677263,15.623814,18.0
ARCE,2.602962962962963,1.0,14,830,151.0,84.0,32.0,S08861,Arce,41.583695,13.571848,5.0
ARCISATE,2.6280400572246068,2.0,138,7028,1335.0,677.0,209.0,S01203,Arcisate,45.858579,8.86241,1.0
ARGENTA,2.323162870648904,2.0,36,2329,482.0,188.0,67.0,S05804,Argenta,44.616867,11.841267,8.0
ARONA,1.54150390625,1.0,124,5481,1095.0,673.0,221.0,S01020,Arona,45.755392,8.559075,3.0
AROSIO,0.003952569169960474,0.0,49,3291,0.0,0.0,0.0,S01092,Arosio,,,
ARQUATA SCRIVIA,1.4024137931034484,1.0,100,7166,1321.0,827.0,291.0,S04207,Arquata Scrivia,44.692533,8.885342,3.0
ASCOLI PICENO,-1.3509700176366843,-2.0,49,2273,59.0,42.0,23.0,S07550,Ascoli P.,42.855474,13.587939,11.0
ASTI,2.0624265569917744,1.0,140,9178,1631.0,846.0,254.0,S00462,Asti,44.89479,8.208112,3.0
AUGUSTA,3.170522707797772,1.0,57,2525,568.0,408.0,219.0,S12345,Augusta,37.24334,15.218628,14.0
AVEZZANO,1.1454280155642023,0.0,61,3464,342.0,198.0,100.0,S08526,Avezzano,42.039495,13.426446,19.0
AVOLA,2.1650943396226414,1.0,19,1078,185.0,113.0,55.0,S12426,Avola,36.907434,15.125733,14.0
BADOLATO,4.160857908847185,4.0,6,377,197.0,127.0,27.0,S11841,Badolato,38.572268,16.567646,17.0
BAGNACAVALLO,4.731274638633377,3.0,40,3062,1413.0,864.0,304.0,S05902,Bagnacavallo,44.412138,11.969398,8.0
BAGNI DI LUCCA,2.848901098901099,2.0,35,2192,698.0,349.0,63.0,S06308,Bagni di Lucca,44.003447,10.551631,13.0
BAGNI DI TIVOLI,2.236879147395938,2.0,76,4995,1034.0,451.0,119.0,S08504,Bagni di Tivoli,41.949593,12.722208,5.0
BAGNOLO IN PIANO,0.7244897959183674,0.0,26,1178,125.0,66.0,26.0,S05946,BAGNOLO,,,
BALESTRATE,3.7423529411764704,2.0,16,862,265.0,145.0,60.0,S12122,Balestrate,38.053364,13.007374,14.0
BALSORANO,2.7949479940564634,1.0,14,830,162.0,91.0,35.0,S08856,Balsorano,41.809427,13.556546,19.0
BALVANO R.,2.909090909090909,2.0,3,164,39.0,20.0,7.0,S09830,Balvano R.,40.649993,15.495304,15.0
BALZOLA,2.779587404994571,1.0,29,1856,452.0,252.0,62.0,S00178,Balzola,45.173985,8.402174,3.0
BARI CENTRALE,0.746562228024369,-1.0,322,17147,1973.0,1393.0,777.0,S11119,Bari C.le,41.11774,16.869601,16.0
BARI S. SPIRITO,3.0113538988860324,2.0,99,4676,1295.0,699.0,234.0,S11116,Bari S.Spirito,41.159653,16.746324,16.0
BARI ZONA INDUSTRIALE,1.5876063713724635,0.0,95,4591,815.0,510.0,203.0,S11120,BA Zona Ind.le,,,
BARLETTA,4.365244536940687,2.0,191,10358,2858.0,2017.0,1069.0,S11108,Barletta,41.315227,16.278867,16.0
BATTAGLIA TERME,3.3164845173041893,1.0,35,2210,841.0,637.0,167.0,S05702,Battaglia Terme,45.291475,11.77838,12.0
BELLA MURO,4.064851881505204,3.0,22,1492,521.0,326.0,125.0,S09831,Bella Muro,40.700914,15.542936,15.0
BELLANO TARTAVELLE TERME,3.862239174332511,2.0,79,4461,1535.0,965.0,374.0,S01409,Bellano T.Terme,46.039448,9.302776,1.0
BENEVENTO,3.9285024154589374,2.0,54,3016,840.0,656.0,369.0,S09311,Benevento,41.141901,14.769998,18.0
BEVERA,,,6,34,,,,S04482,Bevera,43.825303,7.579157,2.0
BIANZONE,1.9754299754299753,1.0,6,408,48.0,31.0,16.0,S01438,Bianzone,46.179383,10.112507,1.0
BIBBIANO,,,20,1111,,,,S05927,Bibbiano,,,
BIBBIANO VIA MONTI,,,6,333,,,,S05926,Bibbiano M,,,
BISCEGLIE,4.158245201723463,2.0,151,7674,2731.0,1664.0,669.0,S11113,Bisceglie,41.235445,16.499484,16.0
BOLLATE NORD,0.7758807262233979,0.0,104,8325,640.0,237.0,26.0,S01072,Bollate Nord,,,
BOLOGNA SAN VITALE,3.771119555685472,2.0,137,6986,2345.0,1501.0,393.0,S05081,Bologna S.Vitale,,,
BOLZANO NOVARESE,2.17877094972067,1.0,3,179,23.0,9.0,4.0,S00014,Bolzano Novarese,45.759357,8.440754,3.0
BONDENO,2.135593220338983,1.0,18,1241,193.0,103.0,40.0,S05165,Bondeno,,,
BORDIGHERA,2.877532437969497,2.0,76,4411,1093.0,643.0,241.0,S04503,Bordighera,43.778313,7.663504,2.0
BORGHETTO SANTO SPIRITO,12.4,14.0,27,1218,3.0,3.0,3.0,S04518,Borghetto S.S.,44.109006,8.242346,2.0
BORGO FORNARI PER VOLTAGGIO,16.0,16.0,32,2494,1.0,1.0,1.0,S04214,Borgo Fornari,44.588379,8.938295,2.0
BORGO LAVEZZARO,2.471244131455399,2.0,31,1711,401.0,179.0,52.0,S00032,Borgo Lavezzaro,45.318783,8.703242,3.0
BORGO S. LORENZO,1.4580193756727664,1.0,95,6009,778.0,430.0,125.0,S06604,Borgo S.L.,43.959822,11.380422,13.0
BORGO S.MARTINO,1.6768687463213654,1.0,27,1705,281.0,148.0,37.0,S00315,Borgo S.Martino,45.087083,8.520661,3.0
BORGO VAL DI TARO,2.789108910891089,2.0,45,3290,909.0,576.0,177.0,S06161,Borgo Val Taro,44.486522,9.781489,8.0
BORGOFRANCO,2.412532637075718,1.0,8,383,87.0,49.0,14.0,S00152,Borgofranco,45.514775,7.854612,3.0
BORGONE,0.37381516587677727,-1.0,46,3391,305.0,169.0,53.0,S00210,Borgone,45.123191,7.236037,3.0
BOVA MARINA,3.839798488664987,2.0,32,1994,653.0,410.0,151.0,S11860,Bova Marina,37.930269,15.923897,17.0
BOVALINO,4.289316239316239,2.0,36,2351,944.0,615.0,246.0,S11854,Bovalino,38.149087,16.180584,17.0
BRA,0.4945631796025497,0.0,38,2772,189.0,89.0,42.0,S00821,Bra,44.693556,7.848643,3.0
BRAGNO,,,13,767,,,,S04803,Bragno,44.371679,8.304473,2.0
BRANCALEONE,4.229255774165954,2.0,36,2351,915.0,585.0,245.0,S11857,Brancaleone,37.965475,16.103301,17.0
BRANDIZZO,2.0672143390589994,1.0,54,4040,773.0,362.0,71.0,S00231,Brandizzo,45.178915,7.841218,3.0
BRESCIA,3.0002301849152153,2.0,279,19698,3942.0,2278.0,889.0,S01717,Brescia,45.532315,10.212828,1.0
BRISIGHELLA,4.120830711139082,3.0,23,1591,707.0,369.0,82.0,S06614,Brisighella,44.220565,11.769757,8.0
BRUNICO NORD,1.4595419847328244,1.0,10,661,54.0,12.0,6.0,S02018,Brunico Nord,,,
BRUZOLO,0.6337278106508876,0.0,46,3391,310.0,175.0,52.0,S00209,Bruzolo,45.131032,7.201497,3.0
BUDOIA POLCENIGO,-0.788235294117647,-1.0,24,1109,19.0,12.0,7.0,S03088,Budoia Polcenigo,46.031464,12.537637,10.0
BUONCONVENTO,0.6958128078817734,0.0,36,1731,101.0,34.0,11.0,S06874,Buonconvento,43.135503,11.483773,13.0
BUSALLA,-0.34283295711060946,-1.0,63,4255,273.0,154.0,63.0,S04215,Busalla,44.57558,8.943611,2.0
BUSSOLENO,0.38361854128592787,0.0,112,6188,750.0,393.0,125.0,S00208,Bussoleno,45.139631,7.144819,3.0
BUSTO ARSIZIO N.,1.1475287069395905,1.0,53,4014,340.0,96.0,39.0,S01137,Busto Arsizio N.,,,
CAIRO MONTENOTTE,0.7496473906911142,-1.0,23,1425,87.0,64.0,41.0,S00879,Cairo Montenotte,44.394747,8.278786,2.0
CALALZO PIEVE CADORE CORTINA,0.6460905349794238,0.0,24,977,44.0,19.0,5.0,S02550,Calalzo PC Cort.,46.443829,12.388668,12.0
CALCIO,19.153846153846153,12.0,32,2528,12.0,11.0,9.0,S01712,Calcio,45.532937,9.841342,1.0
CALOPEZZATI,4.092633114514952,3.0,21,1379,624.0,365.0,89.0,S11815,Calopezzati,39.579022,16.819361,17.0
CAMAIORE LIDO CAPEZZANO,6.1,5.0,51,2912,13.0,10.0,4.0,S06043,Camaiore Lido C.,43.912176,10.24765,13.0
CAMERANO ASPIO,28.0,28.0,46,2225,1.0,1.0,1.0,S07021,Camerano Aspio,,,
CAMMARATA S.GIOVANNI GEMINI,0.5046637211585665,1.0,29,2051,494.0,232.0,67.0,S12207,Cammarata S.G.G.,37.653759,13.673791,14.0
CAMPO DI CARNE,2.1234460826828565,1.0,60,3467,772.0,351.0,95.0,S08706,Campo di Carne,41.552116,12.635125,5.0
CAMPOBELLO RAVANUSA,4.114583333333333,3.0,6,413,146.0,85.0,26.0,S12385,Campobello Rav.,37.265731,13.946251,14.0
CAMPODARSEGO,6.25,5.0,91,4219,6.0,2.0,1.0,S02527,Campodarsego,45.505721,11.900894,12.0
CAMPOLIGURE MASONE,4.531997774067891,3.0,24,1802,848.0,471.0,147.0,S04105,Campoligure M.,44.530909,8.700878,2.0
CAMUCIA CORTONA,3.7859416445623344,2.0,54,3780,1459.0,826.0,269.0,S06921,Camucia Cortona,43.261104,11.971245,13.0
CANDELA,4.684210526315789,3.0,8,532,255.0,175.0,43.0,S11204,Candela,41.151439,15.533163,16.0
CANDIOLO,4.380804077010192,4.0,46,3543,1852.0,1119.0,123.0,S00512,Candiolo,44.961155,7.598973,3.0
CANICATTI`,2.2824858757062145,1.0,15,959,203.0,115.0,41.0,S12375,CANICATTI',37.359879,13.855395,14.0
CANISTRO,4.8,0.0,14,830,2.0,2.0,2.0,S08812,Canistro,,,
CANNETO SULL`OGLIO,6.860746720484359,5.0,24,1987,1365.0,939.0,288.0,S01848,Canneto s/Oglio,45.150211,10.37147,1.0
CAPACI,9.75,11.0,105,5461,7.0,6.0,5.0,S12145,Capaci,38.171794,13.232398,14.0
CARAVAGGIO,4.278502747252747,2.0,43,2940,1087.0,709.0,262.0,S01602,Caravaggio,45.491158,9.637723,1.0
CARBONIA SERBARIU,0.14970563498738435,-1.0,39,2383,62.0,35.0,12.0,S12818,Carbonia Serb.,39.169508,8.509186,20.0
CARDILLO ZEN,11.5,10.0,37,2707,2.0,2.0,1.0,S12140,Cardillo Z.E.N.,38.17495,13.296897,14.0
CARIMATE,2.6667765869744433,1.0,110,6089,1658.0,978.0,328.0,S01315,Carimate,45.697094,9.107188,1.0
CARINI TORRE CIACHEA,10.25,10.0,36,2648,8.0,7.0,3.0,S12799,Carini Torre C.,38.16149,13.219641,14.0
CARONNO PERTUSELLA,1.2125,1.0,34,2247,246.0,69.0,17.0,S01076,Caronno Pertus.,,,
CAROVIGNO,9.75,7.0,64,2651,6.0,5.0,3.0,S11133,Carovigno,40.737337,17.683791,16.0
CARPI,1.016175319593008,0.0,63,4868,548.0,254.0,75.0,S02349,Carpi,44.782919,10.891952,8.0
CASABIANCA,4.998549147624229,4.0,67,2795,1482.0,736.0,163.0,S08730,Casabianca,41.788327,12.60431,5.0
CASALBORDINO POLLUTRI,9.0,8.0,22,1620,8.0,8.0,3.0,S07821,Casalbordino P.,42.193653,14.633045,19.0
CASALEGGIO,1.8130841121495327,1.0,4,214,45.0,13.0,1.0,S00972,Casaleggio,45.491298,8.490369,3.0
CASALMAGGIORE,4.376298576375529,3.0,33,2603,1153.0,715.0,223.0,S01850,Casalmaggiore,44.993139,10.425023,1.0
CASALPUSTERLENGO,3.4259638348686456,2.0,83,5905,1786.0,1053.0,376.0,S01827,Casalpusterlengo,45.182473,9.653627,1.0
CASARSA,1.7697281167108754,1.0,113,6893,1135.0,529.0,169.0,S02830,Casarsa,45.953002,12.8406,10.0
CASLINO D'ERBA,0.007966011683483803,0.0,27,1883,0.0,0.0,0.0,S01098,Caslino D'erba,,,
CASTAGNETO CARDUCCI,5.7657657657657655,3.0,45,2230,47.0,32.0,11.0,S06029,Castagneto C.,43.16816,10.56399,13.0
CASTAGNO,1.828232971372162,1.0,12,1013,121.0,23.0,14.0,S05122,Castagno,44.012359,10.91538,13.0
CASTEL GANDOLFO,0.7981684981684982,0.0,43,2737,447.0,57.0,9.0,S08703,Castel Gandolfo,41.746946,12.652266,5.0
CASTELBOLOGNESE,3.7170360987967066,2.0,122,8099,2772.0,1776.0,731.0,S05056,Castelbolognese,44.325391,11.804174,8.0
CASTELDACCIA,6.266666666666667,6.0,51,3007,13.0,9.0,2.0,S12010,Casteldaccia,38.060474,13.536867,14.0
CASTELDEBOLE,2.327442675624361,2.0,107,6854,1793.0,770.0,127.0,S05102,Casteldebole,44.503974,11.27456,8.0
CASTELFERRETTI,,,31,2106,,,,S07200,Castelferretti,43.607303,13.357519,11.0
CASTELFIORENTINO,10.294117647058824,9.0,70,4856,191.0,187.0,78.0,S06802,Castelfiorentino,43.60542,10.968048,13.0
CASTELFRANCO VENETO,0.8294423398819487,1.0,205,11511,1158.0,467.0,142.0,S02537,Castelfranco V.,45.666439,11.934315,12.0
CASTELGUELFO,2.012987012987013,1.0,5,312,57.0,28.0,10.0,S05012,Castelguelfo,44.836434,10.176706,8.0
CASTELLALTO CANZANO,0.9674068767908309,1.0,42,2817,226.0,82.0,18.0,S07901,Castellalto C.,42.69564,13.793043,19.0
CASTELLAMMARE DI STABIA,0.7222222222222222,0.0,9,81,6.0,3.0,1.0,S09756,Cast.re di Stab.,40.701398,14.483737,18.0
CASTELLINA CH,1.257864238410596,1.0,39,2441,430.0,180.0,51.0,S06808,Castellina Ch.,43.408744,11.212379,13.0
CASTELLO DI GODEGO,0.9372493985565357,1.0,69,5026,769.0,274.0,60.0,S02507,Castello Godego,45.688082,11.87759,12.0
CASTELLO D`ANNONE,2.7892756349952963,2.0,21,1069,288.0,122.0,21.0,S00465,Castel.d'Annone,44.878742,8.312724,3.0
CASTELLUCCHIO,4.721667390360399,2.0,28,2311,937.0,664.0,268.0,S01923,Castellucchio,45.144293,10.64749,1.0
CASTELNUOVO BERARDENGA,2.669106881405564,2.0,30,1371,342.0,156.0,35.0,S06812,Castelnuovo Ber.,43.306882,11.484912,13.0
CASTELVECCHIO PASCOLI,3.582547169811321,3.0,15,854,345.0,158.0,17.0,S06302,Castelvecchio P.,44.09007,10.455061,13.0
CASTELVETRO,1.780123131046614,1.0,18,1143,185.0,99.0,42.0,S01960,Castelvetro,45.100095,9.982181,8.0
CASTIGLION FIORENTINO,3.58450517378615,2.0,54,3780,1420.0,824.0,259.0,S06920,Castigl.Fiorent.,43.34075,11.914362,13.0
CATANIA ACQUICELLA,9.0,9.0,1,1,1.0,1.0,0.0,S12337,Catania Acq.lla,37.492765,15.074699,14.0
CATANZARO LIDO,3.165399817573731,2.0,83,5094,1123.0,614.0,205.0,S11833,Catanzaro Lido,38.821788,16.612975,17.0
CAULONIA,3.932975871313673,3.0,6,377,169.0,109.0,17.0,S11846,Caulonia,38.343785,16.467278,17.0
CAVALLEGGERI AOSTA,0.10584643971066428,0.0,183,15208,979.0,375.0,105.0,S09113,Cavalleggeri A.,40.819292,14.185679,18.0
CA` DI BOSCHETTI,5.1875,4.0,17,1103,9.0,5.0,4.0,S06044,Ca'di Boschetti,44.117925,9.857449,2.0
CECINA,2.8684514193399493,2.0,77,4347,1267.0,762.0,252.0,S06026,Cecina,43.31028,10.514225,13.0
CEFALU`,1.483560278977084,0.0,55,3171,448.0,306.0,155.0,S12019,Cefalu',38.03285,14.019526,14.0
CELLE BULGHERIA ROCCAGLORIOSA,2.293150684931507,1.0,24,1465,345.0,200.0,81.0,S11716,Celle Bulgheria,40.10287,15.39473,18.0
CERCHIO,2.8958333333333335,1.0,10,289,63.0,37.0,11.0,S08530,Cerchio,42.061082,13.597972,19.0
CERDA,2.278409090909091,2.0,19,1242,186.0,93.0,45.0,S12200,Cerda,37.953964,13.78447,14.0
CERTALDO,2.680581516095535,2.0,70,4856,1588.0,750.0,131.0,S06803,Certaldo,43.547124,11.037711,13.0
CERTOSA DI PAVIA,3.5731644703063496,3.0,73,5878,2390.0,1224.0,210.0,S01803,Certosa di Pavia,45.256927,9.154456,1.0
CERVIA-MILANO MARITTIMA,3.6572847682119205,2.0,55,3054,856.0,516.0,248.0,S05814,Cervia M.M.,44.258444,12.347096,8.0
CERVIGNANO A.G.,1.0226565202352127,0.0,83,5800,772.0,399.0,158.0,S03207,Cervignano A.G.,45.823948,13.342866,10.0
CESANO BOSCONE,2.0,2.0,68,3178,0.0,0.0,0.0,S01112,Cesano Boscone,,,
CESANO MADERNO,-0.22798624607564658,0.0,257,13505,272.0,146.0,48.0,S01086,Cesano Maderno,,,
CHIARAVALLE,-3.0372511239563265,-4.0,49,3162,91.0,45.0,17.0,S07201,Chiaravalle,43.595503,13.327655,11.0
CHIAVARI,3.0764563106796117,1.0,165,9099,2558.0,1615.0,598.0,S04722,Chiavari,44.315156,9.322464,2.0
CHIERI,1.8862310385064178,1.0,35,1944,227.0,79.0,19.0,S00500,Chieri,45.007008,7.827077,3.0
CHIETI-MAD.D.P.,5.234275296262534,4.0,36,2198,1447.0,703.0,89.0,S07025,Chieti-M.d.P,,,
CHIGNOLO PO,4.062227074235808,3.0,22,1837,821.0,484.0,102.0,S01868,Chignolo Po,45.160942,9.494196,1.0
CHIOMONTE,1.251895244658856,1.0,67,2913,389.0,212.0,76.0,S00206,Chiomonte,45.119876,6.988716,3.0
CHIUDUNO,2.5,0.0,37,3060,1.0,0.0,0.0,S01536,Chiuduno,45.650449,9.846924,1.0
CIANO VIA TEDALDO DA CANOSSA,,,20,1111,,,,S05922,Ciano T.C.,,,
CINISI TERRASINI,2.9315245478036176,1.0,17,938,146.0,96.0,53.0,S12126,Cinisi Terrasini,38.155314,13.096673,14.0
CITTADELLA,0.09750408210870072,0.0,67,4301,266.0,119.0,49.0,S02535,Cittadella,45.643868,11.789857,12.0
CIVITA D`ANTINO-MORINO,3.1698956780923995,2.0,14,830,192.0,94.0,32.0,S08853,Civita d'Antino,41.870632,13.458868,19.0
COCCAGLIO,2.2678888231815493,1.0,41,3385,838.0,464.0,103.0,S01540,Coccaglio,45.560971,9.977648,1.0
CODISOTTO,0.0,0.0,24,1765,0.0,0.0,0.0,S05957,Codisott,,,
CODOLA,2.683333333333333,2.0,12,88,23.0,10.0,4.0,S09703,Codola,40.767687,14.665622,18.0
COLLEGNO,1.1207768891790435,0.0,110,6139,878.0,453.0,124.0,S00217,Collegno,45.078854,7.574131,3.0
COLLEVECCHIO,1.378776713338246,1.0,57,2721,268.0,100.0,36.0,S08221,Collevecchio,42.298089,12.520546,5.0
COLLI DI MONTE BOVE,3.3415841584158414,1.0,7,406,113.0,58.0,16.0,S08520,Colli di M. Bove,42.097103,13.15057,19.0
COLONNA GALLERIA,2.6426735218508997,2.0,53,3122,660.0,305.0,84.0,S08653,Colonna Gall.,,,
COMPRE S.VINCENZO,1.5,0.0,9,487,1.0,1.0,0.0,S08816,Compre S.Vinc.,,,
CONDOFURI,2.5873221216041395,2.0,11,775,185.0,80.0,21.0,S11861,Condofuri,37.92761,15.874952,17.0
CONDOVE,0.7755404204915606,0.0,46,3391,383.0,201.0,54.0,S00212,Condove,45.106689,7.317022,3.0
CONTIGLIANO,-933.8725078698845,3.0,34,1907,736.0,303.0,65.0,S07404,Contigliano,42.412072,12.779144,5.0
CONTURSI TERME,1.6226666666666667,0.0,15,764,182.0,117.0,37.0,S09826,Contursi Terme,40.630046,15.235486,18.0
CORBEZZI,1.3583415597235933,1.0,12,1013,74.0,19.0,12.0,S05115,Corbezzi,43.993948,10.919676,13.0
CORDOVADO SESTO,2.122703023117961,2.0,26,1692,458.0,47.0,9.0,S02661,Cordovado Sesto,45.850653,12.877784,10.0
CORNIANO,,,20,1111,,,,S05925,Corniano,,,
COSSATO,1.2526766595289078,0.0,44,1873,358.0,170.0,29.0,S00973,Cossato,45.564216,8.175964,3.0
COTIGNOLA,4.304635761589404,3.0,4,300,63.0,21.0,10.0,S05956,Cotignola,44.387077,11.938037,8.0
CRUCOLI,4.821167883211679,4.0,20,1376,716.0,465.0,138.0,S11819,Crucoli,39.449588,17.040718,17.0
CUPONE,6.714285714285714,0.0,10,566,2.0,2.0,2.0,S08810,Cupone,41.964628,13.377481,19.0
CUPRAMARITTIMA,3.1034719834994844,2.0,55,2922,902.0,529.0,152.0,S07511,Cupramarittima,43.02349,13.860812,11.0
DERVIO,3.3485818847209514,2.0,28,2187,779.0,452.0,135.0,S01408,Dervio,46.077709,9.30596,1.0
DIECIMO - PESCAGLIA,2.91350114416476,2.0,35,2192,737.0,360.0,79.0,S06310,Diecimo-Pescagl.,43.959404,10.507844,13.0
DORMELLETTO PAESE,1.817829457364341,1.0,14,1034,86.0,36.0,16.0,S00980,Dormelletto P.,45.730032,8.574324,3.0
DUEVILLE,2.0480182926829267,1.0,36,2625,350.0,145.0,39.0,S02146,Dueville,45.635,11.546108,12.0
ELLERA CORCIANO,3.52195791399817,3.0,33,2260,896.0,521.0,120.0,S07003,Ellera Corciano,43.094699,12.318574,6.0
FAGNANO CAMPANA,1.8508474576271186,1.0,11,295,60.0,25.0,3.0,S07420,Fagnano Campana,42.250575,13.562743,19.0
FALCIANO MONDRAGONE CAR.,3.7933395580454405,2.0,68,3222,1063.0,767.0,297.0,S09001,Falciano Mond.,41.123525,13.971792,18.0
FANZOLO,1.6462921348314608,1.0,62,2235,262.0,69.0,23.0,S02575,Fanzolo,45.708253,11.992069,12.0
FELIZZANO,2.1369622475856014,1.0,23,1143,235.0,88.0,20.0,S00468,Felizzano,44.893367,8.437155,3.0
FELONICA PO,2.832167832167832,1.0,18,1241,223.0,115.0,48.0,S05162,Felonica Po,,,
FERRANIA,,,10,525,,,,S04804,Ferrania,44.365136,8.328885,2.0
FERRARA BOSCHETTO,,,18,978,,,,S05196,Fer.Bos.,,,
FERRERA LOMELLINA,5.087139107611549,4.0,28,1923,1078.0,547.0,107.0,S00404,Ferrera Lomell.,45.111807,8.862805,1.0
FIESOLE CALDINE,2.1287732819524727,1.0,46,3118,655.0,323.0,106.0,S06953,Fiesole Caldine,43.833697,11.266047,13.0
FILATTIERA,2.1247216035634744,1.0,39,2253,590.0,356.0,86.0,S06165,Filattiera,44.33137,9.933352,13.0
FINALE LIGURE MARINA,3.94935170178282,2.0,96,4947,1949.0,1239.0,399.0,S04522,Finale Ligure M.,44.169116,8.34033,2.0
FIORENZUOLA,2.705831308573412,1.0,84,5820,1405.0,917.0,406.0,S05007,Fiorenzuola,44.928716,9.917403,8.0
FIRENZE CAMPO MARTE,2.8418813519262587,2.0,253,13395,3751.0,2185.0,759.0,S06900,Firenze C.Marte,43.776856,11.27702,13.0
FIRENZE CASTELLO,1.2951818349640023,1.0,97,5853,791.0,418.0,120.0,S06419,Firenze Castello,43.819444,11.21838,13.0
FIRENZE STATUTO,2.886824324324324,2.0,38,2396,834.0,483.0,115.0,S06430,Firenze Statuto,43.787273,11.249738,13.0
FIUMEFREDDO DI SICILIA,2.295380434782609,1.0,62,3790,898.0,506.0,187.0,S12322,Fiumefreddo di S,37.795247,15.205615,14.0
FIUMELATTE,3.000952380952381,1.0,27,2102,630.0,411.0,139.0,S01412,Fiumelatte,45.999017,9.292857,1.0
FIUMETORTO,2.0,2.0,1,1,0.0,0.0,0.0,S12015,Fiumetorto,37.966939,13.774781,14.0
FOLLONICA,2.503623188405797,1.0,60,3616,851.0,574.0,238.0,S06033,Follonica,42.926687,10.755775,13.0
FONTANA LIRI INFERIORE,2.0,1.0,13,759,3.0,2.0,0.0,S08819,Fontana Liri Inf,,,
FONTANAROSA,2.4010840108401084,1.0,19,1208,228.0,159.0,71.0,S09199,Fontanarosa,,,
FORLI`,3.4266430324515955,1.0,108,7362,2265.0,1680.0,879.0,S05059,Forli',44.22413,12.054871,8.0
FORNACI DI BARGA,2.435838680109991,2.0,35,2192,684.0,339.0,44.0,S06304,Fornaci di Barga,44.045253,10.473173,13.0
FRANCAVILLA AL MARE,1.968529571351058,1.0,27,1995,367.0,194.0,41.0,S07813,Francavilla M.,42.421316,14.288062,19.0
FRANCIOSA,4.9162303664921465,4.0,3,204,99.0,62.0,16.0,S09842,Franciosa,,,
FRASSO T. DUGENTA,5.924079754601227,4.0,26,1322,666.0,540.0,252.0,S09305,Frasso Dugenta,41.137244,14.459459,18.0
FRATTE VILLA COMUNALE,11.666666666666666,1.0,18,772,1.0,1.0,1.0,S09524,Fratte-Villa Com,40.697895,14.779252,18.0
FURCI,4.6438577586206895,3.0,30,1867,895.0,530.0,165.0,S12313,Furci,37.961714,15.380022,14.0
FUSCALDO,2.030888030888031,1.0,21,1303,215.0,103.0,35.0,S11738,Fuscaldo,39.409692,16.011475,17.0
GAGLIOLE,,,7,330,,,,S07311,Gagliole,43.220298,13.07522,11.0
GALATI,1.2866840731070497,1.0,27,1922,249.0,110.0,38.0,S12305,Galati,38.104511,15.505313,14.0
GALLARATE,3.4826170622193713,2.0,271,16863,5834.0,3700.0,1172.0,S01030,Gallarate,45.659828,8.798243,1.0
GALLIERA VENETA TOMBOLO,6.5,2.0,34,2129,1.0,1.0,1.0,S02541,Galliera Ven.Tom,45.652901,11.828066,12.0
GAZZADA SCHIANNO MORAZZONE,3.2559985567382284,2.0,110,5619,1433.0,784.0,304.0,S01207,Gazzada Schian.M,45.77862,8.824815,1.0
GEMELLI,2.5745557000433466,2.0,154,9253,1741.0,553.0,116.0,S08326,Gemelli,41.927813,12.427797,5.0
GENOVA CORNIGLIANO,10.305555555555555,9.0,161,8802,31.0,28.0,12.0,S04538,GE Cornigliano,44.414752,8.865035,2.0
GENOVA NERVI,2.3731906859660166,1.0,169,9513,2126.0,1422.0,453.0,S04707,Genova Nervi,44.381271,9.039895,2.0
GENOVA P. PRINCIPE SOTTERRANEA,-0.6526442307692307,-2.0,78,4191,311.0,188.0,76.0,S04701,Genova P.P.Sott.,44.414803,8.918041,2.0
GENOVA QUINTO AL MARE,9.105263157894736,10.0,141,7816,16.0,14.0,9.0,S04705,Genova Quinto,44.385184,9.020514,2.0
GENOVA S.BIAGIO,11.666666666666666,14.0,28,1747,2.0,2.0,2.0,S04222,Genova S.Biagio,44.484399,8.900854,2.0
GENOVA VIA DI FRANCIA,6.04,7.0,30,1786,18.0,17.0,2.0,S04223,GE Via Francia,44.411126,8.90192,2.0
GHIVIZZANO - COREGLIA,4.116024726581075,3.0,34,2117,989.0,530.0,81.0,S06306,Ghivizzano-Cor.,44.027583,10.510183,13.0
GIAROLE,2.296470588235294,2.0,27,1705,371.0,186.0,44.0,S00316,Giarole,45.056125,8.5609,3.0
GONZAGA-REGGIOLO,2.1416603198781416,1.0,33,2633,485.0,295.0,138.0,S02344,Gonzaga-Reggiolo,44.939239,10.815533,1.0
GORIZIA CENTRALE,1.2117920868890613,0.0,75,3874,556.0,315.0,118.0,S03304,Gorizia Centrale,45.933047,13.60684,10.0
GRAVELLONA TOCE,1.7510766580534023,1.0,18,1161,226.0,123.0,27.0,S00007,Gravellona Toce,45.934051,8.428346,3.0
GRISIGNANO DI ZOCCO,2.463790849673203,2.0,70,3839,919.0,452.0,120.0,S02579,Grisignano Z.,45.48638,11.710762,12.0
GRIZZANA,2.14340960360941,1.0,52,3123,556.0,272.0,81.0,S05133,Grizzana,44.258292,11.181194,8.0
GROANE,0.8008658008658008,0.0,18,231,15.0,9.0,3.0,S01927,Groane,,,
GROPELLO CAIROLI,4.817857142857143,4.0,25,1974,1269.0,495.0,99.0,S00277,Gropello Cairoli,45.173101,8.991626,1.0
GROSSETO,1.9732558139534884,0.0,105,5603,1044.0,711.0,348.0,S06039,Grosseto,42.76728,11.1065,13.0
GROTTAGLIE,1.9463253509496283,0.0,16,1213,297.0,170.0,55.0,S11602,Grottaglie,40.528989,17.424503,16.0
GROTTE,0.572744014732965,0.0,9,546,55.0,20.0,8.0,S12372,Grotte,37.409848,13.702717,14.0
GRUMELLO DEL MONTE,2.421666192777936,1.0,44,3520,924.0,446.0,106.0,S01537,Grumello D.M.,45.634102,9.862767,1.0
GRUMO APPULA,1.9987505206164098,1.0,36,2402,219.0,80.0,31.0,S11502,Grumo Appula,41.01199,16.718777,16.0
GUALTIERI,-0.8127286027798098,-1.0,25,1821,70.0,39.0,18.0,S05961,Gualtieri,,,
IGEA MARINA,1.936046511627907,0.0,54,2965,456.0,323.0,184.0,S05818,Igea Marina,44.131972,12.481636,8.0
IGLESIAS,-0.23368146214099217,-1.0,53,3064,63.0,44.0,28.0,S12950,Iglesias,39.310563,8.539786,20.0
IMPERIA,3.331674599740372,2.0,89,4736,1675.0,995.0,279.0,S04523,Imperia,43.88051,8.019182,2.0
INCISA,2.3708086785009863,1.0,84,5084,1313.0,665.0,177.0,S06907,Incisa,43.656541,11.452728,13.0
INCORONATA,2.6765909936732415,2.0,63,2690,622.0,353.0,118.0,S11101,Incoronata,41.408174,15.650728,16.0
INDUNO OLONA,3.152239233080555,2.0,138,7028,1846.0,846.0,226.0,S01204,Induno Olona,45.846432,8.838357,1.0
INVERIGO,0.0030404378230465185,0.0,49,3291,0.0,0.0,0.0,S01093,Inverigo,,,
ISOLA DEL CANTONE,10.0,7.0,39,2840,6.0,6.0,3.0,S04210,Isola del Cant.,44.646589,8.957578,2.0
ISOLA DELLE FEMMINE,0.532459226095299,0.0,72,3194,163.0,38.0,11.0,S12129,Isola d.Femmine,38.194784,13.250188,14.0
ISTRANA,0.7174657534246576,0.0,55,3506,274.0,112.0,60.0,S02539,Istrana,45.676539,12.102781,12.0
LA GIUSTINIANA,2.47463689572946,2.0,154,9253,1845.0,632.0,113.0,S08321,La Giustiniana,41.985243,12.403457,5.0
LA STORTA,1.8486869101354124,1.0,172,10432,1482.0,516.0,119.0,S08320,La Storta,42.001748,12.381254,5.0
LABICO,2.5048513302034427,2.0,55,3211,615.0,274.0,69.0,S08654,Labico,,,
LAIGUEGLIA,,,25,1484,,,,S04514,Laigueglia,43.981283,8.158685,2.0
LAMEZIA TERME SAMBIASE,3.4390794223826715,2.0,38,2227,638.0,333.0,51.0,S11950,L.Terme Sambiase,38.959927,16.284962,17.0
LANZARA FIMIANI,5.0,5.0,10,63,1.0,0.0,0.0,S09707,Lanzara Fimiani,40.769685,14.68115,18.0
LATINA,2.6556545409552093,0.0,165,8689,1976.0,1331.0,668.0,S08608,Latina,41.538372,12.945888,5.0
LATISANA LIGNANO B.,1.5610310841546626,1.0,55,3966,575.0,327.0,140.0,S03202,Latisana L.B.,45.777733,13.001101,10.0
LAVIS,10.057692307692308,9.0,43,2795,42.0,34.0,23.0,S02037,Lavis,46.148306,11.095993,9.0
LEGNAGO,2.3786242183058555,2.0,36,2099,342.0,141.0,54.0,S02366,Legnago,45.189034,11.304724,12.0
LICATA,5.25,4.0,6,413,228.0,158.0,35.0,S12400,Licata,37.106024,13.938114,14.0
LIDO DI LAVINIO,2.228038507821901,1.0,58,3339,514.0,223.0,80.0,S08708,Lido di Lavinio,41.500599,12.625926,5.0
LIMONE,-2.2245657568238215,-3.0,36,1607,27.0,20.0,10.0,S00617,Limone,44.203799,7.577912,3.0
LIVORNO CENTRALE,1.9932842567480304,1.0,179,10426,1822.0,1091.0,433.0,S06725,Livorno C.le,43.55406,10.336593,13.0
LOCRI,3.7380250552689755,2.0,49,3109,957.0,601.0,218.0,S11851,Locri,38.233154,16.264787,17.0
LOMELLO,3.5583464154892726,3.0,28,1923,683.0,350.0,84.0,S00405,Lomello,45.117276,8.799121,1.0
LONIGO,12.5,10.0,38,2260,8.0,8.0,3.0,S02441,Lonigo,45.413269,11.345016,12.0
LUINO,4.4653878231859885,3.0,34,2324,531.0,305.0,72.0,S01113,Luino,45.996643,8.737464,1.0
LUNI,5.2,3.0,9,557,6.0,6.0,2.0,S06003,Luni,,,
L`AQUILA,0.8339898705683737,0.0,65,3550,253.0,107.0,37.0,S07414,L'Aquila,42.351055,13.384959,19.0
MACHERIO-CANONICA,,,40,3185,,,,S01484,Macherio-C.,45.645533,9.286736,1.0
MAGLIANO CRAVA MOROZZO,-0.13964313421256788,-1.0,18,1295,56.0,35.0,13.0,S00951,Magliano C.M.,44.445259,7.777852,3.0
MANDELLO DEL LARIO,4.161956034096007,2.0,79,4461,1521.0,950.0,386.0,S01415,Mandello del L.,45.915208,9.322061,1.0
MANIAGO,-2.1480804387568555,-2.0,24,1109,4.0,4.0,3.0,S03084,Maniago,46.170057,12.714527,10.0
MANTOVA FRASSINE,0.647189349112426,0.0,23,1353,108.0,52.0,24.0,S02380,Mantova Frassine,45.150491,10.831007,1.0
MARANO TICINO,2.567279767666989,2.0,14,1034,170.0,63.0,22.0,S00983,Marano Ticino,45.629485,8.626172,3.0
MARAUSA,0.7688564476885644,0.0,19,1242,125.0,61.0,27.0,S12104,Marausa,37.92647,12.504113,14.0
MARCELLINA-PALOMBARA,1.8600388780894197,1.0,56,3612,666.0,284.0,76.0,S08507,Marcellina-Palom,41.999609,12.79134,5.0
MARINA DI MARATEA,8.0,9.0,9,448,2.0,2.0,1.0,S11724,Mar.di Maratea,39.959512,15.735953,15.0
MARSALA,1.422051282051282,1.0,31,1970,391.0,182.0,79.0,S12107,Marsala,37.793514,12.443174,14.0
MARTINSICURO,4.0,4.0,9,642,1.0,0.0,0.0,S07515,MARTINSICURO,,,
MASI TORELLO,0.5985626283367557,0.0,18,978,91.0,42.0,19.0,S05171,Masi Torello,,,
MELE,5.069204152249135,3.0,23,1739,859.0,566.0,206.0,S04106,Mele,44.472797,8.733953,2.0
MELITO DI PORTO SALVO,1.658978102189781,0.0,69,4538,621.0,412.0,181.0,S11863,Melito P.S.,37.916732,15.780816,17.0
MELZO,2.426440677966102,1.0,115,7458,1819.0,1229.0,402.0,S01705,Melzo,45.502191,9.420653,1.0
MELZO SCALO,32.0,32.0,1,1,1.0,1.0,1.0,S02215,Melzo Scalo,,,
MERANA,5.312632321806634,5.0,23,1425,915.0,555.0,70.0,S00875,Merana,44.519368,8.298327,3.0
MERANO MAIA BASSA,1.9210813762971055,1.0,50,3693,724.0,249.0,43.0,S02217,Merano Maia Bass,46.656202,11.147931,9.0
MERGOZZO,3.286466165413534,2.0,32,1331,354.0,220.0,97.0,S01012,Mergozzo,45.961303,8.440881,3.0
MERONE,0.009726443768996961,0.0,72,4863,1.0,1.0,1.0,S01454,Merone,45.781374,9.243772,1.0
MEZZANO,2.6832326985601487,2.0,34,2168,434.0,168.0,60.0,S05810,Mezzano,44.463,12.098501,8.0
MI.P.GENOVA,1.2459634015069967,-1.0,57,3736,372.0,241.0,145.0,S01631,MI P.Genova,45.453379,9.169303,1.0
MIGLIARINO,1.3590534979423867,1.0,18,978,92.0,37.0,17.0,S05176,Migliarino,,,
MILANO CENTRALE,3.9817121548714693,2.0,646,44077,8684.0,5603.0,2731.0,S01700,Milano Centrale,45.486347,9.204528,1.0
MILANO NORD DOMODOSSOLA,0.0016475670925932707,0.0,428,27321,0.0,0.0,0.0,S01067,Mi.N.Domodossola,,,
MILANO ROGOREDO,2.587155071900505,1.0,511,31343,8738.0,5400.0,2081.0,S01820,Milano Rogoredo,45.433866,9.2391,1.0
MILANO ROMOLO,17.0,24.0,66,3022,2.0,2.0,2.0,S01032,Milano Romolo,45.445008,9.168933,1.0
MILANO VENEZIA,4.301188786373315,3.0,405,22713,9798.0,5588.0,1726.0,S01649,MI Venezia,45.471121,9.201889,1.0
MIRADOLO TERME,5.3902838427947595,4.0,22,1837,1087.0,680.0,143.0,S01867,Miradolo Terme,45.162007,9.449952,1.0
MIRTO CROSIA,4.914835164835165,4.0,21,1464,775.0,475.0,136.0,S11814,Mirto Crosia,39.604876,16.777366,17.0
MODANE,8.506493506493506,1.0,5,156,34.0,33.0,27.0,S00201,Modane,,,
MODENA,2.875977653631285,1.0,254,16996,3971.0,2751.0,1330.0,S05032,Modena,44.654461,10.930373,8.0
MODENA PIAZZA MANZONI,0.15472387037882246,0.0,40,2199,64.0,31.0,8.0,S05188,MOD.PM,,,
MODUGNO,4.300667222685571,6.0,36,2402,1215.0,1205.0,90.0,S11500,Modugno,,,
MODUGNO,4.300667222685571,6.0,36,2402,1215.0,1205.0,90.0,S11516,Modugno,,,
MOLA DI BARI,2.4135585783238263,1.0,96,4565,1041.0,551.0,203.0,S11127,Mola di Bari,41.057227,17.080919,16.0
MOLARE,3.0,3.0,23,1739,0.0,0.0,0.0,S04102,Molare,44.621975,8.609904,3.0
MOMBARUZZO,0.8223615464994776,0.0,16,994,59.0,32.0,10.0,S00808,Mombaruzzo,44.76235,8.441006,3.0
MONEGLIA,14.375,10.0,60,3603,14.0,13.0,8.0,S04727,Moneglia,44.242449,9.486957,2.0
MONFALCONE,1.3038817775002602,0.0,158,9636,1346.0,713.0,279.0,S03310,Monfalcone,45.807683,13.542929,10.0
MONTAGNANA,2.4921241050119334,2.0,36,2099,569.0,206.0,48.0,S02392,Montagnana,45.228238,11.459873,12.0
MONTALE AGLIANA,30.428571428571427,10.0,98,5920,7.0,7.0,3.0,S06415,Montale Agliana,43.912924,11.008309,13.0
MONTANARO,2.0458333333333334,2.0,43,2168,443.0,181.0,68.0,S00160,Montanaro,45.232674,7.858331,3.0
MONTEBELLUNA,1.6097087378640778,1.0,130,4716,410.0,128.0,51.0,S02570,Montebelluna,45.776434,12.054,12.0
MONTECARLO SAN SALVATORE,3.3319648093841643,3.0,54,1719,717.0,434.0,133.0,S06408,Montecarlo S.Sal,43.850798,10.68537,13.0
MONTECATINI CENTRO,7.1682158240761735,6.0,124,4444,3425.0,2678.0,837.0,S06412,Montecatini C.,43.881216,10.77081,13.0
MONTECHIARO DENICE,3.7918136908962596,3.0,23,1425,631.0,335.0,55.0,S00872,Montechiaro D.,44.600827,8.352185,3.0
MONTECORVINO,10.818181818181818,8.0,28,1674,11.0,10.0,3.0,S09822,Montecorvino,40.617439,14.944628,18.0
MONTEMAGGIORE,2.8409495548961425,2.0,26,1700,454.0,242.0,89.0,S12203,Montemaggiore,37.859037,13.693193,14.0
MONTEMARCIANO,3.9823100936524454,2.0,29,1925,701.0,511.0,187.0,S07110,Montemarciano,43.651397,13.346478,11.0
MONTENERO PETACCIATO,1.7079037800687284,1.0,20,1455,221.0,119.0,34.0,S07825,Montenero P.,42.033286,14.851015,7.0
MONTEPESCALI,2.48036858974359,1.0,38,2506,581.0,316.0,124.0,S06038,Montepescali,42.869518,11.068743,13.0
MONTEPULCIANO,2.7975622681505032,2.0,37,1890,582.0,267.0,55.0,S06855,Montepulciano,43.135353,11.856865,13.0
MONTI TELTI,1.2438391699092088,1.0,22,771,142.0,56.0,16.0,S12857,Monti Telti,40.829632,9.322814,20.0
MONTICELLO D`ALBA,0.8034188034188035,0.0,19,1361,65.0,36.0,19.0,S00823,Monticello d'A.,44.703736,7.965002,3.0
MONTIRONE,3.8964646464646466,2.0,24,1987,695.0,446.0,200.0,S01840,Montirone,45.451352,10.239482,1.0
MONTJOVET,10.0,4.0,1,2,2.0,1.0,1.0,S00144,Montjovet,45.704586,7.666871,4.0
MONZA,2.729675029594837,2.0,402,26578,7016.0,3812.0,1291.0,S01322,Monza,45.577789,9.273253,1.0
MONZA SOBBORGHI,2.8899430740037952,2.0,40,3185,840.0,392.0,85.0,S01480,Monza Sobborghi,45.582082,9.284375,1.0
MORANO SUL PO,2.0599352051835855,1.0,29,1856,445.0,246.0,55.0,S00177,Morano Po,45.170793,8.366168,3.0
MORI,10.722222222222221,9.0,53,3486,18.0,14.0,9.0,S02046,Mori,45.861216,11.002648,9.0
MORTARA,3.144249049429658,2.0,119,7731,1354.0,779.0,272.0,S00034,Mortara,45.252171,8.731639,1.0
MOTTA SAN GIOVANNI LAZZARO,15.5,4.0,44,2962,2.0,1.0,1.0,S11865,Motta SG Lazzaro,37.976978,15.659977,17.0
MUFFA,,,46,2629,,,,S05974,Muffa,,,
MULINETTI,4.666666666666667,4.0,2,128,2.0,1.0,0.0,S04713,Mulinetti,44.362614,9.129499,2.0
MURATELLA,2.7005049442457394,2.0,157,9625,2217.0,709.0,134.0,S08400,Muratella,41.826182,12.412696,5.0
NAPOLI MERGELLINA,8.294117647058824,6.0,239,18489,22.0,19.0,10.0,S09105,NA Mergellina,40.831531,14.218662,18.0
NAPOLI MONTESANTO,8.605263157894736,6.0,238,18403,22.0,21.0,7.0,S09107,NA Montesanto,40.847807,14.244022,18.0
NAPOLI PIAZZA LEOPARDI,0.48197384977296354,0.0,237,18402,1538.0,805.0,297.0,S09104,NA P. Leopardi,40.82397,14.199117,18.0
NAPOLI S.GIOV.BARRA,0.18721296713192256,0.0,218,16842,731.0,342.0,137.0,S09800,Napoli S.G.Barra,40.831269,14.307811,18.0
NARNI AMELIA,1.5,0.0,41,2554,3.0,2.0,0.0,S07230,Narni Amelia,42.53128,12.519592,6.0
NAVACCHIO,2.7591087021981333,2.0,56,3336,1038.0,537.0,105.0,S06502,Navacchio,43.685941,10.486806,13.0
NERA MONTORO,1.3333333333333333,1.0,18,1135,0.0,0.0,0.0,S07229,Nera Montoro,42.497855,12.476587,6.0
NETTUNO,0.3576598311218335,0.0,58,3339,112.0,64.0,34.0,S08710,Nettuno,41.459558,12.662123,5.0
NOCERA TIRINESE,2.0,2.0,1,1,0.0,0.0,0.0,S11746,Nocera,39.015913,16.119677,17.0
NOCERA UMBRA,2.437449556093624,1.0,18,1245,306.0,191.0,76.0,S07213,Nocera Umbra,43.100663,12.767207,6.0
NOGARA,2.7539358600583093,2.0,57,3435,1073.0,638.0,241.0,S05310,Nogara,45.179937,11.070572,12.0
NOLA INTERPORTO,,,1,1,,,,S09699,Nola Interporto,,,
NOVELLARA,-0.24232081911262798,-1.0,26,1178,96.0,45.0,21.0,S05940,Novellara,,,
OCCHIOBELLO,3.728307254623044,2.0,10,704,263.0,151.0,36.0,S05710,Occhiobello,44.899384,11.621197,12.0
ODERZO,0.34375,0.0,23,1601,141.0,65.0,21.0,S02765,Oderzo,45.775304,12.49293,12.0
OFFIDA CASTEL DI LAMA,1.4673433362753752,1.0,49,2273,343.0,151.0,53.0,S07551,Offida,42.862074,13.720285,11.0
OLCIO,3.979990471653168,2.0,27,2102,786.0,450.0,146.0,S01414,Olcio,45.938011,9.313898,1.0
OMIGNANO SALENTO,3.55622060709705,2.0,37,2349,806.0,541.0,204.0,S11708,Omignano,40.252688,15.134406,18.0
ORIOLO,2.9379029521547335,2.0,57,2948,1060.0,402.0,79.0,S08313,Oriolo,42.166825,12.138499,5.0
ORISTANO,0.2947630922693267,-1.0,55,2528,280.0,172.0,91.0,S12878,Oristano,39.902033,8.603974,20.0
ORNAVASSO,3.310027598896044,2.0,17,1087,307.0,162.0,44.0,S00006,Ornavasso,45.970296,8.415892,3.0
ORSAGO,3.6666666666666665,5.0,33,2120,2.0,1.0,0.0,S02704,Orsago,45.928068,12.434259,12.0
ORTONA,2.303244837758112,1.0,23,1696,414.0,202.0,58.0,S07815,Ortona,42.354196,14.407698,19.0
ORVIETO,4.523097374543037,2.0,52,3087,1085.0,695.0,352.0,S08203,Orvieto,42.723379,12.127412,6.0
OSCHIRI,1.5852941176470587,1.0,30,1361,165.0,99.0,43.0,S12860,Oschiri,40.713273,9.107749,20.0
OSPEDALETTO EUGANEO,2.2151717557251906,1.0,36,2099,384.0,177.0,55.0,S02395,Ospedaletto Eug.,45.221706,11.606553,12.0
OSPITALETTO MANTOVANO,6.285714285714286,4.0,6,478,256.0,182.0,89.0,S01922,Ospitaletto Man.,45.129748,10.604406,1.0
OSTUNI,3.637071272196546,2.0,94,4113,1326.0,774.0,274.0,S11132,Ostuni,40.752356,17.580809,16.0
OTTAVIA,2.340347071583514,2.0,154,9253,1638.0,545.0,114.0,S08324,Ottavia,,,
OZZANO DELL'EMILIA,5.631900212314225,4.0,63,3781,2318.0,1349.0,367.0,S05055,Ozzano Emilia,44.450797,11.487297,8.0
P.C.CANARO,2.1931818181818183,1.0,7,441,110.0,85.0,13.0,S05709,P.C. Canaro,44.923012,11.675223,12.0
P.M. BADESSE,1.9115116755428103,1.0,42,2465,500.0,263.0,61.0,S06826,P.M. Badesse,43.382144,11.277136,13.0
PADERNO DUGNANO,0.21060626985223035,0.0,133,7245,138.0,53.0,12.0,S01082,Paderno Dugnano,,,
PADOVA,0.8631175276336567,0.0,456,25852,3572.0,2007.0,888.0,S02581,Padova,45.417846,11.880794,12.0
PAGANICA,1.0292911540714704,1.0,35,1707,167.0,52.0,12.0,S07416,Paganica,42.334751,13.464317,19.0
PALAZZOLO VERCELLESE,3.6606948968512487,3.0,29,1856,676.0,319.0,89.0,S00175,Palazzolo Verc.,45.189004,8.232787,3.0
PALERMO NOTARBARTOLO,-1.0642235123367199,-1.0,177,10641,96.0,49.0,25.0,S12134,PA Notarbartolo,38.132261,13.341572,14.0
PALIZZI,2.1485380116959063,1.0,14,856,202.0,101.0,29.0,S11859,Palizzi,37.91881,15.986405,17.0
PALMA S.GENNARO,4.793681187170895,3.0,33,2098,991.0,578.0,181.0,S09701,Palma S.Gennaro,40.864149,14.540472,18.0
PANTANELLA,3.076982892690513,3.0,39,2582,1179.0,403.0,25.0,S08699,Pantanella,,,
PANTIERE DI CASTELBELLINO,,,9,620,,,,S07234,Pantiere di C.,43.500941,13.183116,11.0
PARCO LEONARDO,2.643330876934414,2.0,157,9625,2331.0,676.0,134.0,S08412,Parco Leonardo,41.79932,12.29543,5.0
PARGHELIA,4.01782363977486,3.0,18,1075,492.0,211.0,38.0,S11759,Parghelia,38.683341,15.925042,17.0
PARTINICO,3.327058823529412,2.0,16,862,228.0,114.0,60.0,S12124,Partinico,38.05857,13.108956,14.0
PERAROLO DI CADORE,1.8074921956295527,1.0,24,977,189.0,58.0,10.0,S02553,Perarolo di Cad.,46.386277,12.352493,12.0
PERUGIA PONTE S.GIOVANNI,6.222222222222222,3.0,55,3446,4.0,4.0,2.0,S07005,Perugia P.S.G.,43.091801,12.438239,6.0
PESARO,4.234550561797753,2.0,118,7915,2545.0,1793.0,948.0,S07104,Pesaro,43.906014,12.904848,11.0
PESCINA,2.8475836431226766,1.0,8,272,63.0,35.0,13.0,S08532,Pescina,42.037564,13.668981,19.0
PESCOCANALE,6.428571428571429,0.0,11,625,2.0,2.0,2.0,S08811,Pescocanale,41.9589,13.391624,19.0
PESSIONE,2.479369842460615,2.0,33,2678,521.0,183.0,26.0,S00457,Pessione,44.965132,7.841321,3.0
PETTENASCO,3.500430663221361,2.0,18,1161,367.0,204.0,52.0,S00011,Pettenasco,45.820498,8.406802,3.0
PIADENA,5.574509803921568,4.0,62,5002,2522.0,1601.0,503.0,S01919,Piadena,45.127608,10.369962,1.0
PIAN DEL MUGNONE,2.938294010889292,3.0,8,552,165.0,39.0,7.0,S06952,Pian del Mugnone,43.813899,11.265994,13.0
PIANEROTTOLO DI ARIANO,27.0,27.0,1,1,1.0,1.0,1.0,S09317,Pianerottolo A.,41.188984,15.145482,18.0
PIANO D`ORTA BOLOGNANO,4.700361010830325,4.0,10,556,381.0,121.0,9.0,S07714,Piano d'Orta B.,42.254455,13.951514,19.0
PIANORO,0.626831370295892,-1.0,84,3877,343.0,194.0,62.0,S05131,Pianoro,44.380589,11.340675,8.0
PIANZANO,7.428571428571429,5.0,33,2120,6.0,3.0,1.0,S02705,Pianzano,45.913397,12.388168,12.0
PICERNO,3.319761668321748,1.0,19,1137,325.0,246.0,72.0,S09833,Picerno,40.640122,15.641612,15.0
PIEDIMONTE-V.S.L.-AQUINO,1.429575402635432,1.0,71,3423,313.0,174.0,80.0,S08680,Pied.-VSL-Aquino,,,
PIETRAGALLA,3.4579908675799085,2.0,32,2191,674.0,348.0,72.0,S11213,Pietragalla,40.753314,15.79211,15.0
PIEVE EMANUELE,6.5625,7.0,73,5878,13.0,12.0,3.0,S01104,Pieve E.,,,
PIEVE LIGURE,9.857142857142858,11.0,73,3688,6.0,6.0,4.0,S04711,Pieve Ligure,44.372644,9.090975,2.0
PIGNATARO MAGGIORE,12.733333333333333,12.0,37,2290,13.0,11.0,9.0,S09207,Pignataro Mag.,41.17384,14.160545,18.0
PINEROLO OLIMPICA,4.186344238975818,3.0,46,3543,1306.0,663.0,151.0,S00082,Pinerolo Olimpi.,44.893325,7.349043,3.0
PISTOIA OVEST,0.6831194471865746,0.0,12,1013,59.0,21.0,10.0,S05151,Pistoia Ovest,,,
PIZZIGHETTONE,4.799554565701559,3.0,12,450,203.0,121.0,42.0,S01911,Pizzighettone,45.181772,9.777133,1.0
PIZZO,3.3320825515947465,2.0,18,1075,381.0,208.0,36.0,S11753,Pizzo,38.726323,16.150615,17.0
POGGIO MIRTETO,-0.14058577405857742,-1.0,84,4466,173.0,85.0,38.0,S08213,Poggio Mirteto,42.242187,12.633043,5.0
POLICASTRO BUSSENTINO,3.150462962962963,1.0,40,2601,668.0,428.0,161.0,S11718,Policastro,40.076482,15.528438,18.0
POLLENZA,18.0,0.0,24,1150,1.0,1.0,1.0,S07305,Pollenza,43.240933,13.367031,11.0
PONT SAINT MARTIN,2.061974462784179,1.0,82,3215,806.0,457.0,152.0,S00149,Pont S.Martin,45.589834,7.795024,4.0
PONTE A ELSA,1.1700251889168767,1.0,35,2415,272.0,116.0,37.0,S06807,Ponte a Elsa,43.694385,10.906008,13.0
PONTE DELLA VENTURINA,2.156530408773679,2.0,12,1013,237.0,73.0,11.0,S05123,Ponte Venturina,44.128589,10.990756,8.0
PONTE RONCA,,,46,2629,,,,S05919,Ponte R.,,,
PONTE S.MARCO - CALCINATO,,,3,223,,,,S02082,Ponte S.Marco,45.473788,10.409018,1.0
PONTECURONE,3.482441923284711,3.0,36,1868,667.0,357.0,93.0,S01809,Pontecurone,44.962014,8.929717,3.0
PONTELAGOSCURO,3.5007112375533427,2.0,10,704,238.0,141.0,35.0,S05711,Pontelagoscuro,44.873216,11.612526,8.0
PONTENURE,3.315966386554622,2.0,8,604,136.0,87.0,36.0,S05005,Pontenure,45.001687,9.792103,8.0
PORCARI,4.648846370287001,4.0,52,1790,1005.0,648.0,94.0,S06406,Porcari,43.831263,10.619212,13.0
PORTO S. GIORGIO FERMO,3.1384379113646337,2.0,82,4572,1469.0,934.0,313.0,S07508,Porto S.Giorgio,43.17972,13.7975,11.0
POSTIOMA,2.389248382279741,2.0,55,2012,310.0,85.0,20.0,S02601,Postioma,45.715862,12.148248,12.0
POTENZA CENTRALE,0.7017200938232995,-1.0,69,4758,367.0,240.0,131.0,S11420,Potenza Centrale,40.629469,15.806808,15.0
POTENZA SUPERIORE,0.8447681103871215,0.0,41,2838,227.0,125.0,54.0,S11217,Potenza Sup.re,40.64586,15.800966,15.0
PRAJA AJETA TORTORA,3.5950446791226645,1.0,41,2472,792.0,560.0,227.0,S11725,Praja A.T.,39.900832,15.780628,17.0
PRATO BORGONUOVO,40.2,14.0,55,3370,5.0,4.0,4.0,S06426,Prato Borgonuovo,43.893216,11.076222,13.0
PRATOFONTANA,,,26,1178,,,,S05947,Pratofont.,,,
PRATOLA PELIGNA SUPERIORE,3.624559341950646,6.0,35,1707,922.0,865.0,42.0,S07601,Pratola P.S.,42.080415,13.87223,19.0
PRIMOLANO,3.0860692102928127,3.0,15,1131,384.0,134.0,15.0,S02319,Primolano,45.965315,11.700899,12.0
QUATTRO VENTI,1.8964708391086469,1.0,158,9408,1328.0,464.0,119.0,S08005,Quattro Venti,41.880145,12.459731,5.0
QUATTRO VILLE,0.9919669995657837,1.0,60,4624,437.0,222.0,72.0,S05268,Quattro Ville,,,
QUERO VAS,2.4886274509803923,2.0,27,1275,192.0,72.0,18.0,S02565,Quero Vas,45.939306,11.920189,12.0
RACCONIGI,1.5150375939849625,1.0,58,3474,465.0,197.0,56.0,S00602,Racconigi,44.771179,7.685681,3.0
RAGUSA IBLA,1.3333333333333333,-1.0,1,3,1.0,1.0,0.0,S12416,Ragusa Ibla,36.93133,14.750993,14.0
RAPOLANO TERME,3.0,2.0,36,1739,560.0,258.0,56.0,S06850,Rapolano Terme,43.283331,11.602504,13.0
RAVENNA,2.6869653767820774,1.0,120,7552,1269.0,819.0,396.0,S05811,Ravenna,44.419155,12.208404,8.0
RECALE,6.5,3.0,42,2946,5.0,5.0,4.0,S09302,Recale,41.06235,14.30323,18.0
REGGIO DI CALABRIA BOCALE,4.0,4.0,32,2098,1.0,0.0,0.0,S11969,Reggio C.Bocale,,,
REGGIO DI CALABRIA PELLARO,1.1578947368421053,1.0,45,3024,333.0,135.0,25.0,S11867,Reggio C.Pellaro,38.02561,15.650064,17.0
REGGIO DI CALABRIA S.CATERINA,2.25,1.0,45,3047,1.0,0.0,0.0,S11975,R.C.S.Caterina,,,
REGGIO DI CALABRIA S.GREGORIO,0.35805860805860806,0.0,33,2187,127.0,49.0,8.0,S11868,R.C.San Gregorio,38.061274,15.652053,17.0
REGGIO EMILIA AV,5.957561106634435,4.0,48,3736,2030.0,1486.0,613.0,S05254,Reggio Emilia AV,44.779886,10.744171,8.0
REMEDELLO SOTTO,8.282971197574533,7.0,24,1987,1630.0,1210.0,397.0,S01846,Remedello Sotto,45.257477,10.388402,1.0
RESANA,7.0,7.0,37,2217,1.0,1.0,0.0,S02508,Resana,45.634081,11.964251,12.0
RESCALDINA,0.7009793253536453,0.0,85,4597,259.0,84.0,24.0,S01135,Rescaldina,,,
RIETI,-1102.1437670609646,2.0,43,2522,733.0,300.0,76.0,S07405,Rieti,42.405918,12.862596,5.0
RIGOLI,1.5964718853362734,1.0,16,917,190.0,93.0,15.0,S06401,Rigoli,43.789681,10.419663,13.0
RIGOROSO,6.0,6.0,4,315,1.0,1.0,0.0,S04208,Rigoroso,44.670577,8.896487,3.0
RIMINI TORRE PEDRERA,3.39651596847781,1.0,45,2452,430.0,308.0,178.0,S05819,Torre Pedrera,44.106987,12.508755,8.0
RIO DI PUSTERIA,0.9939117199391172,1.0,10,661,29.0,10.0,2.0,S02102,Rio di Pusteria,46.79712,11.670028,9.0
RIOMAGGIORE,9.0,6.0,118,4803,18.0,15.0,3.0,S04736,Riomaggiore,44.105203,9.729105,2.0
RIONERO ATELLA RIPACANDITA,2.902981940361193,2.0,35,2382,821.0,457.0,91.0,S11209,Rionero A.Ripac.,40.922066,15.678699,15.0
ROBECCO-PONTEVICO,2.6712436249509612,2.0,32,2551,819.0,395.0,112.0,S01904,Robecco P.,45.266224,10.078593,1.0
ROBILANTE,0.22659176029962547,0.0,36,1607,94.0,39.0,16.0,S00615,Robilante,44.296496,7.510906,3.0
ROCCA D`EVANDRO,3.8169267707082835,3.0,29,1683,630.0,393.0,145.0,S09200,ROCCA D'EVAN.,41.438861,13.911338,5.0
ROCCALUMERA MANDANICI,2.979431929480901,1.0,37,2051,600.0,367.0,114.0,S12312,Roccalumera M.,37.972946,15.391411,14.0
ROCCASECCA,0.5389940009229349,0.0,83,4340,372.0,225.0,104.0,S08668,Roccasecca,41.526377,13.645814,5.0
ROCCHETTA TANARO CERRO,1.6086547507055504,1.0,21,1069,156.0,61.0,20.0,S00466,Rocchetta T.C.,44.875574,8.351402,3.0
RODALLO,1.8884036875303252,1.0,34,2068,379.0,187.0,66.0,S00159,Rodallo,45.278714,7.878025,3.0
ROMA AURELIA,1.1981556455240665,1.0,68,4460,596.0,260.0,79.0,S08025,Aurelia,41.88344,12.395271,5.0
ROMA CASILINA,37.833333333333336,7.0,5,6,4.0,4.0,3.0,S08674,Roma Casilina,41.87669,12.537297,5.0
ROMA S.FILIPPO NERI,1.49550622631294,1.0,154,9253,1216.0,423.0,99.0,S08325,RM S.Filippo N.,41.950262,12.412414,5.0
ROMA TRASTEVERE,-10.960750157518254,2.0,436,27165,6985.0,2683.0,469.0,S08405,Roma Trastevere,41.872279,12.466162,5.0
ROMA TUSCOLANA,0.7905959835888577,0.0,329,20613,1989.0,842.0,247.0,S08408,Roma Tuscolana,41.879384,12.523505,5.0
ROMAGNANO SESIA,-9.0,-14.0,2,2,0.0,0.0,0.0,S00109,Romagnano Sesia,45.629888,8.384581,3.0
ROMANO,2.46021007655332,1.0,76,5628,1341.0,833.0,346.0,S01711,Romano,45.523839,9.753402,1.0
ROMETTA MESSINESE,1.1946360153256705,1.0,40,2615,300.0,138.0,30.0,S12049,Rometta Messin.,38.228455,15.405894,14.0
ROSA`,0.75,1.0,33,2172,0.0,0.0,0.0,S02521,Rosa',45.72054,11.775799,12.0
ROSIGNANO,2.482468849608809,1.0,62,3465,863.0,527.0,188.0,S06730,Rosignano,43.387899,10.438041,13.0
ROSSIGLIONE,3.027808676307008,2.0,24,1802,595.0,297.0,97.0,S04104,Rossiglione,44.566955,8.668051,2.0
ROVIANO,1.041077441077441,0.0,23,1493,210.0,123.0,50.0,S08515,Roviano,42.026476,12.991119,5.0
ROVIGLIANO,4.5,3.0,9,81,1.0,1.0,0.0,S09771,Rovigliano,,,
RUSSI,4.250198360222163,3.0,56,3808,1530.0,856.0,331.0,S05903,Russi,44.379011,12.03164,8.0
S. AMBROGIO,2.3070097604259097,1.0,46,3391,552.0,272.0,71.0,S00213,S. Ambrogio,45.101161,7.360933,3.0
S. ANTONINO DI SALUGGIA,3.657648794884407,2.0,34,2036,745.0,433.0,112.0,S00236,S. Ant. di Sal.,45.253967,8.039728,3.0
S. CASSIANO VALCHIAVENNA,1.5917808219178082,1.0,33,2566,496.0,193.0,51.0,S01401,S. Cassiano V.,46.275438,9.397419,1.0
S. CRISTINA E BISSONE,5.3741125068268705,4.0,22,1837,1085.0,676.0,141.0,S01866,S.Cristina e Bis,45.160533,9.401006,1.0
S. DONA` DI PIAVE,2.19087708556559,1.0,88,6548,1293.0,629.0,202.0,S02666,S.Dona' di Piave,45.63983,12.559791,12.0
S. EUROSIA,2.079408330089529,1.0,64,2610,305.0,162.0,69.0,S08739,S. Eurosia,41.675927,12.755105,5.0
S. GENNARO,2.549174690508941,1.0,70,2969,500.0,250.0,92.0,S08737,San Gennaro,,,
S. GIACOMO DI TEGLIO,2.4272445820433437,2.0,5,323,59.0,40.0,17.0,S01436,S. Giacomo di T.,46.159722,10.027405,1.0
S. GIOVANNI IN CROCE,5.0661538461538465,4.0,33,2603,1328.0,884.0,275.0,S01849,S.Giov. in Croce,45.075783,10.377527,1.0
S. MARIA DELLE MOLE,4.731481481481482,4.0,80,3604,1914.0,959.0,224.0,S08738,S.Maria Mole,41.774417,12.606225,5.0
S. PIETRO A VICO,3.1483198146002316,2.0,29,1731,573.0,285.0,80.0,S06313,S. Pietro a Vico,43.875094,10.530945,13.0
S. PIETRO BERBENNO,3.651149425287356,2.0,21,1742,670.0,371.0,110.0,S01428,S. Pietro B.,46.161347,9.740491,1.0
S. PIETRO VERNOTICO,9.4,9.0,64,2697,5.0,5.0,2.0,S11141,S.Pietro V.co,40.48902,18.000716,16.0
S. STINO DI LIVENZA,1.8740313272877165,1.0,79,6085,927.0,482.0,153.0,S02664,S. Stino di Liv.,45.721088,12.682769,12.0
S. ZENO FOLZANO,3.3072835953066195,2.0,55,4537,1082.0,573.0,265.0,S01900,S. Zeno Folzano,45.491552,10.211683,1.0
S. ZENONE AL LAMBRO,32.0,32.0,100,3503,1.0,1.0,1.0,S01823,S. Zenone al L.,45.337824,9.36126,1.0
S.AGAPITO LONGANO,-0.5,-1.0,1,2,0.0,0.0,0.0,S09056,S.Agapito Long.,,,
S.AGATA M.,1.2687576875768758,-1.0,78,4692,637.0,415.0,203.0,S12027,S.Agata M.,38.073554,14.640622,14.0
S.ANDREA DELL`JONIO,11.0,11.0,1,1,1.0,1.0,1.0,S11840,S.Andrea Jonio,38.620097,16.553449,17.0
S.BENEDETTO DEL TRONTO,3.946287253746422,2.0,119,6504,2263.0,1405.0,588.0,S07513,S.Benedetto T.,42.954386,13.882297,11.0
S.BIAGIO DI CALLALTA,0.47095565271705186,0.0,23,1601,127.0,77.0,23.0,S02761,S.Biagio C.,45.686134,12.374316,12.0
S.CASSIANO,4.270370370370371,3.0,19,1354,675.0,362.0,63.0,S06615,S.Cassiano,44.143684,11.687503,8.0
S.CATERINA DELL`JONIO,3.626237623762376,3.0,9,408,197.0,159.0,29.0,S11842,S.Caterina Jonio,38.530452,16.571093,17.0
S.CLAUDIO,,,2,26,,,,S07312,S.Claudio,43.287357,13.532751,11.0
S.CRISTOFORO AL LAGO-ISCHIA,3.88566953797964,3.0,17,1278,558.0,274.0,27.0,S02306,S.Cristoforo,46.039743,11.23375,9.0
S.ELENA - ESTE,1.819026790595954,1.0,29,1841,443.0,220.0,44.0,S05704,S.Elena - Este,45.199209,11.712883,12.0
S.FLAVIA,4.333333333333333,4.0,51,3007,3.0,0.0,0.0,S12009,S.Flavia,38.0826,13.530625,14.0
S.GIORGIO P.,3.2248201438848922,2.0,52,3341,1042.0,632.0,204.0,S05723,S.Giorgio P.,44.646641,11.37901,8.0
S.GIULIANO TERME,1.3947878526814559,1.0,82,4666,761.0,394.0,110.0,S06400,S.Giuliano Terme,43.764895,10.436892,13.0
S.ILARIO,3.1504900411002215,2.0,45,3177,935.0,534.0,196.0,S05021,S.Ilario dÂ¿Enza,44.765795,10.450469,8.0
S.LIBERATO,2.0,2.0,3,146,1.0,0.0,0.0,S07235,S.Liberato,42.478853,12.443006,6.0
S.LORENZO COLLI,0.5150488339645206,0.0,71,5021,152.0,60.0,20.0,S12132,S.Lorenzo Colli,38.16292,13.316449,14.0
S.LORENZO MAGGIORE,4.032341526520052,2.0,16,783,298.0,218.0,105.0,S09308,S.Lorenzo M.,41.219748,14.648419,18.0
S.MARCELLINO FRIGNANO,3.294411828658404,1.0,78,4627,1252.0,912.0,395.0,S09005,S.Marcellino F.,40.992103,14.171976,18.0
S.MARIA CAPUA VETERE,3.4203056768558953,2.0,48,2783,927.0,506.0,162.0,S09209,S.Maria Capua V.,41.07353,14.254081,18.0
S.MARTINO DI LUPARI,4.888888888888889,6.0,34,2129,7.0,5.0,0.0,S02536,S.Martino di Lup,45.655928,11.857227,12.0
S.MARTINO IN GATTARA,5.149220489977728,4.0,20,1352,841.0,476.0,76.0,S06613,S.Martino in G.,44.113211,11.667077,8.0
S.MICHELE IN BOSCO,6.304621848739496,4.0,6,478,254.0,182.0,89.0,S01924,S.Michele in B.,45.122404,10.57329,1.0
S.NAZARIO,2.426156583629893,2.0,15,1131,195.0,46.0,13.0,S02503,S.Nazario,45.838117,11.691321,12.0
S.NICOLA T.,6.857142857142857,6.0,51,3007,5.0,4.0,2.0,S12012,S.Nicola T.,38.015817,13.612755,14.0
S.STEFANO LODIGIANO,8.0,8.0,38,2809,1.0,1.0,0.0,S01829,S.Stefano Lodig.,45.122091,9.723606,1.0
S.VITO AL TAGLIAMENTO,2.2422802850356294,2.0,26,1692,530.0,170.0,9.0,S02660,S. Vito al Tagl.,45.912433,12.851594,10.0
S.VITO LANCIANO,2.388888888888889,1.0,22,1620,400.0,212.0,61.0,S07817,S.Vito Lanciano,42.307401,14.448093,19.0
SACILE,0.7938349353662578,0.0,126,7159,844.0,471.0,172.0,S02703,Sacile,45.948413,12.498498,10.0
SACILE SAN LIBERALE,,,7,491,,,,S03089,Sacile S.Lib.le,45.959155,12.514778,10.0
SALANDRA,5.284848484848485,4.0,4,331,174.0,113.0,36.0,S11457,Salandra,40.583446,16.351564,15.0
SALETTO,1.7873152122079161,1.0,36,2099,452.0,171.0,43.0,S02394,Saletto,45.22274,11.535093,12.0
SALICETO,1.7605202754399387,1.0,18,1309,119.0,52.0,25.0,S00744,Saliceto,44.404437,8.172887,3.0
SALINE DI REGGIO,1.6501386962552012,1.0,43,2887,340.0,130.0,29.0,S11864,Saline di Reggio,37.938677,15.710664,17.0
SALUGGIA,3.35752688172043,2.0,38,2237,732.0,389.0,98.0,S00235,Saluggia,45.23443,8.017112,3.0
SAMOGGIA,3.667304015296367,2.0,45,3165,1016.0,681.0,270.0,S05039,Samoggia,44.567307,11.146221,8.0
SAMPIERI,2.843358395989975,1.0,14,808,215.0,123.0,49.0,S12419,Sampieri,36.73188,14.744577,14.0
SAN GAVINO,0.5,-1.0,85,4121,433.0,269.0,128.0,S12882,San Gavino,39.546206,8.788017,20.0
SAN GIORGIO DI NOGARO,1.280143971205759,0.0,45,3342,458.0,254.0,106.0,S03205,S.Giorgio Nogaro,45.82917,13.210315,10.0
SAN LEONARDO DI CUTRO,3.0,2.0,1,2,1.0,0.0,0.0,S11827,S.Leonardo Cutro,38.954221,16.964409,17.0
SAN MARCO D`ALUNZIO T.,2.291857798165138,1.0,27,1751,295.0,124.0,33.0,S12028,S.Marco d'Alunz.,38.094202,14.675909,14.0
SANFRE`,1.8313432835820895,0.0,37,2696,438.0,204.0,55.0,S00731,Sanfre',44.74799,7.796793,3.0
SANTA DOMENICA,3.463849765258216,2.0,18,1075,333.0,160.0,38.0,S11786,S.Domenica,38.663764,15.859822,17.0
SANTA TERESA DI RIVA,2.7036334913112166,1.0,52,3192,955.0,589.0,193.0,S12314,S.Teresa Riva,37.946295,15.367682,14.0
SANTHIA`,2.001783060921248,1.0,125,7878,1369.0,721.0,221.0,S00240,SANTHIA',45.363726,8.180093,3.0
SANTO STEFANO DI CAMASTRA,1.1474878444084278,-1.0,44,2482,316.0,211.0,96.0,S12024,S.Stefano di C.,38.01778,14.35104,14.0
SARZANA,2.710871104815864,2.0,98,5820,1734.0,1033.0,330.0,S06007,Sarzana,44.108865,9.960657,2.0
SASSA TORNIMPARTE,-4092.6241357636704,1.0,27,1592,176.0,84.0,33.0,S07413,Sassa Tornimpart,42.360549,13.295333,19.0
SASSARI,1.277602523659306,1.0,46,2352,220.0,97.0,42.0,S12807,Sassari,40.729506,8.554157,20.0
SASSONE,3.0504462553356615,3.0,39,2582,816.0,264.0,27.0,S08712,Sassone,41.783777,12.625832,5.0
SAVIGNANO SUL RUBICONE,3.8307138179436806,2.0,42,3074,999.0,601.0,190.0,S05068,Savign.sul Rub.,44.095191,12.40421,8.0
SCAFATI,1.875831485587583,1.0,68,4987,979.0,456.0,179.0,S09811,Scafati,40.746028,14.523253,18.0
SCERNE DI PINETO,,,50,2971,,,,S07805,Scerne di Pineto,42.642427,14.041324,19.0
SCHIO,-2.032863849765258,-3.0,37,2694,67.0,46.0,20.0,S02140,Schio,45.710848,11.355508,12.0
SCHIVENOGLIA,3.0216010165184244,1.0,14,1000,212.0,127.0,56.0,S05158,Schivenoglia,,,
SCILLA,7.5,4.0,54,3140,2.0,1.0,1.0,S11772,Scilla,38.251202,15.710886,17.0
SCORCETOLI,5.412280701754386,4.0,3,115,67.0,42.0,7.0,S06164,Scorcetoli,44.34431,9.911853,13.0
SELLIA MARINA,3.0,3.0,1,1,0.0,0.0,0.0,S11831,Sellia Marina,38.903666,16.764788,17.0
SENIGALLIA,3.0693290087168053,2.0,77,4962,1524.0,987.0,337.0,S07108,Senigallia,43.716277,13.221652,11.0
SERENELLA,3.170165252344797,3.0,34,2247,736.0,249.0,29.0,S01073,Serenella,,,
SERRAVALLE,6.8,5.0,35,2401,3.0,2.0,1.0,S02048,Serravalle,45.808184,11.014942,9.0
SERRAVALLE PISTOIESE,3.876571428571429,3.0,31,1766,735.0,416.0,129.0,S06413,Serravalle Pist.,43.908016,10.85168,13.0
SESTRI LEVANTE,0.5757410189864772,-1.0,184,10652,1521.0,945.0,361.0,S04725,Sestri Levante,44.27626,9.397651,2.0
SETTIMO,2.3636036684049633,2.0,84,5595,1285.0,553.0,93.0,S00229,Settimo,45.139834,7.769335,3.0
SETTIMO TAVAGNASCO,21.818181818181817,8.0,8,11,8.0,7.0,5.0,S00151,Settimo Tavagn.,45.546214,7.825189,3.0
SIENA,0.38892831795599714,-1.0,137,8093,520.0,234.0,105.0,S06809,Siena,43.331708,11.322972,13.0
SIENA ZONA INDUSTRIALE,8.0,8.0,1,1,1.0,1.0,0.0,S06867,Siena Zona Ind.,43.26528,11.376652,13.0
SILIQUA,0.13879598662207357,-1.0,54,2996,214.0,114.0,58.0,S12954,Siliqua,39.297005,8.813078,20.0
SIPICCIANO,2.1658456486042694,1.0,18,1218,221.0,115.0,40.0,S08300,Sipicciano,42.546495,12.254318,5.0
SOFFRATTA,3.1542404473438954,2.0,35,2146,555.0,284.0,68.0,S02732,Soffratta,45.976377,12.299346,12.0
SOLIGNANO,10.825396825396826,7.0,64,3243,45.0,38.0,25.0,S06156,Solignano,44.614024,9.98014,8.0
SOLOPACA,4.647773279352227,3.0,24,1246,563.0,437.0,191.0,S09307,Solopaca,41.210521,14.571413,18.0
SONDRIO,4.134434726271461,2.0,76,4339,1071.0,716.0,300.0,S01430,Sondrio,46.167064,9.872928,1.0
SPELLO,2.771088322858088,2.0,46,3041,878.0,462.0,115.0,S07010,Spello,42.9844,12.668884,6.0
SPINET.V.S.PIO X,6.0,6.0,11,555,1.0,1.0,0.0,S07022,SPINET.V.S.PIO X,,,
SPOLETO,2.991129509166174,1.0,57,3463,970.0,636.0,292.0,S07221,Spoleto,42.748121,12.736142,6.0
SPRESIANO,1.7476485432438633,1.0,71,4378,712.0,330.0,112.0,S02709,Spresiano,45.77763,12.266984,12.0
STABIO,0.26463104325699743,-1.0,72,4025,195.0,106.0,44.0,S19919,STABIO,,,
STRADA CASALE,5.20627802690583,5.0,3,224,139.0,91.0,13.0,S06617,Strada Casale,44.183511,11.697496,8.0
STRESA,3.7513706140350878,2.0,88,3679,1393.0,896.0,323.0,S01016,Stresa,45.884486,8.531454,3.0
STREVI,4.207920792079208,4.0,21,1322,714.0,332.0,47.0,S00866,Strevi,44.697771,8.525525,3.0
SU CANALE,3.258660508083141,2.0,10,435,151.0,79.0,11.0,S12896,Su Canale,40.838375,9.404226,20.0
TAGLIATA,0.0,0.0,24,1765,0.0,0.0,0.0,S05959,Tagliata,,,
TASSIGNANO,4.559082892416225,4.0,51,1714,948.0,608.0,89.0,S06405,Tassignano,43.834131,10.570495,13.0
TEANO,2.559375,1.0,48,2942,700.0,389.0,145.0,S09205,Teano,41.231804,14.077075,18.0
TEGLIO VENETO,4.5,2.0,26,1692,1.0,1.0,0.0,S02662,Teglio Veneto,45.809887,12.858938,12.0
TERONTOLA CORTONA,4.11327030812325,2.0,102,6397,2319.0,1344.0,494.0,S06922,Terontola,43.210263,12.007906,13.0
TERZO MONTABONE,3.415666901905434,3.0,23,1425,553.0,281.0,43.0,S00869,Terzo Montabone,44.671932,8.428705,3.0
THIENE,1.8859160163507989,1.0,37,2694,509.0,191.0,57.0,S02143,Thiene,45.700697,11.475407,12.0
TITO,0.6376306620209059,-1.0,5,310,21.0,11.0,5.0,S09834,Tito,40.607321,15.698194,15.0
TOLENTINO,2.4871345029239764,2.0,37,1717,562.0,275.0,64.0,S07304,Tolentino,43.214556,13.290501,11.0
TOLLO CANOSA SANNITA,6.142857142857143,6.0,20,1455,9.0,8.0,2.0,S07814,Tollo Canosa S.,42.394208,14.339984,19.0
TORINO P.NUOVA,1.8365623889086384,1.0,381,23067,2208.0,1251.0,616.0,S00219,Torino P.Nuova,45.060969,7.67747,3.0
TORINO STURA,1.2691096178076438,1.0,202,13738,1484.0,617.0,116.0,S00228,Torino Stura,45.121932,7.713202,3.0
TORRE DEL GRECO,1.4234299082238617,1.0,84,5577,836.0,435.0,165.0,S09803,Torre del Greco,40.787631,14.363159,18.0
TORRE IN PIETRA-PALIDORO,4.666666666666667,3.0,72,4707,1.0,1.0,0.0,S08019,Torre in Piet. P,41.92432,12.183116,5.0
TORRE ORSAIA,12.428571428571429,14.0,21,1299,6.0,6.0,6.0,S11717,Torre Orsaia,40.099017,15.481204,18.0
TORREBERETTI,2.8021739130434784,2.0,62,3813,1101.0,529.0,135.0,S00039,Torreberetti,45.060533,8.660431,1.0
TORREGROTTA,10.928571428571429,11.0,39,2540,14.0,13.0,9.0,S12061,Torregrotta,38.208376,15.352813,14.0
TRACCIA,4.431718061674009,3.0,7,484,100.0,29.0,10.0,S09122,Traccia,,,
TRAVEDONA BIANDRONNO,4.14041404140414,2.0,32,2230,813.0,471.0,145.0,S01142,Travedona Biand.,45.809601,8.696322,1.0
TRENTO,2.437492593909231,2.0,169,10122,2703.0,1541.0,561.0,S02038,Trento,46.072414,11.118941,21.0
TREVIGLIO,1.5002269632319565,0.0,284,19914,3036.0,1882.0,726.0,S01708,Treviglio,45.515063,9.587919,1.0
TREZZANO S.N.,3.0,3.0,69,3253,0.0,0.0,0.0,S01065,Trezzano S.N.,45.422203,9.071196,1.0
TRINITAPOLI S.FERDIN. DI P.,3.190557065217391,2.0,67,2946,893.0,512.0,162.0,S11106,Trinitapoli,41.349677,16.090839,16.0
TRINITA` BENE VAGIENNA,1.15527950310559,1.0,18,1295,69.0,44.0,7.0,S00950,Trinita' B. V.,44.504656,7.752647,3.0
TUORO SUL TRASIMENO,4.166371681415929,3.0,8,567,274.0,169.0,26.0,S07000,Tuoro sul Tr.,43.196631,12.0796,6.0
TUSA,0.3147468818782098,-1.0,24,1371,122.0,81.0,36.0,S12022,Tusa,38.007989,14.256693,14.0
URAS MOGORO,2.5394594594594593,1.0,45,1852,428.0,232.0,78.0,S12880,Uras Mogoro,39.692629,8.696459,20.0
VADA,3.587150127226463,2.0,30,1582,550.0,299.0,86.0,S06025,Vada,43.352641,10.470376,13.0
VAIRANO,2.606898602438299,2.0,63,3637,867.0,506.0,229.0,S09203,Vairano,41.317446,14.104022,18.0
VALLECROSIA,13.357142857142858,10.0,23,1190,10.0,9.0,7.0,S04502,Vallecrosia,43.787619,7.634997,2.0
VALLO DELLA LUC. CASTELNUOVO,5.444998687319506,2.0,59,3827,1484.0,1051.0,483.0,S11709,Vallo d.Lucania,40.233316,15.266511,18.0
VARALLO POMBIA,2.673449612403101,2.0,14,1034,195.0,70.0,20.0,S00982,Varallo Pombia,45.670032,8.620047,3.0
VARIGNANA,5.458618721461187,4.0,58,3520,2165.0,1198.0,307.0,S05052,Varignana,44.436796,11.523078,8.0
VENAFRO,-2.0032,-2.0,44,2046,140.0,92.0,48.0,S09060,Venafro,41.482975,14.048722,7.0
VENEZIA CARPENEDO,10.892857142857142,9.0,51,3716,23.0,20.0,12.0,S02672,Venezia Carpen.,45.506697,12.247609,12.0
VENEZIA PORTO MARGHERA,6.613793103448276,6.0,278,16648,252.0,156.0,31.0,S02592,V.Porto Marghera,45.472381,12.256536,12.0
VERCELLI,1.7599825758675767,1.0,110,7784,1253.0,658.0,241.0,S00245,Vercelli,45.329909,8.416028,3.0
VERDELLO DALMINE,1.2969211822660098,1.0,111,8159,939.0,494.0,192.0,S01600,Verdello Dalmine,45.605715,9.619797,1.0
VESPOLATE,2.5419847328244276,2.0,31,1711,359.0,177.0,48.0,S00031,Vespolate,45.351517,8.671947,3.0
VEZZANO LIGURE,2.294868455326908,1.0,64,3851,973.0,535.0,161.0,S06171,Vezzano Ligure,44.127081,9.88928,2.0
VIAREGGIO,3.200391107451626,2.0,229,11909,3313.0,1941.0,619.0,S06040,Viareggio,43.865947,10.257886,13.0
VIBO MARINA,4.121065375302663,3.0,26,1250,446.0,227.0,68.0,S11754,Vibo Marina,38.713731,16.120199,17.0
VICCHIO,2.786525359576079,2.0,45,2666,776.0,428.0,94.0,S06700,Vicchio,43.933463,11.457634,13.0
VICENZA,0.7301413665432515,0.0,250,15147,2004.0,1155.0,495.0,S02446,Vicenza,45.541102,11.540762,12.0
VICOFERTILE,2.5160680529300565,2.0,50,2130,537.0,301.0,95.0,S06150,Vicofertile,44.778436,10.25834,8.0
VIEVOLA,,,6,34,,,,S00618,Vievola,,,
VIGLIANO D`ASTI,1.4804347826086957,1.0,16,994,70.0,32.0,11.0,S00802,Vigliano d'Asti,44.827335,8.218271,3.0
VIGNA DI VALLE,3.7410008779631254,3.0,31,2304,905.0,300.0,32.0,S08316,Vigna di Valle,42.076863,12.210716,5.0
VIGNOLA,1.851664984863774,1.0,35,2036,136.0,68.0,32.0,S05978,VIGNOLA,,,
VILLA DI TIRANO,2.2422360248447206,1.0,5,323,39.0,25.0,13.0,S01439,Villa di Tirano,46.196164,10.13033,1.0
VILLA S.G.CANNITELLO,1.0,1.0,1,1,0.0,0.0,0.0,S11773,V.S.G.Cannitello,38.23409,15.653246,17.0
VILLADOSSOLA,1.6339362618432385,1.0,18,1161,138.0,68.0,26.0,S00001,Villadossola,46.064151,8.264675,3.0
VILLAFRANCA - BAGNONE,2.3721739130434782,1.0,55,3468,924.0,540.0,158.0,S06166,Villafranca-Bagn,44.294399,9.948096,13.0
VILLAFRANCA C.,0.7164129715420251,0.0,39,3057,411.0,222.0,30.0,S00459,Villafranca C.,44.908916,8.043692,3.0
VILLAFRANCA DI VERONA,2.7345299952763344,2.0,30,2119,601.0,287.0,80.0,S02331,Villafranca D.V.,45.349801,10.849016,12.0
VILLAFRANCA TIRRENA,11.25,11.0,40,2615,8.0,8.0,5.0,S12050,Villafranca T.,38.233517,15.42892,14.0
VILLALUNGA,,,16,784,,,,S05980,VILLALUNGA,,,
VILLASANTA,1.8948863636363635,1.0,40,3185,667.0,330.0,77.0,S01481,Villasanta,45.603434,9.304923,1.0
VILLASOR,1.1902897415818323,1.0,56,2558,257.0,140.0,59.0,S12887,Villasor,39.381451,8.935907,20.0
VIPITENO,1.245758483033932,-1.0,56,4038,656.0,450.0,210.0,S02006,Vipiteno,46.895732,11.440206,9.0
VITERBO PORTA FIORENTINA,0.6864784546805349,0.0,57,2725,136.0,82.0,42.0,S08304,Viterbo P.F.,42.425237,12.106204,5.0
VITTUONE ARLUNO,3.1171457219251337,2.0,105,5997,1854.0,942.0,245.0,S01042,Vittuone Arluno,45.491054,8.947299,1.0
VOGOGNA OSSOLA,3.5439895470383274,2.0,48,2304,631.0,396.0,141.0,S01008,Vogogna Ossola,46.005883,8.294664,3.0
VOLTANA,2.8746203904555316,2.0,35,2316,586.0,266.0,72.0,S05807,Voltana,44.540369,11.93605,8.0
ZAPPULLA,1.0953740719588807,0.0,30,1758,193.0,111.0,36.0,S12029,Zappulla,38.116962,14.703086,14.0
ZINASCO NUOVO,5.871120462914256,5.0,28,1923,1301.0,677.0,140.0,S00401,Zinasco Nuovo,45.124555,8.999657,1.0
ZOAGLI,13.5,10.0,68,3126,4.0,4.0,3.0,S04721,Zoagli,44.33546,9.269126,2.0
ABANO TERME,1.7758945386064031,2.0,34,2134,459.0,268.0,66.0,S05700,Abano Terme,45.355199,11.811533,12.0
ABBADIA LARIANA,1.2241537053979872,1.0,28,2187,333.0,219.0,99.0,S01416,Abbadia Lariana,45.895864,9.335175,1.0
ACERRA,3.0193548387096776,2.0,78,5156,1494.0,778.0,263.0,S09215,Acerra,40.939066,14.372243,18.0
ACQUA ACETOSA,2.9712732919254656,2.0,39,2582,812.0,276.0,29.0,S08715,Acqua Acetosa,41.794294,12.616449,5.0
ACQUAPPESA,14.0,12.0,14,972,2.0,2.0,2.0,S11736,Acquappesa,39.48648,15.955992,17.0
ACQUI TERME,3.531089978054133,3.0,66,4447,994.0,453.0,103.0,S00867,Acqui Terme,44.67407,8.474482,3.0
AGRIGENTO BASSA,1.4055533828705515,1.0,38,2597,364.0,172.0,60.0,S12213,Agrigento Bassa,37.319148,13.588094,14.0
AGROPOLI CASTELLABATE,4.873589817761064,1.0,56,3472,1200.0,874.0,446.0,S11705,Agropoli,40.351521,15.002053,18.0
AIELLI,2.481132075471698,1.0,9,213,28.0,21.0,8.0,S08550,Aielli,,,
AIRASCA,4.418723404255319,4.0,46,3543,2073.0,1247.0,134.0,S00514,Airasca,44.928093,7.483536,3.0
AIROLE,,,6,34,,,,S04481,Airole,43.870494,7.552757,2.0
ALASSIO,4.998250983821601,4.0,87,4662,2412.0,1614.0,490.0,S04515,Alassio,44.007889,8.17112,2.0
ALBANO DI LUCANIA,3.211480362537764,1.0,4,331,86.0,52.0,14.0,S11453,Albano Lucania,40.574707,16.021247,15.0
ALBANO S.ALESSANDRO,,,39,3211,,,,S01534,Albano S.Aless.,45.682744,9.768027,1.0
ALBANOVA,12.3125,13.0,78,4627,13.0,13.0,9.0,S09004,Albanova,40.996117,14.128596,18.0
ALBATE-TRECALLO,2.538695917123705,2.0,22,1649,396.0,160.0,19.0,S01450,Albate-Trecallo,45.777391,9.095752,1.0
ALBIZZATE SOLBIATE ARNO,2.3112281976744184,1.0,110,5619,1534.0,980.0,359.0,S01209,Albizzate S.A.,45.724117,8.80621,1.0
ALESSANDRIA,1.5147174918236157,1.0,220,13332,2191.0,1294.0,395.0,S00470,Alessandria,44.909091,8.606498,3.0
ALICE BELCOLLE,0.9135538954108858,0.0,16,994,36.0,18.0,7.0,S00809,Alice Belcolle,44.722636,8.440076,3.0
ALI` TERME,2.3354621848739496,1.0,52,2999,722.0,459.0,163.0,S12310,Ali' Terme,38.013952,15.435184,14.0
ALTOPASCIO,4.433988439306359,4.0,121,4355,2290.0,1396.0,292.0,S06407,Altopascio,43.817418,10.672754,13.0
AMANTEA,3.2447706422018348,0.0,51,2735,529.0,355.0,208.0,S11744,Amantea,39.134353,16.068448,17.0
AMBIVERE MAPELLO,3.6120317002881843,3.0,35,2784,946.0,492.0,114.0,S01527,Ambivere Mapello,45.722163,9.550444,1.0
ANCONETTA,0.7689450222882616,1.0,37,2694,1011.0,245.0,47.0,S02141,Anconetta,45.565249,11.567865,12.0
ANGRI,3.381997583568264,3.0,68,4987,1878.0,809.0,211.0,S09812,Angri,40.746404,14.575366,18.0
ANTRODOCO BORGO VELINO,-2235.2486602357985,2.0,32,1867,486.0,206.0,64.0,S07408,Antrodoco B.V.,42.415393,13.076193,5.0
ANZIO,1.8323786554115165,2.0,58,3339,370.0,144.0,63.0,S08709,Anzio,41.4532,12.633205,5.0
ANZIO COLONIA,2.0853174603174605,2.0,54,3037,333.0,123.0,60.0,S08713,Anzio Colonia,41.459893,12.617442,5.0
APPIANO,2.130678693213068,1.0,152,9122,1414.0,496.0,110.0,S08328,Appiano,41.909342,12.43838,5.0
ARDORE,2.293286219081272,1.0,12,850,187.0,116.0,39.0,S11853,Ardore,38.175698,16.207311,17.0
AREZZO,2.498925963053129,1.0,144,8833,2075.0,1273.0,532.0,S06915,Arezzo,43.461725,11.874189,13.0
ARIANO IRPINO,2.95,1.0,4,202,61.0,48.0,28.0,S09316,Ariano Irpino,41.181883,15.117508,18.0
ARQUA`,3.32574679943101,2.0,10,704,245.0,147.0,42.0,S05707,Arqua',45.006465,11.748518,12.0
ARTEGNA,3.0,3.0,23,1405,0.0,0.0,0.0,S03021,Artegna,46.23115,13.162328,10.0
ASCEA,5.554993252361673,2.0,51,2976,1123.0,797.0,356.0,S11711,Ascea,40.140955,15.172626,18.0
ASCIANO MONTE OLIVETO MAGGIORE,3.4520408163265306,3.0,38,1966,721.0,303.0,55.0,S06825,Asciano M.O.M.,43.231706,11.563621,13.0
ASCOLI SATRIANO,2.3459119496855347,1.0,10,636,181.0,117.0,37.0,S11203,Ascoli Satriano,41.219859,15.547828,16.0
ASSEMINI CARMINE,0.21823334907888522,0.0,39,2127,119.0,31.0,6.0,S12809,ASSEMINI C.,,,
ASSISI,3.4163802978235966,2.0,56,3522,1376.0,846.0,195.0,S07008,Assisi,43.058921,12.585304,6.0
ASSO,0.016695957820738138,0.0,32,2240,0.0,0.0,0.0,S01101,ASSO,45.855228,9.268513,1.0
AVERSA,2.4700595877698546,1.0,172,10423,2367.0,1630.0,781.0,S09006,Aversa,40.973323,14.218578,18.0
AVIGLIANA,1.4185970636215335,1.0,110,6139,868.0,466.0,128.0,S00214,Avigliana,45.085276,7.401096,3.0
BAGGIOVARA OSPEDALE,,,40,2199,,,,S05186,Bagg.O,,,
BAGNARA,0.9881789137380191,-1.0,54,3140,366.0,239.0,98.0,S11770,Bagnara,38.282695,15.800327,17.0
BAGNOLO MELLA,2.697172034564022,2.0,31,2550,572.0,244.0,86.0,S01901,Bagnolo Mella,45.428532,10.183617,1.0
BARBERINO VAL D`ELSA,6.3273809523809526,6.0,30,2247,132.0,85.0,20.0,S06806,Barberino V.E,,,
BARCELLONA,2.0995140013885676,1.0,73,4333,759.0,451.0,210.0,S12041,Barcellona,38.14918,15.212499,14.0
BARI PARCO NORD,57.0,57.0,1,1,1.0,1.0,1.0,S11148,Bari Parco Nord,41.123916,16.837018,16.0
BARI TORRE A MARE,1.7888958594730238,1.0,126,6446,1306.0,673.0,240.0,S11126,BA Torre a Mare,41.082637,16.995772,16.0
BARI TORRE QUETTA,11.0,0.0,97,4668,1.0,1.0,1.0,S11004,BARI T. QUETTA,,,
BARONISSI,1.5481299816063765,1.0,32,1641,318.0,170.0,39.0,S09520,Baronissi,40.743779,14.77224,18.0
BARRUCCANA,0.030916030534351144,-1.0,74,2744,218.0,126.0,47.0,S01929,Barruccana,,,
BASILIANO,2.0878574388727724,2.0,38,2420,360.0,171.0,45.0,S02832,Basiliano,46.012737,13.109233,10.0
BASSANO DEL GRAPPA,0.31468023255813954,0.0,117,8329,571.0,200.0,48.0,S02520,Bassano del Gr.,45.766697,11.741525,12.0
BAZZANA,0.9124613800205973,0.0,16,994,57.0,32.0,11.0,S00807,Bazzana,44.777094,8.401557,3.0
BAZZANO,-0.08877507469056765,-1.0,46,2629,197.0,74.0,37.0,S05975,BAZZANO,,,
BEFFI,1.4038461538461537,1.0,9,104,8.0,2.0,1.0,S07422,Beffi,42.197341,13.660759,19.0
BELGIRATE,4.985595147839272,3.0,32,1331,611.0,423.0,223.0,S01017,Belgirate,45.843337,8.570821,3.0
BERCETO,2.581954417733375,1.0,64,3243,967.0,627.0,198.0,S06158,Berceto,44.555912,9.931759,8.0
BERCHIDDA,1.5038961038961038,1.0,22,771,80.0,37.0,15.0,S12859,Berchidda,40.772052,9.181312,20.0
BESOZZO,2.5920655454937473,1.0,34,2324,683.0,403.0,122.0,S01141,Besozzo,45.842188,8.662997,1.0
BIANZE`,2.075675675675676,1.0,34,2036,453.0,226.0,66.0,S00238,Bianze',45.309488,8.115523,3.0
BIFORCO,4.922721268163804,4.0,22,1517,859.0,457.0,114.0,S06611,Biforco,44.068431,11.602243,13.0
BOLLATE CENTRO,0.6996151996151996,0.0,104,8325,581.0,215.0,25.0,S01071,Bollate Centro,,,
BONORVA,1.922680412371134,1.0,12,388,64.0,38.0,19.0,S12867,Bonorva,40.417763,8.760707,20.0
BORGIO VEREZZI,5.0,5.0,25,1484,1.0,0.0,0.0,S04521,Borgio Verezzi,44.157722,8.30908,2.0
BORGO A BUGGIANO,4.745128205128205,4.0,61,1963,1050.0,685.0,201.0,S06410,Borgo a Buggiano,43.880724,10.730079,13.0
BORGO TICINO,1.9959250203748982,2.0,28,1230,201.0,89.0,23.0,S00981,Borgo Ticino,45.691943,8.602483,3.0
BORGO VALSUGANA EST,2.6133333333333333,2.0,17,1278,341.0,133.0,19.0,S02314,Borgo Valsug. E.,46.05224,11.462119,9.0
BORGORATTO,0.7404580152671756,0.0,21,1322,136.0,81.0,33.0,S00860,Borgoratto,44.835999,8.538182,3.0
BORORE,0.3078393881453155,-1.0,14,524,47.0,30.0,14.0,S12872,Borore,40.218992,8.809535,20.0
BOVINO DELICETO,16.0,16.0,1,1,1.0,1.0,1.0,S09321,Bovino Deliceto,41.27835,15.369255,16.0
BRENNA-ALZATE,18.0,18.0,22,1649,1.0,1.0,1.0,S01452,Brenna-Alzate,45.754044,9.183312,1.0
BRESSANA BOTTARONE,4.976019184652278,3.0,33,2511,1179.0,769.0,218.0,S01805,Bressana Bott.,45.086298,9.110602,1.0
BUCINE,6.916030534351145,5.0,59,3470,104.0,57.0,21.0,S06911,Bucine,43.480478,11.617609,13.0
BUSSI,0.48936170212765956,0.0,9,564,32.0,19.0,13.0,S07704,Bussi,42.194154,13.849075,19.0
BUTTRIO,1.8122727272727273,1.0,47,2205,281.0,139.0,44.0,S03029,Buttrio,46.012664,13.329039,10.0
Bazzano (AQ),5.700819672131147,5.0,9,490,419.0,240.0,23.0,S07436,Bazzano (AQ),,,
CADEO,2.446700507614213,1.0,7,602,125.0,85.0,34.0,S05006,Cadeo,44.967283,9.853181,8.0
CALDE`,4.5447191011235955,3.0,32,2230,1042.0,601.0,123.0,S01117,Calde',45.945812,8.663157,1.0
CALDIERO,4.230021141649049,2.0,42,2370,813.0,532.0,268.0,S02437,Caldiero,45.41407,11.169753,12.0
CALENZANO,12.777777777777779,9.0,74,4544,9.0,7.0,4.0,S06417,Calenzano,43.856429,11.14537,13.0
CALTANISSETTA CENTRALE,-0.45465323058684054,-2.0,54,2916,209.0,130.0,56.0,S12381,Caltanissetta C.,37.48829,14.057396,14.0
CALTANISSETTA XIRBI,1.162143826322931,-1.0,70,3579,454.0,261.0,116.0,S12380,Caltanissetta X.,37.536296,14.056902,14.0
CALVISANO,5.567963617988883,3.0,24,1987,953.0,626.0,261.0,S01843,Calvisano,45.346572,10.349411,1.0
CAMBIANO SANTENA,1.2341701011614836,1.0,33,2678,323.0,123.0,22.0,S00456,Cambiano Santena,44.966491,7.773225,3.0
CAMNAGO-LENTATE,3.2678747940691926,2.0,110,6089,1918.0,1074.0,353.0,S01316,Camnago-Lentate,45.668425,9.133451,1.0
CAMOGLI SAN FRUTTUOSO,10.029411764705882,8.0,104,5300,25.0,21.0,12.0,S04716,Camogli S.F.,44.348166,9.156743,2.0
CAMPAGNA SERRE PERSANO,2.997995991983968,2.0,11,504,119.0,58.0,23.0,S09825,Campagna S.P.,40.595667,15.113986,18.0
CAMPELLO,2.5771670190274842,1.0,9,478,106.0,50.0,14.0,S07219,Campello,42.822814,12.761253,6.0
CAMPOFELICE,-0.03299492385786802,-1.0,24,1580,96.0,64.0,32.0,S12017,Campofelice,37.992615,13.876549,14.0
CAMPOLEONE,2.0350245891807606,1.0,158,8357,1704.0,854.0,267.0,S08602,Campoleone,41.642396,12.648341,5.0
CAMPOMARINO,3.1041322314049586,2.0,8,605,192.0,106.0,24.0,S11020,Campomarino,41.957398,15.042416,7.0
CAMPOSAMPIERO,0.5470288624787776,0.0,120,5904,423.0,212.0,69.0,S02525,Camposampiero,45.568922,11.928293,12.0
CAMPOSANTO,2.7004675628287553,2.0,60,3429,864.0,490.0,112.0,S05314,Camposanto,44.787527,11.143587,8.0
CANCELLIERA,4.098248286367098,3.0,65,2668,1049.0,478.0,111.0,S08735,Cancelliera,41.710587,12.621758,5.0
CANCELLO ARNONE,2.3100097181729833,1.0,18,1031,223.0,149.0,61.0,S09002,Cancello Arnone,41.063369,14.02901,18.0
CANTU`,,,23,1725,,,,S01451,Cantu',45.752316,9.130321,1.0
CAPACCIO ROCCADASPIDE,3.5307125307125307,1.0,43,2863,906.0,622.0,281.0,S11702,Capaccio,40.454518,15.013551,18.0
CAPISTRELLO,2.5344180225281603,1.0,18,1077,114.0,63.0,30.0,S08850,Capistrello,41.97051,13.399276,19.0
CAPO BONIFATI,3.26282722513089,2.0,32,1919,607.0,315.0,102.0,S11734,Capo Bonifati,39.558342,15.874052,17.0
CAPO D`ORLANDO-NASO,3.2385089686098656,1.0,61,3579,828.0,513.0,246.0,S12030,Capo d'Orlando,38.157941,14.744844,14.0
CAPRANICA,1.2810057764186205,1.0,57,2948,458.0,199.0,64.0,S08311,Capranica,42.245195,12.157194,5.0
CARIATI,6.266334440753045,4.0,25,1817,976.0,696.0,316.0,S11818,Cariati,39.496884,16.952018,17.0
CARMAGNOLA,1.5418637913961932,1.0,137,9112,1265.0,572.0,196.0,S00601,Carmagnola,44.846944,7.72797,3.0
CARONIA,0.9764035801464606,0.0,23,1234,126.0,71.0,28.0,S12025,Caronia,38.034475,14.443761,14.0
CARPANE`VALSTAGNA,1.6145648312611012,1.0,15,1131,118.0,37.0,13.0,S02502,Carpane'Valstag.,45.860128,11.661183,12.0
CARRARA AVENZA,8.709677419354838,8.0,97,5922,110.0,92.0,48.0,S06005,Carrara Avenza,44.051239,10.062927,13.0
CARRITO-ORTONA,5.354838709677419,3.0,5,33,14.0,10.0,7.0,S08533,Carrito-Ortona,42.026506,13.720179,19.0
CARRUBA,14.428571428571429,11.0,27,1701,6.0,5.0,4.0,S12326,Carruba,37.694344,15.196143,14.0
CARSOLI,1.775812619502868,1.0,34,2106,411.0,233.0,81.0,S08519,Carsoli,42.09578,13.080388,19.0
CASALBUTTANO,3.2467489163054353,1.0,44,3005,858.0,574.0,249.0,S01609,Casalbuttano,45.255398,9.962361,1.0
CASALECCHIO DI RENO,3.2374002280501712,3.0,63,4391,1528.0,617.0,83.0,S05101,Casalecchio R.,44.474298,11.276097,8.0
CASALNUOVO,2.6467671558905197,2.0,77,5082,1502.0,773.0,255.0,S09216,Casalnuovo,40.915559,14.35296,18.0
CASINALBO,,,40,2199,,,,S05184,Casinal.,,,
CASSAGO-NIBIONNO-BULCIAGO,3.393909626719057,3.0,38,3062,1108.0,513.0,79.0,S01490,Cassago-N.-B.,45.746243,9.279834,1.0
CASSANO D`ADDA,2.5488334237655996,1.0,116,7459,1794.0,1124.0,380.0,S01707,Cassano d'Adda,45.514372,9.512746,1.0
CASSINO,0.3562098738100509,-1.0,131,7354,583.0,397.0,255.0,S08671,Cassino,41.484306,13.832125,5.0
CASSOLA,0.8,0.0,35,2992,1.0,1.0,0.0,S02506,Cassola,45.732291,11.795866,12.0
CASTEL D`ARIO,1.0081360946745561,0.0,23,1353,183.0,97.0,42.0,S02382,Castel d'Ario,45.183399,10.97531,1.0
CASTEL S.GIORGIO ROCCAPIEMONTE,5.0,5.0,12,88,1.0,0.0,0.0,S09704,Castel S.Giorgio,40.758713,14.692352,18.0
CASTEL S.GIOVANNI,4.474347434743474,3.0,31,2230,902.0,536.0,207.0,S01948,Castel S.Giovan.,45.063272,9.436856,8.0
CASTELFRANCO D'EMILIA,3.2252265636606743,1.0,94,6786,2053.0,1331.0,527.0,S05037,C.Franco Emilia,44.597381,11.056408,8.0
CASTELLANETA MARINA,3.190332326283988,1.0,5,333,81.0,59.0,23.0,S11463,Castellaneta M.,40.481111,16.965434,16.0
CASTELLANZA,0.8467899891186071,0.0,85,4597,299.0,92.0,25.0,S01136,Castellanza,,,
CASTELRAIMONDO CAMERINO,3.1088992974238874,3.0,37,1717,649.0,297.0,62.0,S07302,Castelraimondo,43.210511,13.057274,11.0
CASTELVETRANO,-0.20132013201320131,-2.0,36,2221,216.0,145.0,74.0,S12113,Castelvetrano,37.684977,12.799552,14.0
CATANIA CENTRALE,0.9582046530780317,-1.0,162,7445,843.0,597.0,376.0,S12332,Catania Centrale,37.506211,15.099417,14.0
CATENANUOVA,2.75975975975976,1.0,20,728,177.0,108.0,55.0,S12244,Catenanuova,37.562026,14.688263,14.0
CATTOLICA S.GIOVANNI GABICCE,2.613624124932687,1.0,60,3830,937.0,589.0,249.0,S07102,Cattolica S.G.G.,43.959931,12.745087,8.0
CAVA CARBONARA,3.4137592137592137,3.0,26,2049,894.0,382.0,109.0,S00279,Cava Carbonara,45.147055,9.071387,1.0
CAVALLERMAGGIORE,1.9646405118706853,1.0,94,5961,1062.0,471.0,170.0,S00603,Cavallermaggiore,44.708147,7.692108,3.0
CAVAZZALE,1.5775798069784708,2.0,37,2694,529.0,216.0,46.0,S02147,Cavazzale,45.596079,11.569823,12.0
CAVRIAGO,,,20,1111,,,,S05932,Cavriago,,,
CECCHINA,2.833827093994075,2.0,83,3753,908.0,449.0,133.0,S08732,Cecchina,41.692029,12.650992,5.0
CELANO-OVINDOLI,1.1003460207612457,1.0,11,290,35.0,20.0,7.0,S08528,Celano-Ovindoli,42.076999,13.543398,19.0
CENGIO,2.0188545001778726,1.0,35,2828,464.0,239.0,88.0,S00745,Cengio,44.390798,8.191824,2.0
CERNUSCO-MERATE,3.1301369863013697,1.0,73,5559,1392.0,835.0,306.0,S01513,Cernusco-Merate,45.695096,9.396794,1.0
CETRARO,2.861656294877932,1.0,35,2099,445.0,260.0,106.0,S11735,Cetraro,39.512553,15.939263,17.0
CEVA,1.0544102737411287,0.0,39,3106,347.0,196.0,82.0,S00742,Ceva,44.389861,8.031958,3.0
CHATILLON SAINT VINCENT,2.0228426395939088,1.0,82,3180,672.0,332.0,133.0,S00142,Chatillon S.V.,45.7434,7.619309,4.0
CHIARI,11.86111111111111,10.0,75,5566,32.0,30.0,15.0,S01713,Chiari,45.54011,9.926474,1.0
CHIASSO,-0.2434845999635502,-2.0,161,11401,777.0,493.0,209.0,S01301,Chiasso,45.830736,9.03421,1.0
CHIETI,1.299265410412009,1.0,54,3200,411.0,174.0,73.0,S07712,Chieti,42.356905,14.13815,19.0
CHIVASSO,1.5429362880886426,1.0,237,13628,1766.0,812.0,296.0,S00232,Chivasso,45.193637,7.889666,3.0
CIAMPINO,1.2507825024811055,1.0,250,13629,1926.0,826.0,240.0,S08650,Ciampino,41.804442,12.599546,5.0
CIRO',5.577753182069729,4.0,25,1817,914.0,624.0,252.0,S11820,CirÃ²,39.368701,17.116997,17.0
CISTERNINO,13.666666666666666,12.0,61,2461,3.0,3.0,3.0,S11131,Cisternino,40.816652,17.456899,16.0
CITTADUCALE,-1667.2072844134975,3.0,32,1867,762.0,352.0,74.0,S07406,Cittaducale,42.387764,12.94269,5.0
CIVITA CASTELLANA,0.550035739814153,0.0,58,2806,202.0,84.0,35.0,S08211,Civita Castel.,42.346593,12.453821,5.0
CLASSE,5.078431372549019,3.0,20,1289,490.0,323.0,134.0,S05812,Classe,44.382033,12.234995,8.0
COCULLO,0.9753521126760564,-1.0,10,289,47.0,35.0,18.0,S08534,Cocullo,42.040723,13.776636,19.0
COLFELICE,2.2,1.0,12,693,2.0,2.0,0.0,S08820,Colfelice,,,
COLICO,3.2734671730873575,2.0,115,7265,1658.0,984.0,383.0,S01420,Colico,46.138019,9.375222,1.0
COLLE MATTIA,1.4921060470658325,1.0,58,3363,451.0,224.0,71.0,S08651,Colle Mattia,41.832756,12.728329,5.0
COLLECCHIO,3.012491325468425,2.0,59,2903,890.0,487.0,146.0,S06151,Collecchio,44.755339,10.21228,8.0
COLOGNE,5.5,5.0,37,3071,3.0,2.0,1.0,S01539,Cologne,45.576627,9.935316,1.0
COMISO,3.05456570155902,2.0,15,970,302.0,182.0,73.0,S12411,Comiso,36.947184,14.60037,14.0
CONTESSE,0.7958015267175572,0.0,14,1048,88.0,40.0,15.0,S12355,Contesse,38.16193,15.544717,14.0
CORSICO,2.0,2.0,68,3178,0.0,0.0,0.0,S01064,Corsico,45.434688,9.105156,1.0
COSENZA,1.3769441903019213,0.0,67,4412,305.0,179.0,85.0,S11910,Cosenza,39.318386,16.260955,17.0
CRESPELLANO,2.147239263803681,2.0,46,2629,537.0,186.0,27.0,S05973,Crespel.,,,
CROCICCHIE,10.68421052631579,4.0,13,19,10.0,8.0,5.0,S08317,Crocicchie,42.0559,12.238888,5.0
CROPANI,3.9848024316109423,3.0,33,2311,840.0,492.0,170.0,S11830,Cropani,38.921968,16.813562,17.0
CUZZAGO,3.095166163141994,2.0,32,1331,345.0,200.0,92.0,S01010,Cuzzago,45.993682,8.373989,3.0
DEIVA MARINA,2.5726945444475215,1.0,64,3622,997.0,632.0,194.0,S04728,Deiva Marina,44.217306,9.519022,2.0
DESIO,3.62856165944837,2.0,175,8817,3052.0,1716.0,528.0,S01320,Desio,45.620112,9.218495,1.0
DIAMANTE BUONVICINO,3.827190043082815,2.0,34,2098,811.0,513.0,187.0,S11731,Diamante,39.67701,15.824278,17.0
DOLO,1.0750178954903364,0.0,122,7001,769.0,453.0,150.0,S02587,Dolo,45.453466,12.07161,12.0
DOMODOSSOLA,0.9067408376963351,-1.0,113,5233,685.0,496.0,209.0,S01003,Domodossola,46.115429,8.296684,3.0
DONNAFUGATA,2.1567291311754686,1.0,10,625,162.0,106.0,47.0,S12412,Donnafugata,36.882055,14.568968,14.0
DUBINO,1.0165165165165164,0.0,36,2664,272.0,131.0,45.0,S01405,Dubino,46.172802,9.432188,1.0
DUOMO VIA VERNIERI,5.25,1.0,83,6126,4.0,3.0,1.0,S09819,Duomo V.Vernieri,,,
FABRO-FICULLE,4.202059833251594,2.0,27,2046,701.0,409.0,187.0,S08201,Fabro Ficulle,42.874851,12.04123,6.0
FALCONARA MARITTIMA,1.5265536723163842,1.0,127,8032,1442.0,823.0,307.0,S07111,Falconara M.,43.630577,13.397378,11.0
FALCONARA STADIO,,,4,255,,,,S07117,Falconara Stadio,43.626158,13.381179,11.0
FANO,2.922072623419013,1.0,74,4930,1332.0,827.0,315.0,S07105,Fano,43.842977,13.02478,11.0
FARA SABINA,-0.5105744712764362,-1.0,154,9033,261.0,140.0,56.0,S08214,Fara Sabina,42.155546,12.648323,5.0
FELTRE,1.3034410844629822,1.0,76,2370,204.0,82.0,30.0,S02564,Feltre,46.012884,11.911493,12.0
FEROLETO ANTICA PIANOPOLI,5.666666666666667,7.0,2,3,2.0,2.0,0.0,S11952,Feroleto A.P.,38.938255,16.36622,17.0
FERRUZZANO,2.887654320987654,1.0,12,811,222.0,134.0,54.0,S11856,Ferruzzano,38.016304,16.134486,17.0
FIGLINE VALDARNO,3.177378219841877,2.0,121,7872,2546.0,1452.0,432.0,S06908,Figline Valdarno,43.621596,11.473652,13.0
FISCIANO,1.7272167487684729,1.0,32,1641,310.0,152.0,44.0,S09519,Fisciano,40.759095,14.77486,18.0
FIVIZZANO ROMETTA - SOLIERA,3.400348634514817,2.0,28,1742,510.0,235.0,39.0,S06222,F.Rometta-Solie.,44.201526,10.05953,13.0
FOGGIA,3.907549630488335,1.0,174,9496,2389.0,1695.0,930.0,S11100,Foggia,41.466,15.555816,16.0
FONDI - SPERLONGA,2.6203233256351037,1.0,88,4346,1095.0,626.0,230.0,S08606,Fondi-Sperlonga,41.337663,13.424893,5.0
FONTANETTO PO,3.55261737722612,3.0,29,1856,686.0,341.0,89.0,S00174,Fontanetto Po,45.191238,8.188697,3.0
FONTANIVA,1.0,1.0,34,2129,0.0,0.0,0.0,S02534,Fontaniva,45.634723,11.749038,12.0
FORLIMPOPOLI,3.6306753147653565,2.0,36,2634,773.0,500.0,188.0,S05065,Forlimpopoli B.,44.194165,12.128125,8.0
FORMIGINE,2.216289592760181,2.0,40,2199,173.0,42.0,8.0,S05183,Formig.,,,
FORTE DEI MARMI SERRAVEZZA Q.,3.0864518711226734,2.0,85,5011,1623.0,893.0,249.0,S06011,Forte Dei Marmi,43.97777,10.19936,13.0
FOSCIANDORA - CESERANA,3.3877551020408165,3.0,9,442,157.0,59.0,8.0,S06301,Fosciandora-Ces.,44.118559,10.444212,13.0
FOSSACESIA - TORINO DI SANGRO,1.8450617283950617,1.0,22,1620,347.0,173.0,53.0,S07018,Fossacesia/T.S.,42.237648,14.525456,19.0
FRAMURA,2.982127160855552,2.0,57,3422,1094.0,690.0,220.0,S04729,Framura,44.201903,9.555169,2.0
FRANCAVILLA FONTANA,2.3239057239057237,1.0,22,1485,324.0,190.0,79.0,S11603,Francavilla Font,40.523145,17.584714,16.0
FRANCIA,0.5061770181079709,0.0,112,5918,160.0,63.0,26.0,S12139,Francia,38.155233,13.321938,14.0
FRATTE,1.7761467889908258,1.0,32,1641,304.0,144.0,46.0,S09522,Fratte,40.705637,14.778362,18.0
GAGGIANO,11.5,4.0,68,3178,2.0,1.0,1.0,S01063,Gaggiano,45.408827,9.031117,1.0
GELA,2.0171526586620927,1.0,13,900,173.0,106.0,40.0,S12407,Gela,37.07283,14.259461,14.0
GENGA S.VITTORE TERME,2.2242370632463513,1.0,34,2271,551.0,258.0,81.0,S07206,Genga S.V.T.,43.403011,12.977163,11.0
GENOVA BOLZANETO,0.8465676229508197,1.0,56,3909,424.0,200.0,34.0,S04218,Genova Bolzaneto,44.459208,8.900193,2.0
GENOVA COSTA DI SESTRI PONENTE,8.5,3.0,22,1675,1.0,1.0,1.0,S04110,GE Costa Sestri,44.433535,8.84553,2.0
GENOVA PEGLI,8.904761904761905,8.0,162,8860,15.0,12.0,7.0,S04536,Genova Pegli,44.426236,8.816767,2.0
GENOVA PRA,7.0,8.0,162,8858,29.0,28.0,10.0,S04535,Genova Pra,44.426874,8.785356,2.0
GENOVA SESTRI PONENTE,1.288111354752598,1.0,186,10522,1322.0,696.0,256.0,S04537,Genova Sestri P.,44.422374,8.847707,2.0
GIAMPILIERI,0.7381921824104235,-1.0,46,2991,353.0,211.0,76.0,S12308,Giampilieri,38.080121,15.493863,14.0
GIOIA DEL COLLE,0.5901084010840109,-1.0,49,3028,298.0,186.0,108.0,S11505,Gioia del Colle,40.796983,16.916569,16.0
GIOIOSA JONICA,3.1571104632329123,2.0,49,3109,983.0,637.0,220.0,S11848,Gioiosa Jonica,38.300812,16.332501,17.0
GIUGLIANO QUALIANO,2.0368864362474586,2.0,47,3459,427.0,137.0,42.0,S09100,Giugliano Qual.,40.935018,14.10378,18.0
GIUNCANO,7.85,1.0,10,20,7.0,5.0,3.0,S07225,Giuncano,42.647802,12.637694,6.0
GORGO AL MONTICANO,2.08072590738423,1.0,23,1601,242.0,93.0,27.0,S02766,Gorgo Montic.,45.784444,12.553737,12.0
GOZZANO,1.8897502153316106,1.0,18,1161,253.0,155.0,47.0,S00015,Gozzano,45.741039,8.438726,3.0
GRECCIO,3.2377577319587627,2.0,29,1554,537.0,219.0,60.0,S07403,Greccio,42.462872,12.777009,5.0
GRICIGNANO,1.7832512315270936,1.0,37,2439,390.0,218.0,93.0,S09300,Gricignano,40.998742,14.241657,18.0
GRIGNO,2.883762200532387,2.0,15,1131,342.0,135.0,15.0,S02317,Grigno,46.015059,11.624984,9.0
GRISOLIA S.MARIA,14.0,14.0,14,972,1.0,1.0,1.0,S11729,Grisolia,39.739731,15.821072,17.0
GUADAGNA,1.4383082838168473,1.0,109,5730,264.0,92.0,32.0,S12144,Guadagna,,,
HONE BARD,2.300355149670218,2.0,59,1974,528.0,270.0,61.0,S00147,Hone Bard,45.613918,7.741345,4.0
IL CIONFO BIN. LE CURE,1.6686131386861314,1.0,10,689,85.0,27.0,5.0,S06957,Cionfo Binlecure,43.786182,11.268501,13.0
ISOLA DELLA SCALA,5.175084175084175,4.0,34,2082,1060.0,664.0,256.0,S05307,Isola d. Scala,45.269474,11.013312,12.0
ISOLA LIRI,1.5,0.0,13,759,2.0,1.0,0.0,S08858,Isola Liri,41.681712,13.581088,5.0
ITRI,2.062222222222222,1.0,45,2485,590.0,345.0,106.0,S08607,Itri,41.271328,13.545549,5.0
JOPPOLO,0.8696060037523452,0.0,18,1075,143.0,73.0,29.0,S11763,Joppolo,38.580318,15.897025,17.0
LA RUSTICA UIR,0.9250111259457053,0.0,69,4505,487.0,230.0,69.0,S08514,La Rustica UIR,,,
LAMA DI RENO,2.876376713868285,2.0,64,4465,1117.0,333.0,64.0,S05121,Lama di Reno,44.363501,11.216168,8.0
LAMBRINIA,5.047645125958379,4.0,22,1837,986.0,598.0,127.0,S01869,Lambrinia,45.164376,9.527436,1.0
LANUVIO,1.5071448585037825,1.0,80,3615,530.0,283.0,103.0,S08733,Lanuvio,41.672211,12.690885,5.0
LATERINA,3.239644970414201,2.0,57,3394,973.0,549.0,171.0,S06912,Laterina,43.496458,11.660573,13.0
LAVAGNA,7.642857142857143,5.0,100,5076,10.0,6.0,5.0,S04723,Lavagna,44.305677,9.346371,2.0
LAVENO MOMBELLO,3.3195521102497847,2.0,34,2324,765.0,452.0,130.0,S01118,Laveno Mombello,45.903272,8.624583,1.0
LECCE,2.0184105553850875,-1.0,127,6300,702.0,509.0,303.0,S11145,Lecce,40.34566,18.165724,16.0
LECCO,2.6051097211915617,1.0,240,16533,2404.0,1444.0,583.0,S01520,Lecco,45.856471,9.393638,1.0
LENTINI,3.9121076233183856,1.0,53,2290,687.0,500.0,266.0,S12341,Lentini,37.300916,14.99758,14.0
LEONFORTE-PIRATO,2.9405940594059405,1.0,16,736,182.0,108.0,45.0,S12239,Leonforte-Pirato,37.606305,14.376063,14.0
LETOJANNI,2.8830255057167986,1.0,38,2293,625.0,385.0,140.0,S12316,Letojanni,37.877581,15.303128,14.0
LEVICO,3.5587774294670846,3.0,17,1278,526.0,228.0,26.0,S02309,Levico,46.005729,11.30493,9.0
LIDO DI CLASSE-LIDO DI SAVIO,3.41268758526603,1.0,54,2965,798.0,536.0,242.0,S05813,Lido Clas./Savio,44.314546,12.292722,8.0
LODI,2.61,1.0,229,12088,3274.0,1934.0,762.0,S01825,Lodi,45.308966,9.497585,1.0
LOLLI,1.3739598629466472,1.0,116,6141,365.0,115.0,34.0,S12143,Lolli,,,
LONATO,3.213636363636364,2.0,4,224,61.0,37.0,15.0,S02083,Lonato,45.457204,10.486714,1.0
LUGO,5.138297872340425,3.0,61,3616,1733.0,1072.0,391.0,S05951,Lugo,44.414106,11.914723,8.0
LUZZARA,0.05372217958557176,0.0,24,1765,67.0,31.0,16.0,S05958,Luzzara,,,
MACERATA UNIVERSITA',13.0,13.0,19,1225,1.0,1.0,1.0,S07314,Macerata Univers,,,
MACOMER,0.48054755043227665,-1.0,32,1627,189.0,138.0,78.0,S12869,Macomer,40.267899,8.772279,20.0
MAGENTA,2.7295381548344224,2.0,142,9041,2374.0,1130.0,330.0,S01040,Magenta,45.468204,8.880633,1.0
MALPENSA AEROPORTO T1,0.0004086636697997548,0.0,129,8795,0.0,0.0,0.0,S01139,MALP AT1,,,
MALTIGNANO DEL TRONTO,,,18,982,,,,S07555,Maltignano T.,42.844918,13.664738,11.0
MANAROLA,9.563636363636364,9.0,109,4109,49.0,42.0,22.0,S04735,Manarola,44.109904,9.727401,2.0
MANZIANA-CANALE MONTERANO,2.76612355736592,2.0,57,2948,1018.0,449.0,79.0,S08314,Manziana,42.128246,12.134934,5.0
MARCIANISE,23.0,16.0,51,3411,4.0,4.0,3.0,S09301,Marcianise,41.03596,14.287658,18.0
MARECHIARO,0.5482825664290344,0.0,55,3099,234.0,127.0,59.0,S08716,Marechiaro,41.470762,12.6123,5.0
MARIANOPOLI,-1.0,-1.0,1,1,0.0,0.0,0.0,S12234,Marianopoli,37.623011,13.898901,14.0
MARINA DI SAN LORENZO,2.608527131782946,2.0,11,775,184.0,81.0,23.0,S11862,M.d.San Lorenzo,37.919844,15.826365,17.0
MARINO DEL TRONTO FOLIGNANO,,,39,1784,,,,S07556,Marino del Tr.,42.844346,13.632995,11.0
MARRADI,3.979874213836478,3.0,23,1591,714.0,345.0,72.0,S06610,Marradi,44.07973,11.619174,13.0
MARRUBIU TERRALBA ARBOREA,2.4405405405405407,1.0,45,1852,445.0,225.0,78.0,S12879,Marrubiu Terr.Ar,39.75293,8.641144,20.0
MASCALI,13.818181818181818,8.0,27,1706,9.0,8.0,4.0,S12323,Mascali,37.765403,15.1942,14.0
MASSA CENTRO,3.68621006967267,2.0,117,7629,2828.0,1710.0,549.0,S06009,Massa Centro,44.023741,10.136041,13.0
MASSAFRA,16.833333333333332,19.0,30,1979,4.0,4.0,4.0,S11510,Massafra,40.582968,17.107899,16.0
MEDA,-0.0002824858757062147,0.0,56,3702,2.0,1.0,0.0,S01087,Meda,,,
MEINA,4.3880484114977305,3.0,32,1331,572.0,411.0,167.0,S01019,Meina,45.794389,8.535452,3.0
MELFI,1.6098541980894923,1.0,35,2382,617.0,372.0,77.0,S11206,Melfi,40.989871,15.646895,15.0
MERANO,2.154852780806979,1.0,50,3693,429.0,179.0,52.0,S02216,Merano,46.673066,11.148978,22.0
MERCATO SAN SEVERINO,1.1672597864768683,1.0,32,1641,151.0,64.0,21.0,S09706,Mercato S.Sever.,40.783095,14.759749,18.0
MESSINA CENTRALE,1.6342574257425742,0.0,165,9486,699.0,449.0,278.0,S12301,Messina Cent.,38.184975,15.561278,14.0
MESSINA MARITTIMA,22.427807486631018,10.0,12,200,115.0,97.0,80.0,S12300,Messina Maritt.,38.14988,15.534997,14.0
MESTRINO,10.0,10.0,66,3749,1.0,1.0,0.0,S02580,Mestrino,45.457878,11.773859,12.0
METAPONTO,3.2538275584206287,0.0,17,1317,367.0,282.0,139.0,S11461,Metaponto,40.368496,16.815176,15.0
MIGLIARO,1.8053553038105046,1.0,18,978,100.0,41.0,18.0,S05178,Migliaro,,,
MILANO AFFORI,2.0521108179419527,2.0,30,1519,280.0,115.0,22.0,S01078,Milano Affori,,,
MILANO GRECO PIRELLI,3.203245653879506,2.0,429,28064,7953.0,4510.0,1448.0,S01326,MI Greco Pirelli,45.51272,9.214456,1.0
MILANO LAMBRATE,3.241045075246875,2.0,421,27597,8243.0,4828.0,1853.0,S01701,Milano Lambrate,45.484933,9.237333,1.0
MILANO PORTA VITTORIA,2.2715671939385884,1.0,405,22713,6086.0,3589.0,1130.0,S01633,MI P.ta Vittoria,45.459579,9.21813,1.0
MILANO S. CRISTOFORO,0.6079153244362633,-1.0,122,6633,1127.0,718.0,317.0,S01630,MI S.Cristoforo,45.442404,9.130258,1.0
MILANO VILLAPIZZONE,4.153759235115167,3.0,261,15190,4634.0,2421.0,623.0,S01639,MI Villapizzone,,,
MILETO,2.3654485049833887,1.0,4,301,47.0,25.0,11.0,S11790,Mileto,38.577082,16.060041,17.0
MIRA MIRANO,8.615384615384615,6.0,122,7001,9.0,9.0,4.0,S02588,Mira Mirano,45.462943,12.118789,12.0
MODICA,1.8905263157894736,0.0,25,1419,225.0,126.0,68.0,S12417,Modica,36.8529,14.754255,14.0
MOLFETTA,3.3998171368861025,2.0,151,7674,2302.0,1456.0,597.0,S11114,Molfetta,41.196008,16.596793,16.0
MOLTENO,2.5814069102659705,2.0,61,4787,1155.0,573.0,127.0,S01458,Molteno,45.780939,9.301683,1.0
MONCALIERI SANGONE,3.9318053197509903,3.0,46,3543,1627.0,873.0,116.0,S00510,MONC. SANGONE,45.000393,7.667991,3.0
MONDOVI`,0.7878592185986438,0.0,39,3106,339.0,190.0,79.0,S00952,MONDOVI',44.398255,7.816339,3.0
MONGARDINO,1.4815217391304347,1.0,16,994,70.0,33.0,11.0,S00801,Mongardino,44.84161,8.207411,3.0
MONGUELFO VALLE DI CASIES,0.6753048780487805,0.0,10,661,22.0,13.0,7.0,S02111,Monguelfo,46.752775,12.107264,9.0
MONTE S.BIAGIO,2.48069590085796,1.0,85,4210,1035.0,596.0,215.0,S08605,Monte S.Biagio,41.345967,13.347037,5.0
MONTEBELLO,10.4,10.0,44,2391,5.0,5.0,2.0,S02443,Montebello,45.45251,11.390803,12.0
MONTECALVO BUONALBERGO CASALB.,27.333333333333332,28.0,1,3,3.0,3.0,3.0,S09315,Montecalvo B.C.,41.2211,14.9795,18.0
MONTECOSARO,2.9272211720226844,2.0,46,2123,600.0,294.0,67.0,S07310,Montecosaro,43.289297,13.646378,11.0
MONTELUPO CAPRAIA,10.364583333333334,8.0,101,6501,82.0,67.0,28.0,S06511,Montelupo,43.733357,11.018997,13.0
MONTESANTO,2.89289055191768,2.0,33,2144,516.0,237.0,82.0,S05801,Montesanto,44.732964,11.73652,8.0
MONTESILVANO,2.1123790622674274,1.0,66,4037,828.0,480.0,120.0,S07808,Montesilvano,42.515766,14.152567,19.0
MORNAGO CIMBRO,2.1037735849056602,1.0,32,2230,472.0,309.0,103.0,S01144,Mornago Cimbro,45.729742,8.734193,1.0
MOROLO,1.9773584905660377,1.0,50,2653,535.0,279.0,83.0,S08660,Morolo,41.667018,13.194557,5.0
MOSCIANO S. ANGELO,5.7815186246418335,7.0,42,2817,1487.0,1434.0,697.0,S07904,Mosciano S. Ang.,42.710309,13.908563,19.0
MOTTA DI LIVENZA,0.689375,0.0,23,1601,125.0,66.0,19.0,S02767,Motta Liv.,45.779114,12.607118,12.0
MOTTA S. DAMIANO,2.3856209150326797,1.0,22,1837,463.0,261.0,89.0,S01862,Motta S.Damiano,45.178344,9.219866,1.0
MUSIANO-PIAN DI MACINA,2.2277970011534025,1.0,70,3506,600.0,296.0,70.0,S05139,Musiano,44.402423,11.344912,8.0
NAPOLI AFRAGOLA,5.716325263811298,3.0,61,4846,2263.0,1790.0,944.0,S09988,Napoli Afragola,,,
NAPOLI PIAZZA GARIBALDI,7.942028985507246,7.0,239,18489,48.0,41.0,18.0,S09109,NA Piazza Garib.,40.852326,14.275159,18.0
NIBBIA,3.032863849765258,2.0,4,214,77.0,27.0,2.0,S00976,Nibbia,45.481363,8.557993,3.0
NICHELINO,4.635334088335221,4.0,46,3543,1985.0,1071.0,134.0,S00511,Nichelino,44.99132,7.642068,3.0
NIZZA DI SICILIA,3.6217672413793105,2.0,30,1867,592.0,352.0,107.0,S12311,Nizza di Sicilia,37.996937,15.412334,14.0
NOTO,1.9297912713472485,1.0,19,1078,179.0,112.0,50.0,S12424,Noto,36.88247,15.074523,14.0
NOVATE MILANESE,3.0616621983914207,3.0,34,2247,738.0,292.0,32.0,S01070,Novate Milanese,,,
NUOVO SALARIO,1.57303712720633,2.0,167,9902,1162.0,467.0,132.0,S08231,Nuovo Salario,41.956195,12.510317,5.0
OGGIONO,2.5322137404580154,2.0,41,3289,835.0,427.0,110.0,S01460,Oggiono,45.788993,9.33748,1.0
OLEGGIO,2.691619202603743,2.0,28,1230,300.0,92.0,24.0,S00984,Oleggio,45.598029,8.632586,3.0
OLEVANO,3.220159151193634,2.0,34,1890,572.0,278.0,68.0,S00036,Olevano,45.212119,8.71182,1.0
OLGIATA,3.4023102720158986,3.0,136,8090,2691.0,836.0,117.0,S08333,Olgiata,42.01538,12.363864,5.0
OLIVERI TINDARI,1.8868445262189513,2.0,16,1090,288.0,120.0,19.0,S12037,Oliveri Tindari,38.128346,15.056573,14.0
OLMENETA,2.378470970068518,1.0,75,5555,1344.0,823.0,319.0,S01905,Olmeneta,45.231099,10.03194,1.0
OLMI SPERCENIGO,2.753605015673981,2.0,23,1601,305.0,130.0,41.0,S02760,Olmi S.,45.679467,12.338101,12.0
OMEGNA,1.6399655469422911,1.0,18,1161,217.0,118.0,27.0,S00010,Omegna,45.87179,8.413291,3.0
ORIA,2.20280296784831,1.0,16,1213,249.0,119.0,48.0,S11605,Oria,40.508167,17.646534,16.0
ORSARA DI PUGLIA,73.0,58.0,1,2,2.0,2.0,2.0,S09320,Orsara di Puglia,41.241899,15.27766,16.0
ORTA MIASINO,1.9310938845822567,1.0,18,1161,257.0,149.0,34.0,S00012,Orta Miasino,45.795865,8.421217,3.0
ORTANOVA,3.2186723464678737,2.0,65,2819,839.0,464.0,151.0,S11102,Ortanova,41.350441,15.732059,16.0
OSIMO CASTELFIDARDO,19.5,6.0,55,2912,2.0,2.0,1.0,S07502,Osimo Castelf.,43.497033,13.547263,11.0
OSPITALETTO TRAVAGLIATO,1.966281492706952,1.0,64,5287,941.0,496.0,164.0,S01716,Ospitaletto T.,45.546042,10.074363,1.0
OSTIGLIA,,,34,2082,,,,S05304,Ostiglia,45.072228,11.141059,1.0
OVADA,2.6206896551724137,1.0,24,1802,448.0,246.0,88.0,S04103,Ovada,44.630377,8.632301,3.0
PAESTUM,5.705882352941177,4.0,39,2530,9.0,8.0,3.0,S11703,Paestum,40.421691,15.014915,18.0
PAGANI,3.6355027201289545,3.0,68,4987,1876.0,751.0,198.0,S09813,Pagani,40.74654,14.616996,18.0
PALAGIANO CHIATONA,1.2458233890214798,0.0,5,420,72.0,48.0,24.0,S11464,Palagiano Chiat.,40.516998,17.059217,16.0
PALAZZOLO,1.232849604221636,1.0,30,1519,135.0,54.0,11.0,S01083,Palazzolo Milan.,,,
PALAZZOLO SULL`OGLIO,3.262401352874859,2.0,47,3552,1268.0,680.0,133.0,S01538,PALAZZOLO S/O.,45.601486,9.896235,1.0
PALESTRO,3.7155172413793105,2.0,22,1767,300.0,126.0,48.0,S00271,Palestro,45.307274,8.534511,1.0
PALIDANO,3.9988198269079467,2.0,32,2557,798.0,399.0,153.0,S02343,Palidano,44.972228,10.777412,1.0
PALMANOVA,1.7538461538461538,1.0,28,1834,311.0,130.0,35.0,S03122,Palmanova,45.906862,13.296461,10.0
PALMI,1.746964856230032,1.0,54,3140,458.0,269.0,101.0,S11769,Palmi,38.364914,15.84438,17.0
PASSIGNANO SUL TRASIMENO,3.6908235294117646,3.0,31,2132,849.0,501.0,116.0,S07001,Passignano T.,43.188324,12.133128,6.0
PAVIA,3.5237995824634654,2.0,278,19988,5382.0,3271.0,1029.0,S01860,Pavia,45.188843,9.144674,1.0
PAVONA,3.2471169686985175,2.0,83,3679,1155.0,587.0,146.0,S08731,Pavona,41.723897,12.61116,5.0
PEGOGNAGA,2.248407643312102,0.0,14,1000,113.0,79.0,49.0,S05154,Pegognaga,,,
PELLEZZANO,2.509491733006736,2.0,32,1641,515.0,272.0,62.0,S09521,Pellezzano,40.719928,14.777354,18.0
PERCA,0.49923664122137407,0.0,10,661,25.0,11.0,6.0,S02060,Perca,,,
PERI,5.519731318219983,4.0,35,2383,1340.0,938.0,332.0,S02052,Peri,45.658402,10.900314,12.0
PESCARA,2.4074583906895257,1.0,193,12147,2062.0,1303.0,716.0,S07810,Pescara,42.467789,14.205066,19.0
PIANA,3.86803105151729,2.0,23,1425,558.0,419.0,57.0,S00876,Piana,44.486383,8.308796,2.0
PIAZZA AL SERCHIO,0.9940174873446848,1.0,42,2727,343.0,152.0,30.0,S06325,Piazza al Serch.,44.182515,10.296615,13.0
PIETRARSA,12.08695652173913,10.0,92,5411,17.0,14.0,10.0,S09801,Pietrarsa,40.822433,14.32058,18.0
PIEVE SALICETO,4.0,4.0,25,1821,1.0,0.0,0.0,S05962,Pieve Sa,,,
PIOLTELLO LIMITO,2.772346443246705,2.0,327,21085,5566.0,3272.0,1033.0,S01703,Pioltello Lim.,45.486019,9.329319,1.0
PIOMBINO DESE,1.3667992047713717,1.0,70,5039,681.0,274.0,80.0,S02509,Piombino Dese,45.60944,12.00058,12.0
PIONA,3.521262002743484,2.0,28,2187,747.0,469.0,170.0,S01406,Piona,46.124696,9.350759,1.0
PIOPPE DI SALVARO,2.1719690455717973,2.0,48,3492,617.0,222.0,45.0,S05106,Pioppe Salvaro,44.310761,11.161785,8.0
PISTOIA,1.4683763146520674,1.0,153,9551,1263.0,704.0,255.0,S06414,Pistoia,43.926804,10.914624,13.0
POGGIO RUSCO,1.7103225806451612,1.0,104,6251,1302.0,764.0,279.0,S05308,Poggio Rusco,44.981859,11.124627,1.0
POLESELLA,2.934566145092461,2.0,10,704,182.0,86.0,29.0,S05708,Polesella,44.961039,11.738498,12.0
POLIGNANO A MARE,2.8367133598160152,2.0,99,4789,1140.0,636.0,252.0,S11128,Polignano a Mare,40.990926,17.218676,16.0
POMPEI,2.142994611239415,1.0,71,5226,1182.0,545.0,188.0,S09810,Pompei,40.745918,14.501109,18.0
PONTE CASALDUNI,3.1798616448885473,1.0,24,1318,439.0,330.0,127.0,S09309,Ponte Casalduni,41.214169,14.696458,18.0
PONTE DI PIAVE,0.94625,0.0,23,1601,142.0,73.0,21.0,S02763,Ponte Piave,45.719624,12.460683,12.0
PONTE D`ADIGE,1.7093784078516903,1.0,50,3693,897.0,341.0,36.0,S02225,Ponte d'Adige,46.485444,11.297719,9.0
PONTE GALERIA,2.1443961052413507,2.0,160,9821,1565.0,494.0,126.0,S08403,Ponte Galeria,41.818349,12.344733,5.0
PONTE IN VALTELLINA,1.9285714285714286,1.0,13,462,67.0,39.0,12.0,S01434,Ponte in Valt.,46.162631,9.975895,1.0
PONTEBBA,0.9488,1.0,19,627,63.0,26.0,10.0,S03010,Pontebba,46.508463,13.311357,10.0
PONTECCHIO MARCONI,2.5728155339805827,2.0,5,412,105.0,25.0,3.0,S05103,Pontecchio Marc.,44.42294,11.26919,8.0
PONTICINO,3.442191283292978,3.0,57,3320,1199.0,563.0,156.0,S06913,Ponticino,43.481446,11.71657,13.0
PONTIDA,4.152070355441554,3.0,32,2734,1118.0,579.0,118.0,S01526,Pontida,45.730084,9.511632,1.0
POPOLANO,5.086666666666667,4.0,2,150,95.0,49.0,5.0,S06612,Popolano,44.102323,11.649045,13.0
PORDENONE,0.8200072358900145,-1.0,91,5542,737.0,432.0,164.0,S02701,Pordenone,45.956281,12.654126,10.0
PORTICI- ERCOLANO,1.3825539568345324,1.0,84,5577,781.0,406.0,157.0,S09802,Portici Ercolano,40.809907,14.335809,18.0
PORTO CERESIO,3.039438502673797,2.0,66,3003,432.0,254.0,108.0,S01200,Porto Ceresio,45.903675,8.900357,1.0
PORTO RECANATI,9.5,6.0,62,3179,5.0,4.0,2.0,S07504,Porto Rec.,43.433726,13.661464,11.0
PORTO S. ELPIDIO,3.2079479273723877,2.0,55,2924,922.0,585.0,168.0,S07507,Porto S.Elpidio,43.256855,13.760749,11.0
PORTOMAGGIORE,1.9686021505376343,1.0,36,2329,421.0,173.0,68.0,S05802,Portomaggiore,44.696699,11.799785,8.0
POSSIDENTE,3.391852162956741,2.0,35,2382,686.0,347.0,79.0,S11220,Possidente,40.781144,15.777104,15.0
POTENZA MACCHIA ROMANA,3.425392670157068,3.0,34,2295,642.0,188.0,56.0,S11215,Potenza M.Romana,,,
POTENZA PICENA MONTELUPONE,7.444444444444445,9.0,54,2797,8.0,6.0,1.0,S07505,Potenza Pic.,43.36991,13.59265,11.0
POZZUOLI SOLFATARA,0.7083378044854598,1.0,184,15291,893.0,357.0,97.0,S09101,Pozzuoli S.,40.827586,14.126163,18.0
POZZUOLO MARTESANA,6.5,3.0,112,7284,2.0,2.0,2.0,S01722,Poz.Mart,45.510567,9.459096,1.0
PRATA CAMPORTACCIO,1.6671887235708693,1.0,33,2566,374.0,163.0,48.0,S01417,Prata Camp.,,,
PRATO PORTA AL SERRAGLIO,8.0,11.0,138,8339,4.0,3.0,3.0,S06422,Prato P.Serragl.,43.884637,11.097385,13.0
PRATOLA PELIGNA,0.5357590966122961,0.0,41,2397,183.0,81.0,27.0,S07700,Pratola Peligna,42.102423,13.876349,19.0
PUNTA RAISI,0.9279675346635103,1.0,110,5783,198.0,38.0,11.0,S12133,Punta Raisi,38.188892,13.110059,14.0
QUARTESANA,0.18556701030927836,0.0,18,978,72.0,41.0,16.0,S05170,Quartesana,,,
QUARTO D`ALTINO,2.3579414666228216,1.0,80,6086,1283.0,594.0,172.0,S02670,QUARTO D'ALTINO,45.574576,12.365032,12.0
QUILIANO VADO,8.0,8.0,16,951,1.0,1.0,0.0,S04527,Quiliano Vado,44.279933,8.435562,2.0
