stop_name,day_of_week,avg_arrival_delay,median_arrival_delay,count_trains,count_stops,count_3m_delay,count_5m_delay,count_10m_delay,stop_lat,stop_lon
ABBIATEGRASSO,Sun,2.3852459016393444,1.0,33,366,66,37,19,45.400631,8.921305
ACQUANEGRA CREMONESE,Sun,3.054054054054054,2.0,4,37,13,8,1,45.172102,9.888456
ACQUEDOLCI-S.FRATELLO,Sun,0.36923076923076925,0.0,5,65,5,3,0,38.058459,14.587597
ACQUI TERME,Sun,2.0412371134020617,1.0,16,194,32,15,5,44.67407,8.474482
AFRICO NUOVO,Sun,1.72,1.0,2,25,3,2,1,38.053759,16.144283
AIRUNO,Sun,2.1372549019607843,1.0,37,357,50,28,9,45.754086,9.422066
ALANO FENER VALDOBBIADENE,Sun,0.7039473684210527,0.0,20,152,20,6,2,45.90229,11.944546
ALBACINA,Sun,2.0384615384615383,2.0,16,182,37,20,6,43.345686,12.986501
ALBIZZATE SOLBIATE ARNO,Sun,0.8110687022900763,-1.0,69,524,97,47,11,45.724117,8.80621
ALCANTARA,Sun,-0.14935064935064934,-1.0,15,154,12,6,4,37.82145,15.251158
ALI` TERME,Sun,0.1921182266009852,0.0,18,203,17,9,5,38.013952,15.435184
ALTAVILLA M.,Sun,-0.13043478260869565,0.0,17,207,5,1,1,38.048392,13.554421
AMOROSI MELIZZANO,Sun,3.6153846153846154,1.0,5,52,20,17,5,41.173509,14.470759
ANCONETTA,Sun,0.8646288209606987,3.0,18,229,99,13,7,45.565249,11.567865
ANGUILLARA,Sun,2.631782945736434,2.0,46,516,148,43,6,42.068133,12.304978
ANTRODOCO CENTRO,Sun,6.293103448275862,5.0,9,116,62,56,22,42.409844,13.07096
ANZIO,Sun,1.735408560311284,2.0,20,257,28,9,3,41.4532,12.633205
ANZIO COLONIA,Sun,1.6285714285714286,1.0,19,245,16,6,2,41.459893,12.617442
APPIANO,Sun,1.9771505376344085,1.0,67,744,108,44,8,41.909342,12.43838
ARBIA,Sun,2.9084967320261437,2.0,14,153,55,20,7,43.294393,11.406225
ARCORE,Sun,1.2531824611032532,0.0,73,707,105,41,11,45.623493,9.322798
AREZZO,Sun,2.2513966480446927,1.0,68,716,200,118,58,43.461725,11.874189
ARGENTA,Sun,0.9423076923076923,1.0,18,208,19,3,1,44.616867,11.841267
ARPINO,Sun,2.588235294117647,2.0,2,17,4,2,1,41.648296,13.59959
ASCEA,Sun,4.3686868686868685,2.0,34,396,151,103,38,40.140955,15.172626
ASCIANO MONTE OLIVETO MAGGIORE,Sun,3.46875,3.0,14,160,61,16,5,43.231706,11.563621
ASCOLI SATRIANO,Sun,0.8333333333333334,1.0,8,102,18,10,5,41.219859,15.547828
ASOLA,Sun,5.683333333333334,4.0,15,180,101,60,15,45.220454,10.402313
ASSEMINI,Sun,0.25,-1.0,53,528,30,17,7,39.287603,8.997936
AVIGLIANO LUCANIA,Sun,0.4605809128630705,0.0,19,241,18,14,5,40.714667,15.785619
BAGNOLI AGNANO TERME,Sun,-0.33069082672706684,-1.0,156,883,43,23,12,40.819444,14.166694
BALESTRATE,Sun,3.57,2.0,8,100,34,18,5,38.053364,13.007374
BARBIANO,Sun,1.8636363636363635,1.0,3,22,1,1,1,44.387263,11.878086
BARGA GALLICANO,Sun,3.161676646706587,2.0,13,167,45,18,4,44.068114,10.451938
BARI S. SPIRITO,Sun,2.5703703703703704,1.0,22,270,52,35,19,41.159653,16.746324
BARI ZONA INDUSTRIALE,Sun,0.7868217054263565,-1.0,20,258,31,22,10,,
BARONISSI,Sun,2.3230769230769233,1.0,12,130,30,17,4,40.743779,14.77224
BASTIA,Sun,2.8629441624365484,2.0,18,197,64,27,8,43.07133,12.547735
BATTIPAGLIA,Sun,2.9940029985007497,1.0,57,667,189,122,64,40.605789,14.98324
BAVENO,Sun,3.015873015873016,1.0,31,189,56,26,10,45.909105,8.502121
BEAULARD,Sun,2.7370689655172415,1.0,20,232,47,23,9,45.046495,6.759713
BELGIRATE,Sun,4.220430107526882,2.0,31,186,81,48,23,45.843337,8.570821
BELLA MURO,Sun,3.9224806201550386,2.0,12,129,52,36,11,40.700914,15.542936
BELLANTE RIPATTONE,Sun,5.605263157894737,5.0,3,38,33,19,0,42.705775,13.837978
BELLAVISTA,Sun,-8.0,-8.0,1,1,0,0,0,40.517077,17.176892
BERCETO,Sun,1.439344262295082,1.0,41,305,56,36,9,44.555912,9.931759
BERGAMO,Sun,1.3727530747398298,1.0,92,1057,216,103,26,45.690271,9.675082
BOLLATE NORD,Sun,0.40061162079510704,0.0,85,981,42,15,1,,
BOLOGNA C.LE/AV,Sun,2.5606531881804044,0.0,119,1286,349,254,128,44.50626,11.342267
BONASSOLA,Sun,17.25,13.0,4,4,4,4,3,44.184867,9.582673
BONORVA,Sun,3.924731182795699,2.0,8,93,33,17,6,40.417763,8.760707
BORGO S.L.RIMORELLI,Sun,6.408,6.0,12,125,118,68,8,43.953279,11.400076
BORGO VALSUGANA CENTRO,Sun,2.4166666666666665,2.0,6,72,12,6,1,46.051182,11.453967
BORGO VERCELLI,Sun,0.25903614457831325,0.0,13,166,11,6,2,45.359252,8.461474
BORGOCHIESANUOVA,Sun,2.243119266055046,1.0,18,218,37,26,14,,
BORGOLOMBARDO,Sun,-0.44285714285714284,-1.0,81,560,40,23,7,45.403856,9.27111
BOZZOLO,Sun,4.129411764705883,2.0,22,255,90,57,21,45.107246,10.472655
BRACCIANO,Sun,2.042372881355932,2.0,32,354,84,25,5,42.103667,12.173023
BRANCALEONE,Sun,2.646766169154229,1.0,16,201,60,31,10,37.965475,16.103301
BRANDIZZO,Sun,1.1116504854368932,1.0,16,206,10,6,2,45.178915,7.841218
BRESCIA,Sun,2.5708582834331337,1.0,139,1503,349,203,88,45.532315,10.212828
BRESSANA BOTTARONE,Sun,3.430167597765363,1.0,15,179,39,22,11,45.086298,9.110602
BRIATICO,Sun,4.16,3.0,7,75,20,10,4,38.725447,16.025765
BUONCONVENTO,Sun,1.7413793103448276,2.0,6,58,10,2,0,43.135503,11.483773
BUSSETO,Sun,-0.7272727272727273,-2.0,4,44,3,1,0,44.974692,10.038909
CALCERANICA,Sun,4.027777777777778,3.0,6,72,34,12,3,46.007384,11.240713
CALOLZIOCORTE OLGINATE,Sun,1.9234507897934385,1.0,81,823,157,75,23,45.801619,9.42698
CAMBIANO SANTENA,Sun,1.5887445887445888,1.0,18,231,34,11,6,44.966491,7.773225
CAMPOBELLO DI MAZARA,Sun,0.8672566371681416,-1.0,9,113,25,19,7,37.636256,12.733165
CAMPOLIGURE MASONE,Sun,3.25,3.0,14,152,53,24,3,44.530909,8.700878
CAMPOSAMPIERO,Sun,0.202991452991453,0.0,39,468,23,8,2,45.568922,11.928293
CAMUCIA CORTONA,Sun,3.669135802469136,2.0,35,405,138,85,28,43.261104,11.971245
CANDELO,Sun,1.3370165745856353,1.0,14,181,4,2,2,45.547433,8.100103
CAPACI,Sun,12.0,12.0,1,1,1,1,1,38.171794,13.232398
CAPANNELLE,Sun,1.3456140350877193,1.0,44,570,73,35,6,41.830713,12.568884
CAPO BONIFATI,Sun,3.5738636363636362,2.0,15,176,61,35,14,39.558342,15.874052
CARIMATE,Sun,1.8659420289855073,1.0,70,828,156,86,25,45.697094,9.107188
CAROVIGNO,Sun,12.0,12.0,1,1,1,1,1,40.737337,17.683791
CARPANE`VALSTAGNA,Sun,0.9722222222222222,0.0,6,72,5,3,2,45.860128,11.661183
CARPIGNANO SESIA,Sun,1.5555555555555556,1.0,14,153,7,4,1,45.528934,8.422898
CARRARA AVENZA,Sun,7.516129032258065,5.0,25,31,19,14,6,44.051239,10.062927
CASALPUSTERLENGO,Sun,2.2002923976608186,1.0,64,684,153,79,21,45.182473,9.653627
CASCINA,Sun,2.2902097902097904,1.0,23,286,75,40,13,43.674542,10.545225
CASERTA,Sun,2.0187207488299532,1.0,57,641,182,120,62,41.068655,14.328457
CASTEL GANDOLFO,Sun,0.7747252747252747,1.0,14,182,17,2,0,41.746946,12.652266
CASTEL S.ANGELO,Sun,2.814159292035398,2.0,9,113,30,8,5,42.379666,13.017612
CASTEL S.GIOVANNI,Sun,3.2261306532663316,2.0,20,199,53,29,12,45.063272,9.436856
CASTELDACCIA,Sun,4.0,4.0,1,1,1,0,0,38.060474,13.536867
CASTELFIORENTINO,Sun,13.791666666666666,9.0,15,24,24,24,11,43.60542,10.968048
CASTELGUELFO,Sun,0.875,1.0,3,24,4,0,0,44.836434,10.176706
CASTELLANETA,Sun,2.3120567375886525,1.0,11,141,15,9,5,,
CASTELLANZA,Sun,0.7368421052631579,0.0,51,589,22,9,2,,
CASTELLEONE,Sun,2.963254593175853,2.0,34,381,107,43,20,45.301826,9.76779
CASTELMAGGIORE,Sun,3.0377358490566038,1.0,13,159,39,26,11,44.576055,11.366901
CASTELVETRANO,Sun,1.1228070175438596,0.0,9,114,21,16,7,37.684977,12.799552
CASTELVETRO,Sun,0.1590909090909091,0.0,4,44,2,2,0,45.100095,9.982181
CASTRONNO,Sun,2.015679442508711,1.0,85,574,96,47,10,45.74524,8.810302
CATANIA AER. FONTANAROSSA,Sun,5.0,4.0,1,2,2,1,0,,
CATTOLICA S.GIOVANNI GABICCE,Sun,2.0604395604395602,1.0,35,364,91,53,26,43.959931,12.745087
CAVA CARBONARA,Sun,3.0206896551724136,3.0,12,145,40,10,5,45.147055,9.071387
CA` DI BOSCHETTI,Sun,0.4,0.0,5,5,0,0,0,44.117925,9.857449
CECCANO,Sun,0.5504885993485342,0.0,24,307,16,8,3,41.573583,13.336417
CECCHINA,Sun,2.2427184466019416,1.0,16,206,37,12,4,41.692029,12.650992
CENGIO,Sun,2.065015479876161,2.0,25,323,57,27,8,44.390798,8.191824
CERVIGNANO A.G.,Sun,0.971473851030111,0.0,53,631,63,36,14,45.823948,13.342866
CESANO MADERNO,Sun,-0.23720259552992068,0.0,123,1387,17,12,5,,
CESATE,Sun,0.2996941896024465,0.0,85,981,21,4,1,,
CESENATICO,Sun,1.8581730769230769,1.0,48,416,74,47,18,44.20065,12.391186
CHATILLON SAINT VINCENT,Sun,2.0866336633663365,1.0,33,404,66,38,16,45.7434,7.619309
CHIASSO,Sun,-0.7772277227722773,-2.0,55,606,65,43,14,45.830736,9.03421
CHIETI,Sun,1.1422222222222222,0.0,18,225,26,14,9,42.356905,14.13815
CHIGNOLO PO,Sun,2.193717277486911,2.0,17,191,51,25,1,45.160942,9.494196
CHIUSI C.T.,Sun,2.377880184331797,1.0,46,434,119,78,41,43.002466,11.957893
CHIVASSO,Sun,0.4263959390862944,1.0,80,985,120,65,26,45.193637,7.889666
CIVITA CASTELLANA,Sun,0.8038585209003215,0.0,46,311,17,5,4,42.346593,12.453821
CODOGNO,Sun,2.8275862068965516,1.0,72,783,195,110,39,45.154897,9.701376
COLLE MATTIA,Sun,1.410071942446043,1.0,11,139,15,9,2,41.832756,12.728329
COLLEGNO,Sun,1.4164859002169197,0.0,38,461,56,32,18,45.078854,7.574131
COLLEVECCHIO,Sun,1.7123745819397993,1.0,45,299,25,10,4,42.298089,12.520546
COLOGNE,Sun,5.0,5.0,1,1,1,0,0,45.576627,9.935316
COLONNA GALLERIA,Sun,2.219298245614035,1.0,9,114,14,12,1,,
CORIGLIANO CALABRO,Sun,3.727272727272727,3.0,13,165,67,37,13,39.628223,16.514949
CORNUDA,Sun,2.1077844311377247,1.0,22,167,37,14,4,45.833846,12.012886
CORONELLA,Sun,4.7,2.0,5,60,17,11,4,,
CORRIDONIA MOGLIANO,Sun,1.4230769230769231,0.0,11,130,17,12,5,43.281616,13.477697
CREMA,Sun,3.3973684210526316,2.0,34,380,116,49,19,45.366864,9.694209
CUNEO,Sun,-0.9651162790697675,-2.0,20,258,19,12,6,44.387914,7.536235
CUPRAMARITTIMA,Sun,3.0142857142857142,1.0,15,140,40,26,7,43.02349,13.860812
DIAMANTE BUONVICINO,Sun,4.293532338308458,3.0,17,201,93,51,14,39.67701,15.824278
DORIO,Sun,4.665551839464883,3.0,26,299,133,79,34,46.102756,9.319063
DORMELLETTO,Sun,2.657754010695187,1.0,31,187,56,40,8,45.7233,8.581906
EBOLI,Sun,4.9784172661870505,2.0,12,139,50,36,18,40.611057,15.052382
ELMAS AEROPORTO,Sun,0.9032258064516129,1.0,71,713,51,27,15,,
EMPOLI,Sun,-0.1648431801604668,-1.0,109,1371,148,81,20,43.715708,10.94915
ENAS,Sun,1.0,1.0,1,1,0,0,0,40.85706,9.431095
ENNA,Sun,1.5826771653543308,0.0,14,127,24,15,6,37.581134,14.289579
ERBA,Sun,0.0,0.0,27,282,0,0,0,,
FALCIANO MONDRAGONE CAR.,Sun,1.5114503816793894,1.0,21,262,47,25,9,41.123525,13.971792
FASANO,Sun,2.175925925925926,1.0,40,432,96,50,18,40.851753,17.3859
FELIZZANO,Sun,0.8351648351648352,1.0,7,91,3,1,1,44.893367,8.437155
FERRUZZANO,Sun,0.4,-1.0,2,25,3,2,0,38.016304,16.134486
FIDENE,Sun,1.3227146814404431,1.0,87,722,43,21,8,41.979773,12.508451
FIDENZA,Sun,1.3906111603188662,1.0,111,1129,223,139,70,44.86773,10.06339
FIESOLE CALDINE,Sun,2.0816326530612246,1.0,19,245,46,23,11,43.833697,11.266047
FILATTIERA,Sun,1.4578313253012047,0.0,17,166,35,21,6,44.33137,9.933352
FILIANO,Sun,2.31,1.0,8,100,16,8,2,40.837161,15.752285
FINALE LIGURE MARINA,Sun,3.6644844517184945,2.0,65,611,230,142,41,44.169116,8.34033
FIRENZE CASTELLO,Sun,0.766497461928934,1.0,17,197,13,5,0,43.819444,11.21838
FIUMICINO AEROPORTO,Sun,-0.4092664092664093,-1.0,130,1295,100,39,15,41.793673,12.251728
FIVIZZANO ROMETTA - SOLIERA,Sun,3.3026315789473686,2.0,12,152,47,29,3,44.201526,10.05953
FOLIGNO,Sun,1.8451776649746192,0.0,38,394,83,56,27,42.954261,12.711096
FOLLONICA,Sun,2.525462962962963,1.0,38,432,99,70,25,42.926687,10.755775
FORLIMPOPOLI,Sun,2.943231441048035,1.0,20,229,67,40,10,44.194165,12.128125
FRATTAMAGGIORE,Sun,6.5,5.0,4,4,3,2,1,40.940018,14.263676
FRATTE CENTRO,Sun,0.75,1.0,4,4,0,0,0,45.585849,11.906637
GALLESE IN TEVERINA,Sun,2.0100334448160537,1.0,45,299,35,7,4,42.380901,12.439732
GARLASCO,Sun,2.331034482758621,1.0,12,145,16,8,5,45.198948,8.926829
GATTEO A MARE,Sun,3.010840108401084,1.0,44,369,72,47,16,44.170691,12.432057
GAVIGNANO,Sun,2.9260450160771705,2.0,46,311,51,17,4,,
GAZZO PIEVE S. GIACOMO,Sun,1.7777777777777777,2.0,4,45,7,5,1,45.137151,10.189922
GENGA S.VITTORE TERME,Sun,1.5916666666666666,1.0,10,120,20,10,3,43.403011,12.977163
GENOVA ACQUASANTA,Sun,2.6447368421052633,2.0,14,152,46,24,3,44.458757,8.773197
GENOVA PEGLI,Sun,13.0,1.0,2,2,1,1,1,44.426236,8.816767
GENOVA PRA,Sun,7.75,3.0,4,4,2,2,2,44.426874,8.785356
GENOVA QUINTO AL MARE,Sun,10.666666666666666,10.0,3,3,3,3,1,44.385184,9.020514
GENOVA SAMPIERDARENA,Sun,0.5336538461538461,0.0,96,1040,107,70,29,44.413102,8.887271
GENOVA SESTRI PONENTE,Sun,1.4348484848484848,0.0,61,660,90,57,24,44.422374,8.847707
GENOVA VOLTRI,Sun,0.7147385103011094,0.0,58,631,97,54,22,44.428467,8.758163
GHIVIZZANO - COREGLIA,Sun,3.5421686746987953,2.0,13,166,55,31,4,44.027583,10.510183
GIAVE,Sun,5.1375,3.0,7,80,34,19,7,40.455875,8.729388
GIOIA DEL COLLE,Sun,1.813953488372093,-1.0,20,215,32,20,15,40.796983,16.916569
GIOIA TAURO,Sun,2.9276807980049875,0.0,39,401,76,52,36,38.423436,15.897516
GIOIOSA JONICA,Sun,1.5693069306930694,1.0,16,202,49,30,6,38.300812,16.332501
GIUNCANO,Sun,3.625,0.0,4,8,2,1,1,42.647802,12.637694
GLORIE,Sun,1.0303030303030303,1.0,3,33,1,0,0,44.483341,12.075736
GODO,Sun,5.115671641791045,4.0,25,268,150,90,23,44.389322,12.071256
GOLFO ARANCI,Sun,-2.0,-2.0,2,25,0,0,0,40.997261,9.62471
GONZAGA-REGGIOLO,Sun,1.573394495412844,0.0,18,218,31,22,15,44.939239,10.815533
GORIANO SICOLI,Sun,0.5,0.0,1,12,0,0,0,42.082698,13.78286
GRASSANO,Sun,2.8842105263157896,1.0,8,95,27,18,7,40.593317,16.241049
GRECCIO,Sun,2.9126984126984126,2.0,10,126,33,13,5,42.462872,12.777009
GRISIGNANO DI ZOCCO,Sun,2.1589958158995817,1.0,21,239,48,24,8,45.48638,11.710762
GROSSETO,Sun,1.8200757575757576,0.0,49,528,129,89,48,42.76728,11.1065
GRUGLIASCO,Sun,0.0,0.0,4,4,0,0,0,,
GRUMO APPULA,Sun,2.50354609929078,1.0,11,141,19,7,4,41.01199,16.718777
GUADAGNA,Sun,0.9746543778801844,1.0,34,434,6,4,3,,
GUALDO TADINO,Sun,2.3405797101449277,1.0,13,138,28,18,7,43.233475,12.7672
GUIDONIA-MONTECELIO-S.ANGELO,Sun,2.2510822510822512,1.0,18,231,45,21,7,41.993405,12.725681
HONE BARD,Sun,2.558411214953271,1.0,33,428,93,47,18,45.613918,7.741345
IGLESIAS,Sun,-0.796875,-1.0,11,128,5,3,1,39.310563,8.539786
INVERIGO,Sun,0.0,0.0,29,307,0,0,0,,
ISOLA DELLE FEMMINE,Sun,-1.1550925925925926,-1.0,34,432,2,2,1,38.194784,13.250188
JESI,Sun,1.2749003984063745,0.0,22,251,37,24,13,43.520164,13.251316
LA GIUSTINIANA,Sun,2.3938172043010755,2.0,67,744,146,62,7,41.985243,12.403457
LADISPOLI-CERVETERI,Sun,1.1944444444444444,1.0,37,432,70,35,7,41.953502,12.081675
LATISANA LIGNANO B.,Sun,1.4741697416974169,0.0,46,542,87,42,13,45.777733,13.001101
LECCE,Sun,0.9838709677419355,-2.0,34,372,72,48,29,40.34566,18.165724
LECCO MAGGIANICO,Sun,1.2832861189801699,1.0,37,353,47,25,7,45.831179,9.411691
LEVANTO,Sun,1.803225806451613,1.0,101,930,208,131,45,44.174167,9.616018
LEVICO,Sun,3.2222222222222223,3.0,6,72,22,7,2,46.005729,11.30493
LIMONE,Sun,-3.448717948717949,-4.0,6,78,0,0,0,44.203799,7.577912
LISON,Sun,2.4299065420560746,1.0,19,214,33,18,5,45.751947,12.759416
LOLLI,Sun,1.0425531914893618,1.0,37,470,5,3,1,,
LONGARONE ZOLDO,Sun,2.2992125984251968,2.0,18,127,25,7,3,46.267466,12.301953
LUGO,Sun,3.8777173913043477,3.0,34,368,148,74,31,44.414106,11.914723
LUINO,Sun,2.5929203539823007,2.0,13,113,27,7,1,45.996643,8.737464
LUNGAVILLA,Sun,0.9052631578947369,0.0,16,190,17,8,3,45.049837,9.068968
LUNGHEZZA,Sun,0.819672131147541,-1.0,19,244,32,21,6,41.923253,12.667212
L`AQUILA,Sun,0.02197802197802198,-1.0,7,91,10,5,1,42.351055,13.384959
MACERATA,Sun,1.3475177304964538,1.0,12,141,29,15,6,43.293094,13.455172
MADDALONI INFERIORE,Sun,21.384615384615383,16.0,12,13,13,13,10,41.035954,14.380504
MADIGNANO,Sun,4.135135135135135,3.0,32,370,144,64,24,45.34383,9.730179
MAGLIANO CRAVA MOROZZO,Sun,-0.01098901098901099,-1.0,7,91,7,5,1,44.445259,7.777852
MALEO,Sun,4.191489361702128,4.0,5,47,26,13,1,45.170118,9.755201
MALPENSA AEROPORTO T1,Sun,0.0,0.0,39,375,0,0,0,,
MANZANO,Sun,1.6192468619246863,1.0,20,239,27,13,3,45.98811,13.375016
MARANO,Sun,2.890829694323144,2.0,18,229,45,9,2,45.706864,11.4246
MARATEA,Sun,5.137704918032787,2.0,30,305,126,86,31,39.995028,15.70975
MARINO,Sun,-1.2912087912087913,-2.0,14,182,5,3,0,41.768961,12.655994
MARSALA,Sun,1.3628318584070795,0.0,9,113,18,14,8,37.793514,12.443174
MEINA,Sun,3.486772486772487,1.0,31,189,74,49,18,45.794389,8.535452
MELE,Sun,3.0328947368421053,2.0,14,152,51,23,4,44.472797,8.733953
MELITO DI PORTO SALVO,Sun,0.7934782608695652,0.0,23,276,38,23,8,37.916732,15.780816
MEOLO,Sun,29.2,13.0,5,5,4,4,3,45.61319,12.453969
MERANA,Sun,3.484126984126984,2.0,10,126,42,17,4,44.519368,8.298327
MESAGNE,Sun,32.0,32.0,1,1,1,1,1,40.563203,17.802082
MI P.GAR.SOTT.,Sun,3.3021290976681312,2.0,288,2959,841,415,115,45.484228,9.185122
MI.P.GENOVA,Sun,0.1443850267379679,-2.0,17,187,25,20,12,45.453379,9.169303
MILANO CERTOSA,Sun,2.4189274447949525,2.0,138,1585,334,164,40,45.507019,9.133863
MILANO LAMBRATE,Sun,2.1396348012889366,1.0,253,2793,489,290,137,45.484933,9.237333
MILANO LANCETTI,Sun,1.2125506072874495,0.0,289,2964,478,260,64,45.492632,9.175832
MILANO S. CRISTOFORO,Sun,0.1837837837837838,-1.0,50,555,59,41,24,45.442404,9.130258
MIRA MIRANO,Sun,-1.0,-1.0,1,1,0,0,0,45.462943,12.118789
MIRADOLO TERME,Sun,3.298429319371728,3.0,17,191,70,33,2,45.162007,9.449952
MIRANDOLA,Sun,5.120111731843576,3.0,30,358,179,122,39,44.891638,11.111689
MOGLIANO VENETO,Sun,1.066411238825032,0.0,68,783,70,41,16,45.561964,12.23274
MOLTENO,Sun,1.9772727272727273,2.0,22,220,27,12,4,45.780939,9.301683
MONFALCONE,Sun,1.4948837209302326,0.0,91,1075,131,76,40,45.807683,13.542929
MONSELICE,Sun,1.1577380952380953,-1.0,58,672,94,64,40,45.246116,11.74789
MONTEBELLUNA,Sun,1.0545977011494252,1.0,36,348,37,7,5,45.776434,12.054
MONTECARLO SAN SALVATORE,Sun,2.496732026143791,2.0,32,153,44,18,6,43.850798,10.68537
MONTELUPO CAPRAIA,Sun,15.428571428571429,10.0,6,7,6,5,3,43.733357,11.018997
MONTEPULCIANO,Sun,2.8,2.0,14,160,23,14,8,43.135353,11.856865
MONTEROSSO,Sun,3.0600461893764432,1.0,102,866,240,160,52,44.145967,9.649009
MONZA,Sun,1.8933434190620273,1.0,246,2644,431,206,87,45.577789,9.273253
MONZA SOBBORGHI,Sun,1.9136363636363636,1.0,22,220,27,12,2,45.582082,9.284375
MORI,Sun,9.0,9.0,1,1,1,1,0,45.861216,11.002648
MORROVALLE MONTE S.GIUSTO,Sun,2.457516339869281,1.0,13,153,38,21,6,43.279189,13.58285
MURATELLA,Sun,2.8574739281575896,2.0,99,863,196,68,24,41.826182,12.412696
NAPOLI MERGELLINA,Sun,5.666666666666667,6.0,3,3,2,2,0,40.831531,14.218662
NAPOLI MONTESANTO,Sun,14.0,2.0,3,3,1,1,1,40.847807,14.244022
NAVACCHIO,Sun,2.484848484848485,2.0,21,264,74,37,11,43.685941,10.486806
NEPEZZANO-PIANO D'ACCIO,Sun,6.164835164835165,6.0,7,91,90,51,3,,
NETTUNO,Sun,-0.10852713178294573,-1.0,10,129,6,4,3,41.459558,12.662123
NOALE SCORZE`,Sun,2.0336322869955157,2.0,39,446,66,26,13,45.553833,12.074888
NOLA,Sun,5.036363636363636,3.0,17,165,70,40,21,40.923652,14.525004
NOVI LIGURE,Sun,0.3317422434367542,-1.0,33,419,43,16,9,44.762521,8.787289
OLEGGIO,Sun,2.4725274725274726,2.0,14,182,39,8,1,45.598029,8.632586
OMEGNA CRUSINALLO,Sun,2.065934065934066,1.0,7,91,14,3,1,45.898138,8.413929
OZZANO TARO,Sun,3.475113122171946,2.0,42,221,68,38,11,44.712268,10.141022
PADERNO DUGNANO,Sun,0.0,0.0,65,738,0,0,0,,
PAESE,Sun,14.0,14.0,1,1,1,1,1,45.669207,12.161677
PALAGIANO CHIATONA,Sun,1.1538461538461537,1.0,3,39,5,4,1,40.516998,17.059217
PALAZZO REALE-ORLEANS,Sun,-1.2851063829787235,-2.0,37,470,4,3,1,38.10878,13.353962
PALIDANO,Sun,3.6743119266055047,2.0,18,218,48,32,17,44.972228,10.777412
PAULILATINO,Sun,1.3529411764705883,0.0,5,51,7,6,3,40.077373,8.775812
PAVIA,Sun,2.315648085963734,1.0,143,1489,368,196,72,45.188843,9.144674
PELLEZZANO,Sun,2.9076923076923076,2.0,12,130,40,23,6,40.719928,14.777354
PERAROLO DI CADORE,Sun,2.2283464566929134,2.0,18,127,26,13,3,46.386277,12.352493
PESARO,Sun,3.8642117376294594,1.0,79,869,295,212,116,43.906014,12.904848
PESCARA PORTA NUOVA,Sun,0.815668202764977,0.0,17,217,19,10,3,42.458072,14.211663
PESCINA,Sun,1.5833333333333333,1.0,1,12,0,0,0,42.037564,13.668981
PIACENZA,Sun,1.4939341421143848,-1.0,123,1154,231,159,82,45.052238,9.70633
PIANORO,Sun,0.6129032258064516,-1.0,29,217,27,16,8,44.380589,11.340675
PIAZZA AMEDEO,Sun,-1.1655104063429138,-2.0,182,1009,40,34,24,40.838506,14.232974
PIEDIMONTE-V.S.L.-AQUINO,Sun,0.8990825688073395,0.0,26,327,19,11,4,,
PIETRAGALLA,Sun,2.386046511627907,1.0,17,215,29,14,4,40.753314,15.79211
PIOMBINO BINARI MARE,Sun,0.6,0.0,5,50,4,1,0,42.928931,10.54525
PIONA,Sun,4.043478260869565,2.0,26,299,116,77,31,46.124696,9.350759
PISA CENTRALE,Sun,1.2749445676274944,0.0,158,1804,359,222,89,43.70794,10.398183
PISCINA DI PINEROLO,Sun,0.5748792270531401,-1.0,16,207,37,20,1,44.921744,7.425482
PISTICCI,Sun,3.5384615384615383,1.0,4,52,17,6,2,40.420848,16.552181
PIZZO,Sun,3.3333333333333335,1.0,7,75,19,11,4,38.726323,16.150615
PLOAGHE,Sun,3.1082474226804124,2.0,15,194,63,35,12,40.66132,8.728075
POGGIO FIDONI,Sun,9.76923076923077,8.0,1,13,13,13,2,42.395811,12.795429
POGGIO MIRTETO,Sun,-0.028985507246376812,-1.0,61,414,14,8,5,42.242187,12.633043
POGGIRIDENTI-TRESIVIO-PIATEDA,Sun,2.4285714285714284,1.0,5,42,9,7,2,46.166888,9.93382
POLLINA,Sun,-1.1643835616438356,-1.0,8,73,4,2,2,38.018,14.175943
PONTE D`ADIGE,Sun,1.1871657754010696,1.0,30,374,52,12,2,46.485444,11.297719
PONTE GALERIA,Sun,2.267670915411356,2.0,99,863,140,48,23,41.818349,12.344733
PONTECCHIO MARCONI,Sun,1.8936170212765957,2.0,4,47,5,0,0,44.42294,11.26919
PONTICINO,Sun,2.6467065868263475,2.0,28,334,89,36,12,43.481446,11.71657
PORTOGRUARO CAORLE,Sun,1.8631578947368421,1.0,57,665,95,42,14,45.781438,12.832375
POSTIOMA,Sun,2.0440528634361232,2.0,30,227,24,3,2,45.715862,12.148248
POTENZA CENTRALE,Sun,-0.2056451612903226,-2.0,21,248,31,23,9,40.629469,15.806808
POTENZA SUPERIORE,Sun,0.03543307086614173,-1.0,20,254,11,6,4,40.64586,15.800966
PRATOLA PELIGNA SUPERIORE,Sun,3.3384615384615386,6.0,5,65,39,39,1,42.080415,13.87223
PRIOLO MELILLI,Sun,1.3333333333333333,0.0,6,48,11,5,3,37.157951,15.197038
PRIVERNO FOSSANOVA,Sun,1.1175115207373272,-1.0,35,434,74,42,19,41.421853,13.186406
QUATTRO VILLE,Sun,1.7155963302752293,1.0,18,218,27,13,6,,
QUERO VAS,Sun,2.4671052631578947,2.0,20,152,27,6,3,45.939306,11.920189
RACALMUTO,Sun,-1.1923076923076923,-2.0,2,26,0,0,0,37.406065,13.72752
REGGIO CALABRIA CENTRALE,Sun,-0.059322033898305086,-2.0,42,472,49,35,21,38.103884,15.635844
REGGIO MEDIOPADANA,Sun,1.619047619047619,1.0,3,21,2,2,0,,
RHO FIERA MILANO,Sun,2.686414708886619,2.0,274,2937,793,362,105,,
RIPAFRATTA,Sun,2.1246537396121883,2.0,30,361,60,28,7,43.821711,10.415733
ROBBIO,Sun,3.3278688524590163,2.0,10,122,34,6,4,45.293542,8.597051
ROCCALUMERA MANDANICI,Sun,0.2694610778443114,-1.0,15,167,13,8,3,37.972946,15.391411
ROCCAPALUMBA-ALIA,Sun,0.2786885245901639,-1.0,17,183,26,12,5,37.793751,13.673628
ROCCHETTA S.ANT.LAC.,Sun,0.6190476190476191,1.0,5,63,9,6,0,41.1518,15.53295
ROCCHETTA TANARO CERRO,Sun,0.5,1.0,7,90,4,1,1,44.875574,8.351402
ROMA BALDUINA,Sun,1.7809139784946237,1.0,67,744,106,45,8,,
ROMA MONTE MARIO,Sun,1.3951612903225807,1.0,67,744,82,35,7,41.939088,12.421732
ROMA TRASTEVERE,Sun,2.3406698564593302,2.0,207,2090,460,182,40,41.872279,12.466162
ROMA TUSCOLANA,Sun,0.14771904417089066,-1.0,149,1381,79,35,11,41.879384,12.523505
ROSARNO,Sun,3.028397565922921,1.0,47,493,105,73,40,38.488593,15.970149
ROSSIGLIONE,Sun,1.5526315789473684,1.0,14,152,34,12,3,44.566955,8.668051
ROSTA,Sun,3.0,0.0,3,3,1,1,0,45.078397,7.463963
ROVASENDA,Sun,0.21052631578947367,0.0,14,152,4,2,1,45.537291,8.317376
ROVATO,Sun,1.79319606087735,0.0,102,1117,172,100,46,45.55193,10.000924
ROVERBELLA,Sun,1.5870967741935484,1.0,15,155,24,13,4,45.252645,10.796795
ROVIGO,Sun,1.597080291970803,-1.0,59,685,123,92,52,45.076993,11.780892
RUFINA,Sun,1.2331838565022422,1.0,19,223,32,13,4,43.822236,11.485072
S. DONA` DI PIAVE,Sun,2.2332535885167464,1.0,70,836,161,76,22,45.63983,12.559791
S. GIOVANNI IN CROCE,Sun,4.309859154929577,3.0,18,213,88,56,18,45.075783,10.377527
S. GIULIANO MILANESE,Sun,-0.04107142857142857,-1.0,81,560,45,23,5,45.391226,9.286418
S. GIULIANO PIACENTINO,Sun,1.5757575757575757,1.0,3,33,2,0,0,45.070627,9.985919
S. STINO DI LIVENZA,Sun,1.9182058047493404,1.0,62,758,109,58,19,45.721088,12.682769
S.ELENA - ESTE,Sun,0.7880794701986755,1.0,14,151,13,4,1,45.199209,11.712883
S.GIULIANO PIEMONTE,Sun,0.9523809523809523,1.0,6,42,4,1,1,44.890543,8.760933
S.ILARIO,Sun,3.7045454545454546,2.0,35,396,126,77,37,44.765795,10.450469
S.LORENZO MAGGIORE,Sun,3.3846153846153846,0.0,4,39,9,6,2,41.219748,14.648419
S.LUCIDO MARINA,Sun,1.564102564102564,1.0,3,39,3,2,1,39.313203,16.045546
S.MARIA CAPUA VETERE,Sun,2.5073529411764706,1.0,11,136,42,25,6,41.07353,14.254081
S.MARIA LA BRUNA,Sun,2.2641083521444694,1.0,41,443,93,46,21,40.755435,14.407647
SAIRANO ZINASCO,Sun,5.241573033707865,4.0,16,178,125,48,7,45.133795,9.030153
SAN GIORGIO,Sun,1.9325842696629214,1.0,7,89,8,6,4,38.173967,14.94414
SAN GIUSEPPE DI CAIRO,Sun,-0.40852130325814534,-1.0,31,399,32,19,6,44.370096,8.28864
SANTHIA`,Sun,1.5230312035661218,1.0,52,673,110,52,19,45.363726,8.180093
SARTIRANA,Sun,1.0846153846153845,1.0,10,130,16,9,0,45.111728,8.67012
SASSA TORNIMPARTE,Sun,0.6153846153846154,1.0,6,78,5,3,1,42.360549,13.295333
SASSO MARCONI,Sun,1.9357541899441342,1.0,30,358,62,26,5,44.394939,11.254333
SAVIGNANO SUL RUBICONE,Sun,3.7905405405405403,2.0,26,296,91,53,21,44.095191,12.40421
SCAFATI,Sun,2.473333333333333,1.0,38,450,102,58,21,40.746028,14.523253
SCALETTA ZANCLEA,Sun,1.7974683544303798,1.0,18,158,20,13,3,38.04635,15.465376
SCANZANO J. MONTALBANO J.,Sun,-3.0,-3.0,1,1,0,0,0,40.25362,16.705192
SCARLINO,Sun,3.2247191011235956,2.0,7,89,30,21,6,42.942002,10.836798
SCHIO,Sun,-3.017391304347826,-3.0,9,115,1,1,1,45.710848,11.355508
SCURCOLA MARSICANA,Sun,-0.6666666666666666,-2.0,2,24,1,0,0,42.053136,13.344374
SECUGNAGO,Sun,1.7765042979942693,1.0,34,349,60,27,10,45.223253,9.58684
SERRA S.QUIRICO,Sun,1.6666666666666667,1.0,7,84,21,9,1,43.444879,13.027408
SERRAVALLE SCRIVIA,Sun,17.0,17.0,1,1,1,1,1,44.72393,8.858548
SESTO CALENDE,Sun,2.3251231527093594,1.0,79,406,96,53,17,45.726241,8.628135
SGURGOLA,Sun,1.4827586206896552,1.0,16,203,23,10,2,41.687018,13.146199
SICIGNANO DEGLI ALBURNI,Sun,4.178571428571429,2.0,5,56,23,13,6,40.605454,15.290904
SIGNA,Sun,9.4,7.0,8,10,9,8,3,43.775441,11.095961
SILLA,Sun,2.294943820224719,1.0,30,356,85,38,3,44.177652,10.980635
SISTIANA,Sun,1.9707112970711298,1.0,20,239,34,17,8,45.774903,13.645832
SOLAGNA,Sun,2.3333333333333335,2.0,6,72,11,4,2,45.815434,11.72134
SOLARUSSA,Sun,3.215686274509804,2.0,5,51,10,7,4,39.952525,8.679813
SOLOPACA,Sun,2.9692307692307693,1.0,6,65,21,11,3,41.210521,14.571413
SOMMA LOMBARDO,Sun,3.229591836734694,2.0,40,196,59,37,12,45.686423,8.712991
SOVERATO,Sun,1.4067796610169492,2.0,14,177,37,14,5,38.684339,16.549416
SPARANISE,Sun,2.3245033112582782,1.0,12,151,35,21,7,41.185707,14.092954
SPOLETO,Sun,3.018633540372671,1.0,32,322,98,61,27,42.748121,12.736142
STABIO,Sun,0.13122171945701358,-1.0,20,221,10,10,7,,
STANGHELLA,Sun,2.16,2.0,14,150,28,11,1,45.13209,11.749094
STRAMBINO,Sun,2.141025641025641,1.0,13,156,36,21,6,45.382508,7.887955
STRIGNO,Sun,3.0833333333333335,2.0,6,72,17,8,1,46.051003,11.514327
TARCENTO,Sun,1.3421052631578947,1.0,3,38,3,2,0,46.209134,13.196211
TERLANO-ANDRIANO,Sun,1.9866310160427807,2.0,30,374,41,12,2,46.528517,11.248394
TERME EUGANEE-ABANO-MONTEGR.,Sun,2.468227424749164,0.0,53,598,104,72,39,45.32744,11.79604
TEZZE DI GRIGNO,Sun,3.2777777777777777,2.0,6,72,20,9,2,45.990485,11.669726
TIVOLI,Sun,1.25,0.0,21,264,45,27,13,41.961849,12.805047
TOLENTINO,Sun,3.1538461538461537,2.0,10,117,45,20,3,43.214556,13.290501
TOR VERGATA,Sun,2.842857142857143,2.0,11,140,24,15,2,41.823224,12.666162
TORANO LATTARICO,Sun,2.43801652892562,1.0,10,121,21,12,10,39.49455,16.210509
TORINO PORTA SUSA,Sun,1.2486111111111111,-1.0,178,2160,306,174,85,45.075906,7.667673
TRAPPETO,Sun,3.1704545454545454,2.0,7,88,29,15,5,38.065089,13.036873
TRAVEDONA BIANDRONNO,Sun,2.6201923076923075,1.0,25,208,29,15,5,45.809601,8.696322
TREVI,Sun,1.8403361344537814,0.0,11,119,26,17,4,42.8762,12.733709
TREVIGLIO,Sun,0.5817932922655715,-1.0,128,1461,219,133,49,45.515063,9.587919
TREVIGNANO SIGNORESSA,Sun,3.2035398230088497,3.0,30,226,72,18,2,45.74789,12.103123
TRIESTE AIRPORT,Sun,1.1282442748091603,0.0,55,655,58,41,16,,
TRINITA` BENE VAGIENNA,Sun,1.065934065934066,1.0,7,91,8,4,0,44.504656,7.752647
TROPEA,Sun,2.142857142857143,1.0,11,98,25,12,5,38.672302,15.894568
VAGLIA,Sun,1.6285714285714286,1.0,19,245,46,27,11,43.924442,11.284576
VALLE AURELIA,Sun,3.9440104166666665,4.0,69,768,395,88,10,41.899356,12.447667
VALLE LOMELLINA,Sun,1.6692307692307693,1.0,10,130,20,10,0,45.150588,8.685874
VALLO DELLA LUC. CASTELNUOVO,Sun,4.169921875,2.0,43,512,192,135,52,40.233316,15.266511
VARAZZE,Sun,2.478405315614618,1.0,56,602,111,70,27,44.356842,8.566682
VENAFRO,Sun,-3.7467532467532467,-3.0,12,154,14,7,4,41.482975,14.048722
VERBANIA-PALLANZA,Sun,1.8188585607940446,0.0,76,403,83,49,21,45.943821,8.47224
VERCURAGO S.GIROLAMO,Sun,1.9930555555555556,1.0,12,144,29,10,1,45.812122,9.422349
VERNIO MONTEPIANO CANTAGALLO,Sun,3.267175572519084,2.0,18,131,37,20,8,44.043991,11.152342
VERRES,Sun,2.0023809523809524,1.0,33,420,78,45,17,45.659822,7.690012
VIA LUNGA,Sun,-0.14942528735632185,0.0,10,87,1,1,0,,
VICENZA,Sun,0.9174236168455822,-1.0,114,1211,183,125,57,45.541102,11.540762
VICOFORTE SAN MICHELE,Sun,1.0,1.0,7,91,5,3,0,44.37404,7.894687
VIGNATE,Sun,12.0,12.0,1,1,1,1,1,45.493946,9.374083
VIGNOLA,Sun,-0.8095238095238095,-1.0,5,42,1,0,0,,
VILLA SAN GIOVANNI,Sun,1.5340909090909092,-1.0,65,616,91,67,43,38.216638,15.634336
VILLABASSA - BRAIES,Sun,-0.6428571428571429,0.0,7,70,1,1,1,46.736492,12.167041
VILLAMAGGIORE,Sun,2.8825857519788918,3.0,67,758,255,81,14,45.32045,9.190674
VILLANOVA D`ARDA,Sun,-0.29545454545454547,-1.0,4,44,2,1,0,45.028291,9.993291
VILLASANTA,Sun,0.8363636363636363,0.0,22,220,18,11,2,45.603434,9.304923
VILLASOR,Sun,1.9128440366972477,1.0,25,218,32,19,8,39.381451,8.935907
VILLAVERLA MONTECCHIO,Sun,3.2794759825327513,3.0,18,229,89,7,2,45.656998,11.524271
VISANO,Sun,4.155555555555556,3.0,15,180,81,54,15,45.31531,10.363098
VITERBO PORTA ROMANA,Sun,0.27319587628865977,0.0,18,194,7,4,2,42.411974,12.110482
VITTUONE ARLUNO,Sun,2.3438320209973753,2.0,64,762,162,78,23,45.491054,8.947299
ZAGAROLO,Sun,0.4692737430167598,0.0,28,358,28,12,1,41.821927,12.82692
ZAMBRA,Sun,-0.013986013986013986,-1.0,13,143,6,1,0,43.825856,11.206206
ZAMBRONE,Sun,4.133333333333334,2.0,7,75,19,11,5,38.712738,15.976204
ACQUAFREDDA,Sun,9.0,5.0,2,2,2,1,1,40.035527,15.671846
ACQUAVIVA,Sun,2.0709677419354837,1.0,13,155,24,11,6,37.570258,13.674927
AIRASCA,Sun,1.1352657004830917,0.0,16,207,32,13,1,44.928093,7.483536
ALA,Sun,4.020356234096692,3.0,33,393,168,114,32,45.760087,10.996775
ALBANO DI LUCANIA,Sun,4.384615384615385,1.0,2,26,6,5,1,40.574707,16.021247
ALBUZZANO,Sun,2.387434554973822,2.0,17,191,37,14,3,45.172504,9.261624
ALESSANDRIA,Sun,-0.2694541231126597,-1.0,77,861,134,72,27,44.909091,8.606498
ALFONSINE,Sun,0.4567307692307692,1.0,18,208,4,1,1,44.512364,12.039155
ALPIGNANO,Sun,8.6,2.0,5,5,2,2,2,45.091077,7.523745
ALTAVILLA TAVERNELLE,Sun,3.5945945945945947,2.0,16,185,63,40,16,45.511805,11.454702
ANAGNI-FIUGGI,Sun,0.8078078078078078,0.0,26,333,28,14,3,41.71037,13.09597
ANCONA,Sun,0.8434982738780207,-1.0,82,869,219,163,87,43.607734,13.497665
ANZOLA,Sun,4.356973995271868,2.0,37,423,156,105,45,,
AOSTA,Sun,2.5105263157894737,2.0,16,190,60,26,7,45.73407,7.322424
ARDENNO MASINO,Sun,4.343347639484978,3.0,20,233,101,53,17,46.16198,9.651374
ARENZANO,Sun,1.3899253731343284,0.0,50,536,73,50,18,44.403089,8.678322
ASCIANO,Sun,3.35,3.0,14,160,54,17,7,43.235245,11.579237
ASSISI,Sun,3.016194331983806,2.0,25,247,75,41,13,43.058921,12.585304
AULLA LUNIGIANA,Sun,0.7405541561712846,0.0,37,397,60,28,9,44.210555,9.970015
AVIGLIANA,Sun,1.9892008639308856,1.0,38,463,58,36,19,45.085276,7.401096
BAGNI DI LUCCA,Sun,2.029940119760479,1.0,13,167,43,21,4,44.003447,10.551631
BALVANO R.,Sun,2.0,2.0,1,10,0,0,0,40.649993,15.495304
BARBERINO VAL D`ELSA,Sun,7.6,6.0,5,5,5,3,1,,
BARCELLONA,Sun,1.5666666666666667,0.0,26,270,43,29,15,38.14918,15.212499
BARI TORRE A MARE,Sun,1.5613496932515338,1.0,27,326,65,20,3,41.082637,16.995772
BARI VILLAGGIO DEL LAVORATORE,Sun,3.991304347826087,2.0,9,115,52,45,5,,
BARLETTA,Sun,4.100244498777506,1.0,75,818,267,214,116,41.315227,16.278867
BASILIANO,Sun,1.4292682926829268,1.0,17,205,18,6,3,46.012737,13.109233
BASSANO DEL GRAPPA,Sun,-2.0,-3.0,30,355,19,13,10,45.766697,11.741525
BEFFI,Sun,1.0,1.0,4,52,2,0,0,42.197341,13.660759
BELVEDERE MARITTIMO,Sun,4.554347826086956,3.0,16,184,84,52,14,39.616549,15.853039
BENEVENTO,Sun,3.1784037558685445,2.0,19,213,72,62,27,41.141901,14.769998
BESANA,Sun,2.036363636363636,2.0,22,220,60,21,4,45.702824,9.28288
BIAGIONI LAGACCI,Sun,2.236842105263158,2.0,9,114,17,2,0,44.086359,10.948257
BIANCO,Sun,0.98,0.0,4,50,6,4,2,38.089072,16.153348
BIELLA S.PAOLO,Sun,-1.1607142857142858,-2.0,14,168,6,5,4,45.557334,8.067541
BISTAGNO,Sun,1.5952380952380953,1.0,10,126,20,9,4,44.659256,8.372057
BISUSCHIO VIGGIU,Sun,2.5467980295566504,2.0,65,406,56,27,10,45.870658,8.887544
BOGLIASCO,Sun,13.0,13.0,1,1,1,1,1,44.379207,9.066042
BOLGHERI,Sun,2.1560283687943262,1.0,12,141,32,20,5,43.244664,10.550548
BOLOGNA BORGO PANIGALE,Sun,2.9506726457399104,2.0,40,446,91,36,7,44.515024,11.284728
BOLOGNA CORTICELLA,Sun,3.6878980891719744,2.0,13,157,45,27,11,44.551985,11.35401
BOLOGNA SAN VITALE,Sun,2.9910112359550562,2.0,52,445,97,48,11,,
BOLZANO NOVARESE,Sun,1.4230769230769231,1.0,2,26,3,0,0,45.759357,8.440754
BORGHETTO,Sun,11.0,11.0,1,1,1,1,1,45.696721,10.927083
BORGO A MOZZANO,Sun,3.820359281437126,2.0,13,167,62,34,5,43.977207,10.541285
BORGO LAVEZZARO,Sun,1.8205128205128205,1.0,9,117,25,10,0,45.318783,8.703242
BORGO VAL DI TARO,Sun,1.5679442508710801,1.0,30,287,57,36,9,44.486522,9.781489
BORGONE,Sun,0.7,-1.0,19,240,20,15,12,45.123191,7.236037
BORGOSESIA,Sun,-0.5,-1.0,2,2,0,0,0,45.716798,8.28239
BORORE,Sun,2.064935064935065,1.0,7,77,15,9,4,40.218992,8.809535
BRENNERO,Sun,0.42507645259938837,-1.0,27,327,49,36,15,47.004117,11.505711
BRESSANONE,Sun,2.756390977443609,1.0,59,665,175,120,58,46.710088,11.649677
BRINDISI,Sun,1.11716621253406,-1.0,69,734,144,92,46,40.634339,17.938978
BRUZOLO,Sun,0.9665271966527197,0.0,19,239,20,15,12,45.131032,7.201497
BUDOIA POLCENIGO,Sun,-1.7272727272727273,-2.0,12,132,0,0,0,46.031464,12.537637
BUSSI,Sun,-0.631578947368421,-1.0,3,38,1,1,1,42.194154,13.849075
BUTTAPIETRA,Sun,4.625,3.0,4,48,21,9,4,45.338787,10.988059
BUTTRIO,Sun,1.6276150627615062,1.0,20,239,20,12,3,46.012664,13.329039
CAGLIARI ELMAS,Sun,0.904950495049505,1.0,51,505,23,14,6,39.264193,9.045497
CALATABIANO,Sun,2.646153846153846,2.0,5,65,16,5,1,37.814684,15.226568
CALDONAZZO,Sun,2.4444444444444446,2.0,6,72,20,7,2,45.997575,11.264815
CAMAIORE LIDO CAPEZZANO,Sun,3.4444444444444446,1.0,7,9,3,2,1,43.912176,10.24765
CAMMARATA S.GIOVANNI GEMINI,Sun,-0.05263157894736842,0.0,12,152,20,8,5,37.653759,13.673791
CAMPO DI CARNE,Sun,1.7635658914728682,1.0,20,258,45,17,5,41.552116,12.635125
CAMPOLEONE,Sun,1.170520231213873,0.0,55,692,100,54,24,41.642396,12.648341
CANCELLO ARNONE,Sun,0.36363636363636365,0.0,1,11,1,0,0,41.063369,14.02901
CANETRA,Sun,6.453125,5.0,5,64,54,29,5,42.391578,13.029159
CANTU`- CERMENATE,Sun,5.444444444444445,5.0,8,9,5,4,1,45.716236,9.099284
CAPACCIO ROCCADASPIDE,Sun,3.002680965147453,1.0,30,373,124,85,37,40.454518,15.013551
CAPODACQUA PIEVE FANONICA,Sun,-0.4,-2.0,1,5,1,0,0,43.026769,12.7541
CARATE-CALO`,Sun,2.5090909090909093,2.0,22,220,53,18,4,45.676451,9.252304
CARAVAGGIO,Sun,2.7347480106100797,1.0,33,377,100,54,11,45.491158,9.637723
CARINI,Sun,-1.1382488479262673,-1.0,34,434,2,2,0,38.147696,13.186624
CARONNO PERTUSELLA,Sun,1.089655172413793,1.0,15,145,9,2,0,,
CARUGO - GIUSSANO,Sun,0.0,0.0,29,307,0,0,0,,
CASALETTO VAPRIO,Sun,3.249336870026525,2.0,33,377,137,70,13,45.408641,9.631746
CASALMAGGIORE,Sun,3.7699530516431925,2.0,18,213,72,47,17,44.993139,10.425023
CASALNUOVO,Sun,2.422145328719723,2.0,23,289,69,29,10,40.915559,14.35296
CASANOVA KAISERAU,Sun,1.0110803324099722,1.0,29,361,27,11,3,,
CASARSA,Sun,2.0,0.0,43,494,66,34,21,45.953002,12.8406
CASORIA,Sun,2.063025210084034,1.0,19,238,55,39,10,40.907762,14.29874
CASSOLA,Sun,0.0,0.0,7,7,0,0,0,45.732291,11.795866
CASTEL D`ARIO,Sun,0.33986928104575165,0.0,12,153,11,6,3,45.183399,10.97531
CASTEL MADAMA,Sun,1.9380530973451326,1.0,9,113,16,9,4,41.988389,12.864938
CASTEL S.PIETRO TERME,Sun,3.3509615384615383,2.0,56,624,227,131,40,44.407376,11.597681
CASTELFRANCO VENETO,Sun,-0.08360477741585233,-1.0,79,921,51,28,9,45.666439,11.934315
CASTELLAMMARE DEL GOLFO,Sun,3.81,3.0,8,100,35,18,5,38.024309,12.912209
CASTELLAMMARE DI STABIA,Sun,0.2,0.0,3,5,0,0,0,40.701398,14.483737
CASTELLO DI GODEGO,Sun,-0.2545454545454545,-2.0,38,440,22,21,12,45.688082,11.87759
CASTELNUOVO BERARDENGA,Sun,3.16875,3.0,14,160,48,16,7,43.306882,11.484912
CASTELRAIMONDO CAMERINO,Sun,2.675213675213675,2.0,10,117,35,15,3,43.210511,13.057274
CASTIGLION FIORENTINO,Sun,3.3407407407407406,2.0,35,405,134,82,24,43.34075,11.914362
CASTIGLIONCELLO,Sun,6.6875,6.0,9,16,11,9,4,43.404619,10.414354
CASTIONE DEI MARCHESI,Sun,0.22727272727272727,1.0,2,22,1,0,0,44.915157,10.044449
CATANZARO,Sun,1.7064676616915422,1.0,18,201,35,17,4,38.896222,16.599081
CAVALLERMAGGIORE,Sun,1.9826498422712935,1.0,49,634,106,49,26,44.708147,7.692108
CECINA,Sun,2.5719557195571956,1.0,48,542,148,81,28,43.31028,10.514225
CELLE BULGHERIA ROCCAGLORIOSA,Sun,2.346590909090909,1.0,14,176,42,24,5,40.10287,15.39473
CENTALLO,Sun,1.9090909090909092,1.0,30,385,81,46,14,44.496223,7.591035
CEPRANO-FALVATERRA,Sun,0.1237785016286645,-1.0,24,307,17,7,3,41.523962,13.523481
CEREA,Sun,2.542483660130719,2.0,12,153,29,10,4,45.196556,11.213921
CERIALE,Sun,12.5,2.0,2,2,1,1,1,44.098922,8.234216
CERIGNOLA,Sun,3.3256880733944953,2.0,18,218,56,32,10,41.315664,15.897298
CERVIA-MILANO MARITTIMA,Sun,2.4388489208633093,1.0,48,417,83,52,25,44.258444,12.347096
CETRARO,Sun,3.202970297029703,1.0,17,202,53,37,17,39.512553,15.939263
CEVA,Sun,0.8919753086419753,0.0,25,324,44,22,8,44.389861,8.031958
CHIARAVALLE,Sun,-1.5,-2.0,6,64,5,2,1,43.595503,13.327655
CHIARI,Sun,9.125,8.0,8,8,7,6,1,45.54011,9.926474
CHIAVARI,Sun,3.372269705603039,2.0,97,1053,319,199,74,44.315156,9.322464
CHIETI-MAD.D.P.,Sun,5.189655172413793,4.0,9,116,71,26,5,,
CISANO CAPRINO BERGAMASCO,Sun,1.7322404371584699,1.0,31,366,62,25,6,45.739606,9.474261
CISMON DEL GRAPPA,Sun,1.5,1.0,6,72,9,3,2,45.919664,11.729272
CISTERNA DI LATINA,Sun,1.8225806451612903,0.0,35,434,70,47,22,41.586511,12.827538
CIVITAVECCHIA,Sun,2.309734513274336,1.0,51,565,136,102,48,42.088287,11.79815
CLASSE,Sun,3.953020134228188,2.0,17,149,49,33,13,44.382033,12.234995
CODOLA,Sun,9.333333333333334,12.0,2,3,2,2,2,40.767687,14.665622
CODROIPO,Sun,2.5720081135902637,1.0,43,493,75,36,20,45.9657,12.976543
COLLECCHIO,Sun,2.362264150943396,1.0,46,265,66,36,12,44.755339,10.21228
COLORNO,Sun,3.5258215962441315,1.0,18,213,61,40,16,44.927943,10.382935
COMPIOBBI,Sun,2.6666666666666665,2.0,26,321,74,34,13,43.782527,11.358695
CONTIGLIANO,Sun,3.6031746031746033,3.0,10,126,51,13,5,42.412072,12.779144
CORBETTA S. STEFANO,Sun,11.333333333333334,7.0,6,6,5,5,2,45.480829,8.917457
CORBEZZI,Sun,1.0964912280701755,1.0,9,114,3,1,1,43.993948,10.919676
CORMONS,Sun,1.2894736842105263,-1.0,34,418,52,31,17,45.957519,13.461563
CORNIGLIA,Sun,3.314625850340136,2.0,90,588,182,99,28,44.119938,9.711051
COSTA MASNAGA,Sun,2.268181818181818,2.0,22,220,40,17,4,45.76343,9.285231
CREVALCORE,Sun,3.3983286908077996,2.0,30,359,143,85,30,44.719156,11.152625
CUSANO,Sun,0.0,0.0,1,1,0,0,0,45.945427,12.757485
DEIVA MARINA,Sun,2.568862275449102,2.0,46,501,142,88,20,44.217306,9.519022
DESIO,Sun,2.9640427599611274,2.0,87,1029,270,136,44,45.620112,9.218495
DITTAINO,Sun,-2.3962264150943398,-2.0,8,53,7,3,1,37.564605,14.462429
DOMODOSSOLA,Sun,0.3646112600536193,-2.0,50,373,64,47,21,46.115429,8.296684
DUBINO,Sun,1.2651933701657458,0.0,31,362,36,23,14,46.172802,9.432188
DUOMO VIA VERNIERI,Sun,20.0,20.0,1,1,1,1,1,,
EQUI TERME,Sun,2.9210526315789473,2.0,12,152,39,18,1,44.170282,10.153624
FABRO-FICULLE,Sun,3.8137254901960786,2.0,18,204,67,41,16,42.874851,12.04123
FAGNANO CAMPANA,Sun,1.6923076923076923,1.0,4,52,7,1,0,42.250575,13.562743
FERNO LONATE POZZOLO,Sun,0.6785714285714286,0.0,38,364,9,5,2,,
FIRENZE S.M.N.,Sun,0.9126063418406806,-1.0,228,2586,445,292,150,43.776893,11.247373
FIUMELATTE,Sun,3.442906574394464,1.0,25,289,86,63,29,45.999017,9.292857
FONTANAROSA,Sun,1.0425531914893618,0.0,4,47,10,5,2,,
FORENZA,Sun,1.8651162790697675,1.0,17,215,30,18,6,40.866839,15.725331
FORLI`,Sun,2.3598183881952326,0.0,81,881,230,170,92,44.22413,12.054871
FRANCAVILLA FONTANA,Sun,0.21052631578947367,-3.0,6,38,10,6,4,40.523145,17.584714
FRASSO T. DUGENTA,Sun,0.8307692307692308,-1.0,6,65,14,10,5,41.137244,14.459459
FUNO CENTERGROSS,Sun,3.935672514619883,2.0,14,171,51,31,17,44.593646,11.370672
GAZZADA SCHIANNO MORAZZONE,Sun,1.9894736842105263,2.0,85,570,89,43,10,45.77862,8.824815
GAZZO DI BIGARELLO,Sun,-1.026143790849673,-1.0,12,153,6,5,3,45.176648,10.894005
GEMELLI,Sun,2.4583333333333335,2.0,67,744,129,47,8,41.927813,12.427797
GENOVA BOLZANETO,Sun,0.07806691449814127,0.0,21,269,13,7,1,44.459208,8.900193
GENOVA CORNIGLIANO,Sun,8.0,6.0,2,2,2,2,0,44.414752,8.865035
GENOVA PONTEDECIMO,Sun,0.02962962962962963,-1.0,21,270,11,6,1,44.494189,8.905642
GENOVA QUARTO DEI MILLE,Sun,3.035164835164835,1.0,43,455,136,87,39,44.388607,8.99597
GENOVA RIVAROLO,Sun,0.8333333333333334,1.0,21,228,10,5,0,44.435955,8.89106
GIAMPILIERI,Sun,-0.20945945945945946,-1.0,12,148,13,9,5,38.080121,15.493863
GIARRE RIPOSTO,Sun,0.8348082595870207,0.0,37,339,59,39,20,37.730346,15.193386
GIULIANOVA,Sun,2.607843137254902,2.0,39,408,111,76,19,42.751673,13.965743
GRAGNOLA,Sun,1.6644736842105263,1.0,12,152,27,11,1,44.191069,10.109245
GRAMMICHELE,Sun,0.775,-1.0,4,40,5,4,1,37.209336,14.641256
GRANAIOLO,Sun,4.030674846625767,4.0,13,163,82,37,2,43.652244,10.945223
GRICIGNANO,Sun,1.803030303030303,1.0,6,66,12,10,2,40.998742,14.241657
GROPELLO CAIROLI,Sun,4.736111111111111,3.0,12,144,68,11,5,45.173101,8.991626
GROTTE,Sun,-1.0,-2.0,2,26,0,0,0,37.409848,13.702717
INCISA,Sun,1.8291316526610644,1.0,30,357,63,28,8,43.656541,11.452728
INCORONATA,Sun,2.5806451612903225,2.0,17,217,46,22,8,41.408174,15.650728
ISERNIA,Sun,1.5,-1.0,3,38,10,8,3,41.596946,14.235421
ISOLA DEL CANTONE,Sun,7.0,7.0,1,1,1,1,0,44.646589,8.957578
ISOLETTA-S.GIOVANNI I.,Sun,1.700325732899023,1.0,24,307,25,12,3,41.527873,13.547095
ISTRANA,Sun,-0.14606741573033707,0.0,14,178,6,2,1,45.676539,12.102781
LA SPEZIA MIGLIARINA,Sun,1.7236614853195165,1.0,54,579,108,52,11,44.123391,9.84028
LA STORTA,Sun,1.7597315436241612,1.0,67,745,112,47,6,42.001748,12.381254
LAMA DI RENO,Sun,2.463687150837989,2.0,30,358,74,27,6,44.363501,11.216168
LATINA,Sun,2.742014742014742,0.0,76,814,177,131,76,41.538372,12.945888
LAVAGNA,Sun,5.0,5.0,2,2,2,0,0,44.305677,9.346371
LAVEZZOLA,Sun,0.25961538461538464,0.0,18,208,15,2,1,44.559591,11.880154
LE PIAGGE,Sun,8.0,8.0,1,1,1,1,0,43.789684,11.171665
LECCO,Sun,2.367864693446089,1.0,112,946,170,111,57,45.856471,9.393638
LEGNANO,Sun,2.8041704442429736,2.0,105,1103,334,160,27,45.593653,8.910638
LEONFORTE-PIRATO,Sun,0.5686274509803921,-1.0,6,51,8,4,1,37.606305,14.376063
LESEGNO,Sun,-0.17582417582417584,-1.0,7,91,5,4,0,44.385891,7.94266
LETOJANNI,Sun,-0.12849162011173185,-1.0,15,179,12,5,5,37.877581,15.303128
LOMELLO,Sun,3.0662983425414363,2.0,16,181,51,23,4,45.117276,8.799121
LUCCA,Sun,1.7002551020408163,1.0,101,784,172,67,20,43.837186,10.506069
MACOMER,Sun,0.7230769230769231,-1.0,11,130,25,15,5,40.267899,8.772279
MAERNE DI MARTELLAGO,Sun,2.5358744394618835,2.0,39,446,101,34,14,45.514799,12.150629
MAGRE`- CORTACCIA,Sun,6.0,6.0,1,1,1,1,0,46.287976,11.232646
MANAROLA,Sun,6.363636363636363,7.0,10,11,7,6,2,44.109904,9.727401
MANERBIO,Sun,1.9730941704035874,1.0,19,223,57,26,8,45.357212,10.132348
MARCELLINA VERBICARO ORSOMARSO,Sun,4.019607843137255,2.0,9,102,35,20,6,39.766974,15.822665
MARECHIARO,Sun,0.07755102040816327,0.0,19,245,10,4,2,41.470762,12.6123
MARIANO COMENSE,Sun,0.0,0.0,29,307,0,0,0,45.693622,9.18147
MARINA DI SAN LORENZO,Sun,0.84,0.0,2,25,1,1,0,37.919844,15.826365
MAROTTA MONDOLFO,Sun,2.7828947368421053,1.0,26,304,87,48,16,43.769748,13.137273
MELZO,Sun,1.760672703751617,0.0,69,773,133,74,29,45.502191,9.420653
MERCATO SAN SEVERINO,Sun,1.7727272727272727,1.0,7,66,13,4,2,40.783095,14.759749
MERONE,Sun,0.0,0.0,29,307,0,0,0,45.781374,9.243772
MESSINA MARITTIMA,Sun,12.724137931034482,0.0,8,29,11,10,7,38.14988,15.534997
METAPONTO,Sun,1.4487179487179487,-1.0,14,156,35,25,10,40.368496,16.815176
MEZZANO,Sun,1.398989898989899,1.0,17,198,11,2,1,44.463,12.098501
MEZZOCORONA,Sun,4.042813455657492,3.0,57,654,264,143,24,46.207258,11.128595
MILANO BOVISA FNM,Sun,-0.20125786163522014,-1.0,120,1113,97,45,11,45.502993,9.159235
MILANO FORLANINI,Sun,2.7736572890025575,2.0,134,1564,356,200,59,,
MILANO NORD DOMODOSSOLA,Sun,0.0,0.0,280,3108,0,0,0,,
MILANO VENEZIA,Sun,3.057828880622252,2.0,288,2957,841,414,116,45.471121,9.201889
MILANO VILLAPIZZONE,Sun,3.136741214057508,2.0,135,1565,393,184,49,,
MILETO,Sun,0.6923076923076923,0.0,1,13,1,0,0,38.577082,16.060041
MILITELLO,Sun,2.5,0.0,4,40,10,6,3,37.277194,14.78317
MINUCCIANO - PIEVE - CASOLA,Sun,0.7763157894736842,0.0,12,152,23,9,1,44.194385,10.193837
MIRTO CROSIA,Sun,2.6666666666666665,2.0,9,114,38,20,4,39.604876,16.777366
MOLINA CASTEL VECCHIO SUBAQUEO,Sun,1.0307692307692307,1.0,5,65,1,0,0,42.143476,13.739644
MOMO,Sun,0.6538461538461539,1.0,8,104,14,7,2,45.574646,8.55689
MONEGLIA,Sun,12.0,12.0,1,1,1,1,1,44.242449,9.486957
MONOPOLI,Sun,2.5655021834061134,2.0,42,458,105,44,21,40.952017,17.292455
MONTECAROTTO CASTELBELLINO,Sun,0.0,0.0,1,1,0,0,0,43.500005,13.1481
MONTECHIARO DENICE,Sun,2.0793650793650795,1.0,10,126,22,9,4,44.600827,8.352185
MONTEMAGGIORE,Sun,1.5165562913907285,1.0,12,151,20,9,4,37.859037,13.693193
MONTEREALE VALCELLINA,Sun,-1.0833333333333333,-1.0,12,132,0,0,0,46.148009,12.658923
MONZONE-M.DEI BANCHI-ISOLANO,Sun,2.9210526315789473,2.0,12,152,39,18,1,44.165637,10.123827
MORENGO BARIANO,Sun,27.5,10.0,2,2,2,2,1,45.521639,9.703114
MOSCIANO S. ANGELO,Sun,6.948275862068965,9.0,9,116,74,70,30,42.710309,13.908563
MOTTA S. DAMIANO,Sun,0.6963350785340314,0.0,17,191,26,10,3,45.178344,9.219866
MUSSOTTO,Sun,0.30612244897959184,0.0,16,196,3,2,2,44.713227,8.015194
NAPOLI S.GIOV.BARRA,Sun,0.14566929133858267,0.0,108,1270,58,28,11,40.831269,14.307811
NICHELINO,Sun,2.6601941747572817,2.0,16,206,38,13,2,44.99132,7.642068
NICORVO,Sun,4.779661016949152,3.0,10,118,51,12,4,45.275462,8.6712
NOCERA INFERIORE,Sun,3.5150300601202407,2.0,43,499,148,79,27,40.745318,14.635346
NOCERA UMBRA,Sun,2.0267857142857144,1.0,9,112,20,16,7,43.100663,12.767207
NOVELLARA,Sun,-1.5238095238095237,-1.0,3,21,1,0,0,,
NUOVO SALARIO,Sun,1.5020804438280166,2.0,87,721,56,26,12,41.956195,12.510317
OLBIA,Sun,0.47115384615384615,0.0,9,104,16,4,0,40.924595,9.498293
OLCIO,Sun,3.8961937716262978,2.0,25,289,92,56,27,45.938011,9.313898
OLGIATA,Sun,3.385234899328859,3.0,67,745,260,78,9,42.01538,12.363864
OMIGNANO SALENTO,Sun,3.2,2.0,24,300,104,76,21,40.252688,15.134406
ORDONA,Sun,1.5625,1.0,5,64,8,6,1,41.315006,15.620567
ORTE,Sun,2.332896461336828,1.0,91,763,188,141,75,42.43728,12.408986
OSPEDALETTO EUGANEO,Sun,2.13855421686747,1.0,13,166,27,18,8,45.221706,11.606553
OSTERIA NUOVA,Sun,3.9275766016713094,3.0,30,359,145,88,33,44.586613,11.236525
OULX CESANA CLAVIERE SESTRIERE,Sun,1.6654676258992807,1.0,24,278,36,22,10,45.038789,6.831432
PADIGLIONE,Sun,0.17054263565891473,-1.0,20,258,26,7,3,41.513518,12.629476
PAESE CASTAGNOLE,Sun,2.748898678414097,2.0,30,227,35,7,3,45.691182,12.182619
PALIZZI,Sun,2.0,2.0,3,26,5,1,0,37.91881,15.986405
PALMI,Sun,2.005,0.0,19,200,32,17,11,38.364914,15.84438
PARGHELIA,Sun,4.28,2.0,7,75,20,11,4,38.683341,15.925042
PARMA,Sun,2.5763157894736843,1.0,156,1520,406,283,115,44.810203,10.32837
PARONA LOMELLINA,Sun,2.335149863760218,1.0,33,367,87,46,16,45.280107,8.780315
PASSIGNANO SUL TRASIMENO,Sun,4.777777777777778,3.0,12,144,70,37,10,43.188324,12.133128
PASTENA,Sun,1.8746177370030581,2.0,51,327,23,6,2,,
PATTI-SAN PIERO PATTI,Sun,1.4962962962962962,1.0,26,270,47,25,13,38.146905,14.975331
PEDASO,Sun,3.0357142857142856,1.0,15,140,36,25,7,43.094694,13.844906
PEDEROBBA CAVASO POSSAGNO,Sun,3.3026315789473686,3.0,20,152,56,21,4,45.877299,11.965222
PESCARA,Sun,1.7047075606276747,-1.0,65,701,179,126,74,42.467789,14.205066
PESCARA S. MARCO,Sun,1.3015873015873016,4.0,5,63,39,10,1,42.44613,14.208981
PESCHIERA DEL GARDA,Sun,4.015923566878981,2.0,61,628,215,121,53,45.438502,10.702509
PESCIA,Sun,1.664783427495292,1.0,89,531,118,60,18,43.886811,10.686074
PETROSINO STRASATTI,Sun,2.0265486725663715,0.0,9,113,20,15,9,37.725466,12.509434
PETTENASCO,Sun,1.9711538461538463,1.0,8,104,15,5,1,45.820498,8.406802
PIADENA,Sun,3.9574944071588365,2.0,38,447,163,100,30,45.127608,10.369962
PIANO D`ORTA BOLOGNANO,Sun,6.625,5.0,2,24,15,7,2,42.254455,13.951514
PIETRASANTA,Sun,3.2740213523131674,2.0,48,562,188,106,27,43.95583,10.229731
PINEROLO,Sun,-1.6346153846153846,-2.0,8,104,5,1,0,44.887673,7.337402
PIOLTELLO LIMITO,Sun,1.844298245614035,1.0,197,2280,437,241,85,45.486019,9.329319
PIOPPE DI SALVARO,Sun,1.4972067039106145,1.0,30,358,44,18,4,44.310761,11.161785
PISCIOTTA PALINURO,Sun,3.371212121212121,1.0,34,396,129,84,31,40.091539,15.243601
PIZZIGHETTONE,Sun,2.3191489361702127,2.0,5,47,17,10,0,45.181772,9.777133
POLIGNANO A MARE,Sun,2.596541786743516,2.0,29,347,79,29,11,40.990926,17.218676
PONTE CASALDUNI,Sun,2.484375,1.0,5,64,21,17,4,41.214169,14.696458
PONTE GARDENA,Sun,2.1003937007874014,1.0,41,508,117,72,33,46.6012,11.53251
PONTE IN VALTELLINA,Sun,1.7692307692307692,1.0,12,52,7,4,2,46.162631,9.975895
PONTE NELLE ALPI POLPET,Sun,0.6228571428571429,1.0,36,350,27,10,6,46.182328,12.277604
PONTEBBA,Sun,1.0628930817610063,1.0,13,159,16,7,3,46.508463,13.311357
PORCARI,Sun,3.933333333333333,3.0,30,150,64,44,8,43.831263,10.619212
PORTICI- ERCOLANO,Sun,1.6304801670146138,0.0,43,479,78,44,17,40.809907,14.335809
PORTO CERESIO,Sun,1.3645320197044335,1.0,33,203,27,15,5,45.903675,8.900357
PORTO D`ASCOLI,Sun,3.3169811320754716,2.0,25,265,71,34,11,42.912792,13.896813
PORTO S. ELPIDIO,Sun,3.2785714285714285,1.0,15,140,35,21,6,43.256855,13.760749
PORTO TORRES,Sun,2.2051282051282053,0.0,6,78,14,8,5,40.833045,8.39642
PORTO VALTRAVAGLIA,Sun,2.5045871559633026,2.0,26,218,51,11,5,45.958219,8.674141
PORTOMAGGIORE,Sun,0.9134615384615384,1.0,18,208,14,3,2,44.696699,11.799785
POZZUOLI SOLFATARA,Sun,-0.05111524163568773,-1.0,88,1076,75,31,10,40.827586,14.126163
PREGNANA MILANESE,Sun,10.0,7.0,6,6,6,4,1,45.511868,9.003943
PUNTA RAISI,Sun,-0.5040983606557377,-1.0,19,244,2,2,1,38.188892,13.110059
RAIANO,Sun,0.7230769230769231,1.0,5,65,2,1,0,42.097931,13.80908
RECCO,Sun,2.1649016641452343,1.0,61,661,158,104,51,44.361215,9.146788
REGGIO EMILIA,Sun,3.796223446105429,2.0,121,1271,458,316,127,44.697793,10.643093
REGGIO EMILIA AV,Sun,5.934,4.0,47,500,261,183,77,44.779886,10.744171
REMEDELLO SOPRA,Sun,5.361111111111111,4.0,15,180,93,54,13,45.27848,10.379211
RHO,Sun,2.520628683693517,2.0,131,1527,381,185,36,45.523813,9.043563
RICADI,Sun,2.2653061224489797,1.0,11,98,24,8,4,38.630676,15.839848
RIETI,Sun,2.1870503597122304,2.0,11,139,45,11,5,42.405918,12.862596
RIMINI,Sun,0.43432715551974216,-1.0,132,1241,250,195,111,44.064176,12.574093
RIMINIFIERA,Sun,5.190476190476191,3.0,46,84,42,26,10,,
RIONERO ATELLA RIPACANDITA,Sun,1.5905511811023623,1.0,20,254,48,22,7,40.922066,15.678699
ROBILANTE,Sun,-0.18181818181818182,-1.0,12,154,7,1,0,44.296496,7.510906
ROCCA DI CORNO,Sun,1.7384615384615385,1.0,5,65,12,6,2,42.388164,13.143939
ROCCA RAVINDOLA,Sun,0.03076923076923077,-1.0,5,65,4,3,3,41.521035,14.122965
ROCCHETTA CAIRO,Sun,2.716535433070866,2.0,10,127,14,4,3,44.427477,8.295356
RODALLO,Sun,0.993006993006993,0.0,12,143,17,9,3,45.278714,7.878025
ROMA S.PIETRO,Sun,0.5594573024740622,0.0,110,1253,118,49,19,41.896143,12.454497
ROMA TIBURTINA,Sun,0.7876447876447876,-1.0,242,2331,393,282,150,41.910903,12.530749
ROMETTA MESSINESE,Sun,1.4155844155844155,1.0,6,77,10,5,1,38.228455,15.405894
RONCHI DEI LEGIONARI NORD,Sun,1.794979079497908,0.0,20,239,33,19,10,45.830285,13.505962
ROSIGNANO,Sun,2.224586288416076,1.0,37,423,98,63,22,43.387899,10.438041
ROSSANO,Sun,4.806060606060606,4.0,13,165,86,48,17,39.603005,16.640859
ROSSANO VENETO,Sun,0.3333333333333333,0.0,3,3,0,0,0,45.702039,11.784812
ROTTOFRENO,Sun,5.0,3.0,1,2,1,1,0,45.060546,9.549127
S. AMBROGIO,Sun,2.564853556485356,1.0,19,239,28,18,11,45.101161,7.360933
S. ANTONINO VAIE,Sun,1.5723684210526316,0.0,36,456,62,39,23,45.109469,7.275931
S. CRISTINA E BISSONE,Sun,3.298429319371728,3.0,17,191,70,33,2,45.160533,9.401006
S. MARGHERITA LIGURE PORTOFINO,Sun,3.128712871287129,1.0,73,808,243,148,57,44.33676,9.216673
S. PAOLO SOLBRITO,Sun,2.033980582524272,1.0,16,206,33,16,5,44.951753,7.975779
S. PIETRO BERBENNO,Sun,3.793103448275862,2.0,20,232,91,51,18,46.161347,9.740491
S. PIETRO VERNOTICO,Sun,10.0,9.0,2,2,2,2,1,40.48902,18.000716
S.ALESSIO SICULO FORZA D`AGRO`,Sun,1.4382716049382716,1.0,13,162,8,5,2,37.923992,15.347322
S.ANTONIO MANTOVANO,Sun,2.0064516129032257,1.0,15,155,30,15,4,45.187447,10.785806
S.CRISTOFORO AL LAGO-ISCHIA,Sun,4.013888888888889,3.0,6,72,33,16,3,46.039743,11.23375
S.ELLERO,Sun,7.75,7.0,4,4,4,4,0,43.742143,11.469621
S.FELICE SP,Sun,3.885793871866295,2.0,30,359,140,102,30,44.834527,11.140243
S.FREDIANO A SETTIMO,Sun,7.5,1.0,4,4,1,1,1,43.680508,10.517254
S.GIOVANNI VALDARNO,Sun,2.9436834094368343,1.0,56,657,174,110,32,43.56601,11.527033
S.LORENZO COLLI,Sun,0.0,0.0,1,1,0,0,0,38.16292,13.316449
S.MARCELLINO FRIGNANO,Sun,3.0962566844919786,1.0,15,187,53,39,11,40.992103,14.171976
S.MARTINO IN GATTARA,Sun,5.422535211267606,5.0,11,142,93,58,7,44.113211,11.667077
S.MINIATO FUCECCHIO,Sun,4.0,2.0,9,11,5,4,1,43.701383,10.831605
S.NAZARIO,Sun,2.1666666666666665,2.0,6,72,7,4,2,45.838117,11.691321
S.PIETRO IN CASALE,Sun,2.5434380776340113,1.0,43,541,102,70,33,44.697928,11.404763
S.ROMANO MONTOPOLI S.CROCE,Sun,1.8638838475499093,1.0,44,551,113,56,12,43.690575,10.760152
S.SEVERINO MARCHE,Sun,2.965811965811966,2.0,10,117,45,20,3,43.22996,13.183491
SAGRADO,Sun,2.747016706443914,1.0,34,419,65,37,19,45.872629,13.484004
SALE LANGHE,Sun,0.978021978021978,0.0,7,91,13,5,2,44.392425,8.077468
SALETTO,Sun,1.7710843373493976,1.0,13,166,36,19,7,45.22274,11.535093
SAMASSI SERRENTI,Sun,1.128440366972477,0.0,25,218,26,15,8,39.483075,8.899035
SAMOGGIA,Sun,4.566233766233767,2.0,34,385,141,98,43,44.567307,11.146221
SAN BENEDETTO SAMBRO-CAST.PEPOLI,Sun,2.7777777777777777,1.0,19,135,34,17,8,44.22866,11.19226
SAN GAVINO,Sun,0.9647887323943662,0.0,30,284,41,20,12,39.546206,8.788017
SANNAZZARO,Sun,4.055555555555555,3.0,16,180,84,35,7,45.10554,8.905149
SANTE MARIE,Sun,0.8333333333333334,1.0,1,12,0,0,0,42.096993,13.21696
SARMATO,Sun,12.0,11.0,2,3,3,2,2,45.063043,9.491116
SARONNO SUD,Sun,0.22047832585949179,0.0,114,1338,37,19,4,,
SARZANA,Sun,2.3693548387096772,1.0,53,620,170,89,29,44.108865,9.960657
SCAFA S.VALENTINO CARAMANICO T,Sun,0.8169934640522876,0.0,12,153,13,11,3,42.26717,13.99909
SCALEA S.DOMENICA TALAO,Sun,5.722077922077922,3.0,38,385,183,130,48,39.8083,15.80139
SEREGNO,Sun,1.7447811447811448,1.0,125,1485,257,121,43,45.64601,9.20285
SETTEQUERCE,Sun,2.622994652406417,2.0,30,374,100,22,2,46.508448,11.264785
SOLIGNANO,Sun,3.5,1.0,6,6,2,1,1,44.614024,9.98014
SOMMARIVA BOSCO,Sun,0.8317307692307693,0.0,16,208,16,3,1,44.770754,7.777086
SONDRIO,Sun,5.021951219512195,2.0,61,410,134,100,52,46.167064,9.872928
SORESINA,Sun,3.0761154855643045,1.0,34,381,97,45,20,45.283083,9.85664
SORGENTI DEL PESCHIERA,Sun,8.52,7.0,2,25,24,18,4,42.36428,12.996973
SPELLO,Sun,1.8629441624365481,1.0,18,197,36,15,8,42.9844,12.668884
SPIGNO,Sun,2.7777777777777777,2.0,10,126,35,15,4,44.539437,8.317924
SPINETTA,Sun,1.4761904761904763,1.0,6,42,4,2,1,44.882378,8.683146
STAZIONE PER L`ALPAGO,Sun,1.8478260869565217,2.0,19,230,28,12,4,46.137574,12.316066
STRADELLA,Sun,2.5506072874493926,1.0,24,247,60,35,12,45.079465,9.300865
STRESA,Sun,3.0754716981132075,2.0,82,477,156,92,40,45.884486,8.531454
STREVI,Sun,2.68,1.0,8,100,26,12,3,44.697771,8.525525
SUSA,Sun,-0.0707070707070707,-1.0,8,99,8,3,3,45.138622,7.052311
SUSEGANA,Sun,2.0,2.0,1,1,0,0,0,45.821054,12.258364
TAGGIA ARMA,Sun,2.8723849372384938,2.0,45,478,147,75,18,43.840764,7.835604
TAORMINA,Sun,0.3644578313253012,-1.0,36,332,50,33,24,37.845429,15.282584
TARANTO,Sun,0.21105527638190955,-2.0,19,199,28,20,14,40.483727,17.224059
TARVISIO BOSCOVERDE,Sun,-1.1264367816091954,-2.0,9,87,6,5,2,46.505956,13.608012
TERNATE VARANO BORGHI,Sun,1.4768518518518519,1.0,26,216,19,11,5,45.781835,8.700371
THIENE,Sun,0.9344978165938864,0.0,18,229,10,3,2,45.700697,11.475407
TOR SAPIENZA,Sun,0.5825242718446602,-1.0,8,103,12,8,3,41.907095,12.594489
TORRE ANNUNZIATA CENTRALE,Sun,2.8410041841004183,1.0,43,478,127,64,22,40.747131,14.463744
TORRE DE` PICENARDI,Sun,1.3111111111111111,1.0,4,45,7,4,1,45.137198,10.286849
TORRE MELISSA,Sun,2.0194174757281553,1.0,9,103,21,8,1,39.304391,17.108402
TORRILE S. POLO,Sun,2.075117370892019,1.0,18,213,39,23,9,44.885677,10.362814
TORRIONE,Sun,2.4128440366972477,2.0,51,327,43,11,2,,
TRABIA,Sun,2.0,2.0,1,1,0,0,0,37.996408,13.65567
TRACCIA,Sun,3.6153846153846154,3.0,2,26,9,2,1,,
TRAPANI,Sun,-1.0,-4.0,4,51,5,4,3,38.017092,12.518814
TRE CROCI,Sun,2.758241758241758,2.0,8,91,18,5,2,42.331525,12.086159
TREVIGLIO OVEST,Sun,0.9434389140271493,0.0,36,442,46,17,5,45.521762,9.580281
TREVISO C.,Sun,0.864423076923077,-1.0,98,1040,107,63,28,45.659608,12.24614
TRIESTE CENTRALE,Sun,1.9400684931506849,0.0,50,584,80,56,32,45.657456,13.771873
TRIUGGIO-PONTE ALBIATE,Sun,0.6318181818181818,0.0,22,220,27,12,3,45.658956,9.266961
TRIVIGNO,Sun,1.9230769230769231,-1.0,2,26,2,2,1,40.588598,15.997824
TROFARELLO,Sun,0.7381275440976933,1.0,57,737,63,18,6,44.980471,7.735206
URAS MOGORO,Sun,2.8239700374531833,2.0,25,267,62,33,14,39.692629,8.696459
VAIANO,Sun,2.213740458015267,1.0,18,131,24,11,8,43.961772,11.130773
VALDAORA - ANTERSELVA,Sun,-0.6714285714285714,-1.0,7,70,2,1,0,46.769231,12.02898
VARALLO SESIA,Sun,-5.0,-5.0,1,1,0,0,0,45.815227,8.256606
VARENNA ESINO,Sun,4.517298187808896,1.0,77,607,207,140,78,46.015,9.286405
VARIGNANA,Sun,3.865284974093264,3.0,17,193,75,35,7,44.436796,11.523078
VENEZIA CARPENEDO,Sun,7.666666666666667,9.0,2,3,2,2,1,45.506697,12.247609
VENEZIA PORTO MARGHERA,Sun,7.875,6.0,18,24,23,15,7,45.472381,12.256536
VENEZIA SANTA LUCIA,Sun,0.40499306518723993,-1.0,194,2163,186,108,67,45.441569,12.320882
VERNANTE,Sun,0.05844155844155844,0.0,12,154,4,2,0,44.244639,7.535986
VERNAZZA,Sun,9.428571428571429,8.0,7,7,7,6,3,44.134963,9.684804
VERONA PORTA VESCOVO,Sun,2.5557586837294335,2.0,53,547,140,78,38,45.435552,11.018841
VESPOLATE,Sun,1.6153846153846154,1.0,9,117,20,7,0,45.351517,8.671947
VESPRI,Sun,1.2419354838709677,1.0,34,434,9,4,3,38.101996,13.362701
VIAREGGIO,Sun,2.62736660929432,2.0,116,1162,367,201,75,43.865947,10.257886
VILLA CASTELLI,Sun,43.0,43.0,1,1,1,1,1,40.523377,17.476149
VILLA CLAUDIA,Sun,1.62015503875969,1.0,20,258,23,11,3,41.484326,12.61709
VILLA DI TIRANO,Sun,2.838709677419355,1.0,4,31,5,3,3,46.196164,10.13033
VILLA RAVERIO,Sun,2.6227272727272726,2.0,22,220,61,21,4,45.690418,9.261549
VILLANOVA D`ARDENGHI,Sun,4.729166666666667,3.0,12,144,67,11,5,45.156982,9.037176
VILLASPECIOSA UTA,Sun,3.280632411067194,2.0,23,253,91,80,8,39.304168,8.940501
VILLAZZANO,Sun,2.4305555555555554,2.0,6,72,13,7,2,46.045911,11.13906
VIPITENO,Sun,1.3468634686346863,-1.0,44,542,97,69,31,46.895732,11.440206
VITERBO PORTA FIORENTINA,Sun,0.813953488372093,0.0,9,86,6,4,2,42.425237,12.106204
ZAPPULLA,Sun,1.2444444444444445,1.0,7,90,13,5,0,38.116962,14.703086
ABBADIA LARIANA,Sun,1.391304347826087,1.0,26,299,46,34,19,45.895864,9.335175
ABBASANTA,Sun,1.3661971830985915,0.0,12,142,26,13,7,40.128801,8.817733
ACERRA,Sun,2.7681660899653977,2.0,23,289,68,25,10,40.939066,14.372243
ACQUA ACETOSA,Sun,2.489010989010989,2.0,14,182,33,20,4,41.794294,12.616449
ALBA,Sun,-0.4230769230769231,0.0,8,104,1,1,1,44.697713,8.030629
ALBANO LAZIALE,Sun,-0.45054945054945056,-1.0,7,91,2,0,0,41.72632,12.658056
ALBINIA,Sun,1.3936651583710407,0.0,20,221,38,24,9,42.502165,11.21134
ALBISOLA,Sun,1.9814432989690722,1.0,44,485,64,33,11,44.33469,8.512092
ALLERONA-CASTEL VISCARDO,Sun,4.314285714285714,2.0,6,70,21,12,6,42.78502,12.035236
ALVIANO,Sun,8.0,8.0,6,8,6,5,2,42.591917,12.259583
AMANTEA,Sun,2.4634146341463414,1.0,24,246,45,28,14,39.134353,16.068448
ANGRI,Sun,3.966666666666667,3.0,38,450,185,97,25,40.746404,14.575366
ANTIGNANO,Sun,8.75,3.0,3,4,1,1,1,43.492482,10.328827
ARBOSTELLA,Sun,0.38181818181818183,0.0,30,55,1,0,0,40.677263,15.623814
ARCOLA,Sun,3.3333333333333335,0.0,2,3,1,1,0,44.118651,9.914649
ARDORE,Sun,-1.76,-2.0,2,25,0,0,0,38.175698,16.207311
ARECHI,Sun,0.058091286307053944,0.0,29,241,0,0,0,,
AROSIO,Sun,0.0,0.0,29,307,0,0,0,,
ARQUATA SCRIVIA,Sun,1.1951219512195121,1.0,59,697,126,79,30,44.692533,8.885342
ARQUA`,Sun,8.527777777777779,4.0,3,36,20,15,7,45.006465,11.748518
ARSOLI,Sun,2.0476190476190474,1.0,10,126,24,9,1,42.045852,13.013064
ASCOLI PICENO,Sun,0.04597701149425287,-1.0,7,87,6,5,3,42.855474,13.587939
ASSEMINI CARMINE,Sun,-0.005681818181818182,-1.0,17,176,8,4,1,,
ASSEMINI S. LUCIA,Sun,-0.1875,-1.0,17,176,6,3,1,,
ASSO,Sun,0.014814814814814815,0.0,13,135,0,0,0,45.855228,9.268513
AUGUSTA,Sun,-0.03398058252427184,0.0,28,206,38,27,17,37.24334,15.218628
AVERSA,Sun,1.9391691394658754,-1.0,59,674,122,82,44,40.973323,14.218578
AVIANO,Sun,-0.5909090909090909,-1.0,12,132,0,0,0,46.064362,12.590686
BAGNACAVALLO,Sun,3.2111436950146626,2.0,33,341,103,57,24,44.412138,11.969398
BAGNARA,Sun,1.2,-1.0,19,200,23,16,10,38.282695,15.800327
BAIANO DI SPOLETO,Sun,2.2452830188679247,-1.0,5,53,14,12,3,42.726238,12.663615
BALDICHIERI,Sun,2.760869565217391,2.0,18,230,54,23,7,44.899204,8.091198
BARAGIANO,Sun,4.511627906976744,2.0,8,86,33,25,9,40.695213,15.569206
BARI CENTRALE,Sun,-0.37176724137931033,-2.0,84,928,158,123,70,41.11774,16.869601
BARILE,Sun,3.973684210526316,3.0,18,228,86,45,10,40.943044,15.670959
BARRUCCANA,Sun,0.1695906432748538,0.0,29,342,20,13,7,,
BATTAGLIA TERME,Sun,3.607361963190184,2.0,15,163,74,53,13,45.291475,11.77838
BAZZANO,Sun,-2.2613636363636362,-2.0,10,88,1,0,0,,
BELGIOIOSO,Sun,1.287958115183246,1.0,17,191,33,14,3,45.16456,9.316875
BELLANO TARTAVELLE TERME,Sun,4.43163097199341,1.0,77,607,191,131,70,46.039448,9.302776
BELLARIA,Sun,1.2884615384615385,0.0,48,416,59,43,14,44.150249,12.461168
BELLUNO,Sun,0.6048109965635738,1.0,38,291,24,16,4,46.141594,12.209703
BERCHIDDA,Sun,1.0357142857142858,1.0,14,168,17,7,0,40.772052,9.181312
BESNATE,Sun,1.7884615384615385,1.0,25,208,13,9,4,45.695409,8.761072
BEVILACQUA,Sun,3.1626506024096384,2.0,13,166,57,26,7,45.230145,11.398643
BIFORCO,Sun,4.741935483870968,4.0,12,155,83,44,9,44.068431,11.602243
BINARIO S.MARCO VECCHIO,Sun,1.6693877551020408,1.0,19,245,54,27,14,43.790336,11.267403
BISCEGLIE,Sun,4.628318584070796,2.0,40,452,160,103,53,41.235445,16.499484
BOLOGNA MAZZINI,Sun,2.733118971061093,2.0,40,311,48,24,8,44.482284,11.376271
BONFERRARO,Sun,0.9281045751633987,1.0,12,153,36,16,4,45.185651,11.009247
BORGO A BUGGIANO,Sun,3.488095238095238,3.0,37,168,72,49,9,43.880724,10.730079
BORGO TICINO,Sun,2.701657458563536,2.0,14,181,44,20,1,45.691943,8.602483
BORGONUOVO,Sun,2.798882681564246,3.0,30,358,110,43,6,,
BOSCHI S.ANNA,Sun,4.278787878787878,4.0,13,165,87,40,7,45.217328,11.362302
BOTRICELLO,Sun,0.88268156424581,1.0,14,179,43,27,7,38.933943,16.857433
BOVALINO,Sun,2.925373134328358,2.0,16,201,66,33,11,38.149087,16.180584
BRA,Sun,-0.5728155339805825,0.0,16,206,3,2,2,44.693556,7.848643
BRISIGHELLA,Sun,4.329032258064516,4.0,12,155,80,47,7,44.220565,11.769757
BROLO FICARRA,Sun,1.4111111111111112,1.0,7,90,16,6,1,38.159204,14.830176
BUCCINO S.,Sun,5.6938775510204085,2.0,5,49,21,18,13,40.600806,15.374199
BUSALLA,Sun,-0.4281150159744409,-1.0,27,313,25,11,4,44.57558,8.943611
BUSCHE LENTIAI MEL,Sun,-0.055776892430278883,0.0,36,251,22,6,3,46.040092,11.979251
CABIATE,Sun,0.0,0.0,29,307,0,0,0,,
CALCIO,Sun,12.6,12.0,5,5,5,5,4,45.532937,9.841342
CALDE`,Sun,3.3526570048309177,3.0,25,207,64,18,4,45.945812,8.663157
CALDIERO,Sun,4.666666666666667,2.0,15,174,56,36,23,45.41407,11.169753
CALOPEZZATI,Sun,1.8932038834951457,2.0,9,103,18,11,2,39.579022,16.819361
CALTAGIRONE,Sun,1.75,-1.0,2,20,4,3,1,37.225276,14.521165
CALTANISSETTA CENTRALE,Sun,-2.58974358974359,-3.0,7,78,1,0,0,37.48829,14.057396
CALTIGNAGA,Sun,1.2980769230769231,1.0,8,104,17,5,2,45.519167,8.591602
CALUSO,Sun,1.7628205128205128,1.0,13,156,34,15,6,45.303194,7.902568
CAMNAGO-LENTATE,Sun,2.58021712907117,1.0,70,829,196,97,29,45.668425,9.133451
CAMOGLI SAN FRUTTUOSO,Sun,11.125,11.0,6,8,8,8,5,44.348166,9.156743
CAMPAGNA SERRE PERSANO,Sun,2.0,-2.0,1,2,1,1,0,40.595667,15.113986
CAMPIGLIA MARITTIMA,Sun,2.478125,1.0,56,640,161,111,40,43.017118,10.586558
CAMPOFRANCO,Sun,2.064935064935065,1.0,12,154,21,7,4,37.510105,13.686777
CAMPOMIGLIAIO,Sun,-0.6666666666666666,-1.0,1,12,0,0,0,43.937241,11.303593
CAMPOSANTO,Sun,4.0,3.0,12,144,54,36,9,44.787527,11.143587
CANCELLIERA,Sun,3.502439024390244,3.0,16,205,66,23,7,41.710587,12.621758
CANDIA CANAVESE,Sun,2.167832167832168,1.0,12,143,31,17,7,45.329824,7.891819
CANDIOLO,Sun,1.816425120772947,1.0,16,207,28,10,2,44.961155,7.598973
CANEGRATE,Sun,4.346704871060172,4.0,67,698,351,162,28,45.569235,8.926593
CANNETO SULL`OGLIO,Sun,5.222222222222222,4.0,15,180,93,54,12,45.150211,10.37147
CANZO,Sun,0.007462686567164179,0.0,25,268,0,0,0,,
CAPISTRELLO,Sun,2.3125,0.0,2,16,3,2,1,41.97051,13.399276
CARBONA,Sun,2.364705882352941,2.0,7,85,17,4,0,44.246876,11.09618
CARBONIA SERBARIU,Sun,0.33043478260869563,-1.0,9,115,7,4,2,39.169508,8.509186
CARNATE USMATE,Sun,1.2674698795180723,0.0,91,830,140,57,19,45.653072,9.375089
CARSOLI,Sun,1.6428571428571428,0.0,17,210,39,18,8,42.09578,13.080388
CASALBORDINO POLLUTRI,Sun,7.0,7.0,1,1,1,1,0,42.193653,14.633045
CASLINO D'ERBA,Sun,0.0037313432835820895,0.0,25,268,0,0,0,,
CASORATE SEMPIONE,Sun,4.345679012345679,3.0,25,162,66,38,12,45.675075,8.743954
CASSAGO-NIBIONNO-BULCIAGO,Sun,2.4272727272727272,2.0,22,220,48,17,3,45.746243,9.279834
CASSANO D`ADDA,Sun,1.8913324708926262,1.0,69,773,123,73,33,45.514372,9.512746
CASSINO,Sun,-0.28165374677002586,-1.0,31,387,45,36,21,41.484306,13.832125
CASTAGNO,Sun,1.7456140350877194,1.0,9,114,13,2,0,44.012359,10.91538
CASTEL LAGOPESOLE,Sun,1.3188976377952757,1.0,20,254,33,17,6,40.787682,15.758093
CASTELBOLOGNESE,Sun,2.8331466965285554,1.0,89,893,241,149,70,44.325391,11.804174
CASTELDEBOLE,Sun,1.974712643678161,1.0,39,435,75,38,8,44.503974,11.27456
CASTELFRANCO D'EMILIA,Sun,3.401648998822144,1.0,75,849,258,173,74,44.597381,11.056408
CASTELLALTO CANZANO,Sun,2.3017241379310347,2.0,9,116,31,9,0,42.69564,13.793043
CASTELLANETA MARINA,Sun,3.230769230769231,2.0,2,26,8,5,2,40.481111,16.965434
CASTELPLANIO CUPRAMONTANA,Sun,1.3962264150943395,0.0,14,159,24,15,5,43.481403,13.084733
CASTELVECCHIO PASCOLI,Sun,2.9705882352941178,2.0,8,102,25,9,1,44.09007,10.455061
CATANIA CENTRALE,Sun,-1.2269129287598945,-2.0,50,379,51,32,21,37.506211,15.099417
CATANZARO LIDO,Sun,1.7581227436823104,1.0,22,277,67,29,10,38.821788,16.612975
CATENANUOVA,Sun,0.6818181818181818,-1.0,5,44,5,4,2,37.562026,14.688263
CAVALLEGGERI AOSTA,Sun,-0.39622641509433965,-1.0,155,1908,75,28,11,40.819292,14.185679
CAVARIA OGGIONA JERAGO,Sun,3.080168776371308,2.0,54,474,142,81,17,45.698145,8.8035
CAVAZZALE,Sun,1.0655021834061136,0.0,18,229,23,9,3,45.596079,11.569823
CEFALU`,Sun,-2.0285714285714285,-2.0,24,245,20,10,4,38.03285,14.019526
CELANO-OVINDOLI,Sun,0.7692307692307693,1.0,2,13,1,0,0,42.076999,13.543398
CELLE,Sun,2.0,2.0,1,1,0,0,0,44.34246,8.542626
CERCHIO,Sun,1.9166666666666667,1.0,1,12,1,1,0,42.061082,13.597972
CERTALDO,Sun,2.2596153846153846,1.0,33,416,121,58,10,43.547124,11.037711
CESANO DI ROMA,Sun,1.921752738654147,2.0,57,639,107,33,6,42.061833,12.326669
CESENA,Sun,1.3524492234169654,-1.0,77,837,189,143,75,44.145449,12.24964
CHIAVENNA,Sun,1.7569060773480663,0.0,16,181,23,17,12,46.321258,9.407129
CHIOMONTE,Sun,1.4849785407725322,1.0,20,233,25,15,10,45.119876,6.988716
CIAMPINO,Sun,0.386986301369863,0.0,68,876,70,26,7,41.804442,12.599546
CISTERNINO,Sun,11.0,11.0,1,1,1,1,1,40.816652,17.456899
CITTADUCALE,Sun,3.1746031746031744,2.0,10,126,43,19,5,42.387764,12.94269
CIVITELLA ROVETO,Sun,1.75,0.0,2,16,3,1,1,41.916419,13.424882
COCCAGLIO,Sun,1.4107142857142858,0.0,37,392,41,18,7,45.560971,9.977648
COGOLETO,Sun,1.4217311233885819,1.0,50,543,71,43,17,44.389762,8.643906
COLLARMELE,Sun,0.9166666666666666,1.0,1,12,1,0,0,,
COLLI DI MONTE BOVE,Sun,1.4166666666666667,1.0,2,24,2,0,0,42.097103,13.15057
CONDOFURI,Sun,0.72,1.0,2,25,1,1,0,37.92761,15.874952
CONEGLIANO,Sun,0.9279711884753902,-1.0,70,833,94,52,23,45.884706,12.298909
CONTEA LONDA,Sun,2.1121076233183858,2.0,19,223,69,18,6,43.865124,11.531603
CONTURSI TERME,Sun,3.2708333333333335,-1.0,4,48,16,16,5,40.630046,15.235486
COSIO TRAONA,Sun,4.547008547008547,3.0,20,234,109,70,21,46.135564,9.525498
CREMONA,Sun,1.8844884488448845,0.0,52,606,113,67,29,45.143215,10.017951
CRESPINO DEL LAMONE,Sun,3.445161290322581,2.0,12,155,60,28,9,,
CROTONE,Sun,1.572289156626506,1.0,13,166,42,23,14,39.0845,17.108418
CRUCOLI,Sun,1.5490196078431373,1.0,8,102,13,7,1,39.449588,17.040718
CUCCIAGO,Sun,4.285714285714286,3.0,12,14,7,4,2,45.740813,9.082205
DELEBIO,Sun,4.538461538461538,3.0,20,234,103,68,25,46.13865,9.461168
DIANO,Sun,6.6,7.0,4,5,4,4,0,,
DOMEGLIARA,Sun,3.83206106870229,3.0,33,393,171,111,33,45.522348,10.820408
DONNAZ,Sun,2.723076923076923,2.0,10,130,32,13,4,45.602713,7.769563
ELLERA CORCIANO,Sun,3.125,1.0,12,144,47,33,11,43.094699,12.318574
FANO,Sun,2.447084233261339,1.0,42,463,105,63,26,43.842977,13.02478
FARA SABINA,Sun,-0.11967213114754098,-1.0,78,610,19,10,5,42.155546,12.648323
FELTRE,Sun,1.3101851851851851,1.0,28,216,24,8,5,46.012884,11.911493
FERENTINO-SUPINO,Sun,1.7747747747747749,1.0,26,333,31,15,3,41.6564,13.246971
FERRANDINA,Sun,2.4903846153846154,1.0,9,104,26,16,6,40.516566,16.475276
FIGLINE VALDARNO,Sun,2.835866261398176,1.0,56,658,178,109,32,43.621596,11.473652
FIRENZE CAMPO MARTE,Sun,1.7637088733798605,1.0,98,1003,202,129,56,43.776856,11.27702
FIRENZE RIFREDI,Sun,0.7077306733167082,0.0,174,2005,209,113,40,43.800873,11.235729
FIUMEFREDDO DI SICILIA,Sun,1.378787878787879,1.0,16,198,35,17,5,37.795247,15.205615
FIVIZZANO - GASSANO,Sun,3.603960396039604,3.0,8,101,39,25,1,44.202672,10.091691
FOGGIA,Sun,2.589651022864019,1.0,76,831,232,163,84,41.466,15.555816
FOGNANO,Sun,5.296774193548387,5.0,12,155,99,74,12,,
FONDI - SPERLONGA,Sun,1.9193548387096775,1.0,35,434,83,43,19,41.337663,13.424893
FORNACI DI BARGA,Sun,1.8263473053892216,1.0,13,167,36,16,3,44.045253,10.473173
FOSCIANDORA - CESERANA,Sun,3.140625,3.0,5,64,20,5,0,44.118559,10.444212
FOSSACESIA - TORINO DI SANGRO,Sun,1.7115384615384615,1.0,4,52,11,4,0,42.237648,14.525456
FRANCAVILLA AL MARE,Sun,2.3076923076923075,2.0,4,52,13,7,0,42.421316,14.288062
FRATTE,Sun,2.9461538461538463,2.0,12,130,33,20,7,40.705637,14.778362
FROSINONE,Sun,0.18329466357308585,-1.0,34,431,37,23,16,41.625333,13.328728
FUSCALDO,Sun,1.974025974025974,1.0,7,77,14,8,2,39.409692,16.011475
GALLIERA,Sun,5.625730994152047,3.0,14,171,85,55,19,44.737738,11.441551
GAMBOLO`REMONDO`,Sun,4.645833333333333,2.0,12,144,38,11,6,45.23587,8.79757
GENOVA BORZOLI,Sun,1.9144736842105263,1.0,14,152,31,14,4,44.434704,8.866648
GENOVA BRIGNOLE,Sun,1.6895861148197597,0.0,138,1498,316,217,100,44.407213,8.947553
GENOVA S.BIAGIO,Sun,2.0,2.0,1,1,0,0,0,44.484399,8.900854
GENOVA STURLA,Sun,9.5,2.0,2,2,1,1,1,44.397977,8.981466
GHEDI,Sun,2.816666666666667,1.0,15,180,41,24,10,45.409439,10.280506
GINOSA,Sun,3.1346153846153846,2.0,4,52,10,5,3,40.429201,16.890968
GIOVINAZZO,Sun,3.2193308550185873,2.0,21,269,82,46,21,41.180968,16.669346
GORIZIA CENTRALE,Sun,1.6975169300225734,0.0,38,443,62,41,20,45.933047,13.60684
GRAVELLONA TOCE,Sun,0.4519230769230769,1.0,8,104,9,4,1,45.934051,8.428346
GRIGNO,Sun,2.2777777777777777,2.0,6,72,12,6,2,46.015059,11.624984
GROANE,Sun,0.8403755868544601,0.0,18,213,15,9,3,,
GUARDIA PIEMONTESE TERME,Sun,10.0,5.0,2,2,2,1,1,39.464259,15.979237
GUASTALLA,Sun,2.4166666666666665,2.0,2,12,2,1,0,,
IGEA MARINA,Sun,0.7320099255583127,0.0,47,403,40,31,14,44.131972,12.481636
IMOLA,Sun,2.77449947312961,1.0,95,949,262,160,66,44.359418,11.718723
IMPERIA,Sun,2.6343283582089554,2.0,59,536,190,109,13,43.88051,8.019182
IPOGEO DEGLI OTTAVI,Sun,2.372311827956989,2.0,67,744,167,73,8,41.968391,12.409026
ISOLA CAPO RIZZUTO,Sun,2.0,2.0,1,1,0,0,0,39.043084,17.071764
ISOLA DELLA SCALA,Sun,5.425855513307985,4.0,22,263,155,91,33,45.269474,11.013312
ITRI,Sun,1.5068493150684932,1.0,18,219,42,13,3,41.271328,13.545549
IVREA,Sun,0.9438202247191011,0.0,37,445,94,56,16,45.461542,7.876348
JOPPOLO,Sun,2.9066666666666667,2.0,7,75,15,5,3,38.580318,15.897025
LA RUSTICA UIR,Sun,1.1,0.0,7,90,13,7,3,,
LA SPEZIA CENTRALE,Sun,1.8689482470784642,1.0,139,1198,323,204,78,44.11141,9.813906
LABICO,Sun,2.0634920634920637,1.0,10,126,14,6,3,,
LAMEZIA TERME CENTRALE,Sun,2.1683168316831685,-1.0,61,606,111,81,47,38.921347,16.255577
LAMEZIA TERME SAMBIASE,Sun,2.7661691542288556,2.0,18,201,29,10,4,38.959927,16.284962
LASTRA A SIGNA,Sun,2.5,2.0,2,2,0,0,0,,
LATERINA,Sun,2.470059880239521,2.0,28,334,62,33,12,43.496458,11.660573
LAVIS,Sun,9.333333333333334,9.0,3,3,2,2,1,46.148306,11.095993
LENTINI,Sun,0.9121951219512195,0.0,27,205,54,37,20,37.300916,14.99758
LEVATA,Sun,2.543778801843318,1.0,18,217,58,29,16,,
LIVORNO CENTRALE,Sun,0.9593679458239278,0.0,88,886,177,110,43,43.55406,10.336593
LIVORNO FERRARIS,Sun,-0.1242603550295858,-1.0,13,169,16,9,1,45.283402,8.073493
LOCATE TRIULZI,Sun,2.539176626826029,2.0,67,753,189,68,9,45.35973,9.221398
LODI,Sun,1.4718644067796611,0.0,153,1475,303,147,67,45.308966,9.497585
MAGENTA,Sun,2.2710997442455243,2.0,95,1173,222,107,37,45.468204,8.880633
MANDATORICCIO CAMPANA,Sun,1.911764705882353,1.0,8,102,12,8,2,39.525442,16.893125
MANDELLO DEL LARIO,Sun,4.561779242174629,2.0,77,607,176,127,66,45.915208,9.322061
MANTOVA,Sun,1.305210918114144,0.0,35,403,77,51,18,45.158746,10.783165
MARMORE,Sun,2.2805755395683454,2.0,11,139,33,17,4,42.547499,12.715224
MASSA CENTRO,Sun,3.159468438538206,2.0,77,903,290,177,55,44.023741,10.136041
MASSAROSA BOZZANO,Sun,2.2620689655172415,2.0,17,145,34,13,1,43.855652,10.352022
MATELICA,Sun,2.905982905982906,2.0,10,117,34,16,3,43.25394,13.01509
MAZARA DEL VALLO,Sun,1.6725663716814159,0.0,9,113,22,17,7,37.652448,12.594565
MEDE,Sun,4.005649717514125,3.0,16,177,88,34,3,45.095009,8.742594
MELEGNANO,Sun,1.7267950963222416,1.0,82,571,74,40,8,45.356321,9.319271
MEZZANI RONDANI,Sun,4.661971830985915,2.0,18,213,88,53,17,44.966764,10.398818
MILANO CENTRALE,Sun,3.115599751398384,1.0,314,3218,847,541,307,45.486347,9.204528
MILANO DATEO,Sun,2.9625126646403244,2.0,289,2961,811,407,117,45.462341,9.209277
MILANO PORTA GARIBALDI,Sun,0.8386422976501305,0.0,180,1915,283,158,69,45.484917,9.187683
MODUGNO,Sun,4.695035460992908,2.0,11,282,132,130,16,,
MOLINO DEL PALLONE,Sun,1.9736842105263157,2.0,9,114,16,1,0,44.100128,10.961252
MOMBALDONE ROCCAVERANO,Sun,2.515873015873016,1.0,10,126,27,13,4,44.569891,8.332781
MONASTERACE STILO,Sun,1.9717514124293785,1.0,14,177,48,19,4,38.437591,16.574444
MONTAGNANA,Sun,2.716867469879518,2.0,13,166,47,24,7,45.228238,11.459873
MONTE S.BIAGIO,Sun,1.76036866359447,0.0,35,434,84,41,18,41.345967,13.347037
MONTECATINI TERME,Sun,1.7145669291338583,1.0,66,508,109,66,21,43.879327,10.780588
MONTEMARCIANO,Sun,5.1891891891891895,3.0,3,37,14,11,6,43.651397,13.346478
MONTENERO PETACCIATO,Sun,1.8205128205128205,1.0,3,39,6,4,2,42.033286,14.851015
MONTI TELTI,Sun,0.5443786982248521,1.0,14,169,33,11,0,40.829632,9.322814
MONTICELLO D`ALBA,Sun,0.30612244897959184,0.0,16,196,3,2,2,44.703736,7.965002
MONZUNO,Sun,2.8931297709923665,1.0,19,131,35,18,9,44.322277,11.262082
MORBEGNO,Sun,6.246296296296296,3.0,71,540,263,162,71,46.136663,9.568646
MOZIA-BIRGI,Sun,0.7610619469026548,0.0,9,113,14,11,6,37.884956,12.499016
MOZZECANE,Sun,2.0709677419354837,2.0,15,155,33,16,4,45.306687,10.823657
NAPOLI GIANTURCO,Sun,-1.4889589905362777,-2.0,186,2219,128,70,27,40.853959,14.288213
NAPOLI PIAZZA LEOPARDI,Sun,0.07120324470482199,-1.0,183,2219,101,51,32,40.82397,14.199117
NARNI AMELIA,Sun,3.5,1.0,2,2,1,1,0,42.53128,12.519592
NICOTERA,Sun,3.9489795918367347,3.0,11,98,31,12,3,38.549328,15.933749
NIZZA DI SICILIA,Sun,1.837837837837838,1.0,12,148,15,10,3,37.996937,15.412334
NOGARA,Sun,2.9375,2.0,34,416,136,92,30,45.179937,11.070572
NONE,Sun,1.4154589371980677,1.0,16,207,24,10,2,44.938011,7.540068
NOVARA,Sun,0.7346089850249584,0.0,100,1202,141,73,36,45.451376,8.624895
NOVATE MILANESE,Sun,2.8482758620689657,2.0,15,145,48,18,1,,
NOZZANO,Sun,4.8584905660377355,4.0,9,106,54,39,10,43.829956,10.40716
NUS,Sun,2.7055837563451774,2.0,33,394,91,48,14,45.738786,7.4712
OGGIONO,Sun,1.2,1.0,22,220,17,7,3,45.788993,9.33748
OLGIATE-CALCO-BRIVIO,Sun,2.0546448087431695,1.0,38,366,48,28,9,45.729166,9.40377
OLMENETA,Sun,1.0224137931034483,0.0,51,580,79,51,18,45.231099,10.03194
OMEGNA,Sun,0.7115384615384616,1.0,8,104,12,5,1,45.87179,8.413291
ORA,Sun,5.833333333333333,4.0,6,6,5,2,1,46.36092,11.296781
ORBETELLO,Sun,2.708154506437768,1.0,21,233,54,36,15,42.450615,11.248972
ORICOLA-PERETO,Sun,1.811881188118812,1.0,8,101,14,5,1,42.067835,13.044214
ORTA MIASINO,Sun,0.36538461538461536,0.0,8,104,8,3,0,45.795865,8.421217
ORTANOVA,Sun,3.0599078341013826,2.0,17,217,59,30,10,41.350441,15.732059
ORTONA,Sun,2.173076923076923,2.0,4,52,11,5,0,42.354196,14.407698
ORVIETO,Sun,3.431893687707641,2.0,38,301,102,66,36,42.723379,12.127412
OSCHIRI,Sun,1.6568047337278107,1.0,14,169,23,10,0,40.713273,9.107749
OSNAGO,Sun,2.0224719101123596,1.0,37,356,48,26,9,45.678532,9.386995
OSPITALETTO TRAVAGLIATO,Sun,1.669291338582677,1.0,59,635,70,28,13,45.546042,10.074363
OSTIA PARMENSE,Sun,1.302439024390244,1.0,21,205,39,23,4,44.520136,9.844981
P.M. BADESSE,Sun,1.8412698412698412,0.0,15,189,26,16,6,43.382144,11.277136
PADERNO ROBBIATE,Sun,4.764705882352941,4.0,36,425,247,139,10,45.678307,9.439202
PADOVA,Sun,0.9604759881002974,-1.0,220,2353,350,225,116,45.417846,11.880794
PAESTUM,Sun,8.0,8.0,1,2,2,2,0,40.421691,15.014915
PAGANICA,Sun,0.5846153846153846,0.0,5,65,3,0,0,42.334751,13.464317
PALERMO BRANCACCIO,Sun,0.3173076923076923,0.0,17,208,6,2,1,38.093141,13.392508
PALERMO CENTRALE,Sun,-2.2775800711743774,-1.0,51,562,14,11,7,38.109187,13.367515
PALERMO NOTARBARTOLO,Sun,-1.6659574468085105,-2.0,37,470,3,2,1,38.132261,13.341572
PALMANOVA,Sun,0.14772727272727273,0.0,7,88,2,1,0,45.906862,13.296461
PARABIAGO,Sun,3.578804347826087,3.0,69,736,294,122,21,45.552441,8.946319
PARCO LEONARDO,Sun,2.8178654292343386,2.0,99,862,219,64,25,41.79932,12.29543
PAVONA,Sun,3.150485436893204,2.0,16,206,59,21,5,41.723897,12.61116
PERCA,Sun,0.2608695652173913,0.0,6,69,3,1,0,,
PERGINE,Sun,1.5833333333333333,1.0,6,72,13,5,1,46.062482,11.232637
PERI,Sun,3.410891089108911,2.0,16,202,71,44,12,45.658402,10.900314
PIAN DI VENOLA,Sun,2.4677871148459385,2.0,30,357,75,34,6,44.332136,11.188609
PIAZZA AL SERCHIO,Sun,1.4666666666666666,1.0,13,165,26,11,2,44.182515,10.296615
PIEDIMULERA,Sun,2.0576923076923075,1.0,8,104,12,4,2,46.024348,8.261237
PIETRA LIGURE,Sun,3.472972972972973,2.0,45,518,189,112,32,44.145345,8.277403
PIETRARSA,Sun,11.0,11.0,1,1,1,1,1,40.822433,14.32058
PIEVE VERGONTE,Sun,-0.3626373626373626,-1.0,7,91,7,4,2,46.009783,8.276298
PINETO ATRI,Sun,2.041095890410959,2.0,21,219,44,18,7,42.607736,14.069072
PIOMBINO,Sun,0.8266666666666667,0.0,10,75,19,5,1,42.924854,10.530959
PISTOIA,Sun,1.4665629860031104,1.0,60,643,102,55,24,43.926804,10.914624
POGGIO RUSCO,Sun,3.311897106109325,2.0,26,311,118,74,26,44.981859,11.124627
POLESELLA,Sun,6.805555555555555,4.0,3,36,20,7,5,44.961039,11.738498
POLICASTRO BUSSENTINO,Sun,2.8902077151335313,1.0,27,337,86,61,13,40.076482,15.528438
POLICORO TURSI,Sun,5.705882352941177,4.0,4,51,31,20,6,40.207304,16.688819
PONT SAINT MARTIN,Sun,1.7149532710280373,1.0,33,428,78,44,18,45.589834,7.795024
PONTASSIEVE,Sun,2.316695352839931,2.0,49,581,121,58,16,43.773949,11.437904
PONTE A ELSA,Sun,1.0740740740740742,1.0,13,162,16,6,0,43.694385,10.906008
PONTE A MORIANO,Sun,3.143712574850299,2.0,13,167,51,26,5,43.908371,10.534264
PONTE A TRESSA,Sun,1.4081632653061225,1.0,5,49,4,1,0,43.250844,11.39617
PONTE DELLA VENTURINA,Sun,2.2280701754385963,3.0,9,114,27,9,0,44.128589,10.990756
PONTE S.PIETRO,Sun,3.289873417721519,3.0,67,790,274,111,14,45.69916,9.584322
PONTECURONE,Sun,2.259259259259259,2.0,7,54,10,7,2,44.962014,8.929717
PONTELAGOSCURO,Sun,7.222222222222222,4.0,3,36,20,10,5,44.873216,11.612526
PONTELAMBRO - CASTELMARTE,Sun,0.0037313432835820895,0.0,25,268,0,0,0,,
PONTENURE,Sun,2.8059701492537314,2.0,6,67,15,9,5,45.001687,9.792103
PONTETTO,Sun,10.0,10.0,1,1,1,1,0,44.377309,9.07696
PONTIDA,Sun,2.935672514619883,2.0,28,342,86,35,7,45.730084,9.511632
PONTREMOLI,Sun,1.1469648562300319,0.0,32,313,64,37,12,44.371976,9.887795
PORTO S. GIORGIO FERMO,Sun,2.6351791530944624,1.0,31,307,83,45,17,43.17972,13.7975
POVO,Sun,2.7777777777777777,2.0,6,72,25,9,2,,
PRACCHIA,Sun,0.7456140350877193,1.0,9,114,6,1,0,44.05479,10.90691
PRASCO CREMOLINO,Sun,1.105263157894737,1.0,14,152,13,6,2,44.648906,8.55001
PRATOLA PELIGNA,Sun,0.08496732026143791,0.0,12,153,8,4,0,42.102423,13.876349
PRIMOLANO,Sun,2.2777777777777777,2.0,6,72,16,5,2,45.965315,11.700899
QUATTRO VENTI,Sun,1.6713735558408216,1.0,70,779,83,28,8,41.880145,12.459731
RAPALLO,Sun,9.409090909090908,7.0,15,22,17,15,8,44.351398,9.231282
RASTIGNANO,Sun,2.240663900414938,1.0,33,241,31,18,7,44.443592,11.357617
REGGIO DI CALABRIA PELLARO,Sun,0.8352272727272727,1.0,15,176,6,1,0,38.02561,15.650064
RENATE-VEDUGGIO,Sun,2.4,2.0,22,220,48,17,3,45.728304,9.279834
RESCALDINA,Sun,0.568760611205433,0.0,51,589,20,9,3,,
RICCIONE,Sun,1.9788732394366197,0.0,59,568,146,101,50,43.999218,12.658549
RIOMAGGIORE,Sun,1.8,2.0,4,5,1,0,0,44.105203,9.729105
RIVA TRIGOSO,Sun,3.0586907449209932,2.0,39,443,122,80,25,44.26391,9.429277
ROBECCO-PONTEVICO,Sun,2.325,1.0,18,200,58,31,8,45.266224,10.078593
ROCCASECCA,Sun,0.28191489361702127,-1.0,30,376,20,11,7,41.526377,13.645814
ROCCAVIONE,Sun,1.922077922077922,2.0,12,154,15,3,0,44.314445,7.485361
ROLO NOVI FABBRICO,Sun,1.3440366972477065,0.0,18,218,30,19,11,44.886561,10.867882
ROMA PRENESTINA,Sun,1.2836879432624113,0.0,11,141,19,14,4,41.897571,12.545803
ROMA S.FILIPPO NERI,Sun,1.4059139784946237,1.0,67,744,98,46,7,41.950262,12.412414
ROMA TIBURTINA PIAZZALE EST,Sun,-2.9305555555555554,-2.0,6,72,6,2,1,41.910903,12.530749
RONTA,Sun,3.425806451612903,2.0,12,155,61,31,9,44.009432,11.434125
ROVIANO,Sun,0.03968253968253968,-1.0,10,126,10,7,2,42.026476,12.991119
RUDALZA,Sun,1.38,1.0,4,50,0,0,0,40.994082,9.531214
S. GENNARO,Sun,2.0533980582524274,1.0,16,206,31,10,5,,
S. GIACOMO DI TEGLIO,Sun,4.0,2.0,4,31,7,5,4,46.159722,10.027405
S. MARIA DELLE MOLE,Sun,3.7609756097560973,3.0,16,205,96,35,7,41.774417,12.606225
S. PIETRO A VICO,Sun,2.3051948051948052,1.0,12,154,35,19,5,43.875094,10.530945
S.BIAGIO,Sun,2.3529411764705883,2.0,6,68,23,2,0,44.594511,11.87054
S.CANDIDO,Sun,2.2564102564102564,2.0,4,39,5,2,1,46.732728,12.271917
S.CASSIANO,Sun,3.9788732394366195,3.0,11,142,68,35,5,44.143684,11.687503
S.CROCE DEL LAGO,Sun,1.9285714285714286,1.0,12,140,26,8,3,46.094795,12.324068
S.DONNINO BADIA,Sun,6.0,6.0,1,1,1,1,0,43.785424,11.142169
S.GIORGIO P.,Sun,3.4678362573099415,1.0,14,171,43,29,14,44.646641,11.37901
S.GIOVANNI AL NATISONE,Sun,0.9372384937238494,0.0,20,239,26,15,3,45.976122,13.397437
S.MARCO ROGGIANO,Sun,-0.7551020408163265,-1.0,8,98,8,6,2,39.605223,16.208776
S.MARINO,Sun,1.4861111111111112,1.0,6,72,5,2,2,45.897699,11.692241
S.MICHELE IN BOSCO,Sun,3.909090909090909,2.0,2,22,9,3,1,45.122404,10.57329
S.NICOLO',Sun,3.4,2.0,17,165,52,25,9,45.058843,9.606443
S.PIERO A SIEVE,Sun,2.216326530612245,1.0,19,245,45,28,11,43.958317,11.322742
S.VITTORIA,Sun,0.2564102564102564,0.0,16,195,3,2,2,44.69561,7.916909
SACILE,Sun,0.8760469011725294,-1.0,51,597,72,43,20,45.948413,12.498498
SAIRANO,Sun,5.241573033707865,4.0,16,178,125,48,7,45.138858,9.046868
SALA AL BARRO-GALBIATE,Sun,2.422727272727273,2.0,22,220,24,10,3,45.821086,9.359223
SALINE DI REGGIO,Sun,1.3068181818181819,1.0,15,176,10,2,1,37.938677,15.710664
SALONE,Sun,1.5,0.0,4,52,9,6,3,41.915253,12.636215
SALSOMAGGIORE T.,Sun,0.7380952380952381,0.0,12,126,9,2,2,44.81866,9.988129
SALUGGIA,Sun,1.7218934911242603,1.0,13,169,21,11,1,45.23443,8.017112
SALUSSOLA,Sun,0.2111111111111111,0.0,14,180,4,3,2,45.44438,8.115195
SAN MARCO D`ALUNZIO T.,Sun,2.8333333333333335,2.0,7,90,22,9,1,38.094202,14.675909
SAN MOMME`,Sun,1.6403508771929824,1.0,9,114,11,1,0,44.027999,10.914798
SAN SEVERO,Sun,3.1267605633802815,0.0,14,142,43,33,19,41.684512,15.392567
SANFRE`,Sun,0.8125,0.0,16,208,16,3,1,44.74799,7.796793
SANTA TERESA DI RIVA,Sun,-0.5089285714285714,-1.0,18,224,18,7,3,37.946295,15.367682
SANTARCANGELO DI ROMAGNA,Sun,1.4081632653061225,1.0,22,196,28,16,6,44.070316,12.45454
SAPRI,Sun,2.768642447418738,1.0,49,523,151,108,43,40.078013,15.627204
SARNO,Sun,4.303030303030303,3.0,17,165,72,41,14,40.813063,14.612442
SCOPETI,Sun,3.684684684684685,3.0,19,222,101,44,7,43.841117,11.497001
SCORDIA,Sun,3.05,2.0,4,40,11,6,4,37.294595,14.851219
SERIATE,Sun,1.2418478260869565,1.0,36,368,41,9,4,45.683145,9.724628
SERRADIFALCO,Sun,-3.5384615384615383,-4.0,1,13,0,0,0,37.431804,13.883299
SERRAVALLE PISTOIESE,Sun,2.5037593984962405,1.0,13,133,28,17,6,43.908016,10.85168
SESTO FIORENTINO,Sun,0.3978494623655914,-1.0,9,93,7,4,3,43.833297,11.191941
SETTE BAGNI,Sun,1.5380281690140845,1.0,86,710,43,20,7,42.006438,12.520156
SETTIMO TAVAGNASCO,Sun,1.0,1.0,3,3,0,0,0,45.546214,7.825189
SEVESO,Sun,0.0,0.0,93,1033,0,0,0,45.648187,9.140488
SEZZE ROMANO,Sun,2.0531177829099305,0.0,35,433,88,53,24,41.495542,13.038452
SIDERNO,Sun,2.4653465346534653,2.0,16,202,60,33,7,38.2708,16.302
SIECI,Sun,8.25,3.0,4,4,2,2,1,43.790892,11.394608
SIENA,Sun,0.8309037900874635,-1.0,30,343,42,21,14,43.331708,11.322972
SILIQUA,Sun,0.07905138339920949,-1.0,23,253,21,10,7,39.297005,8.813078
SIRACUSA,Sun,-2.83,-2.0,16,100,15,14,11,37.068906,15.280896
SOFFRATTA,Sun,2.382608695652174,2.0,19,230,38,18,3,45.976377,12.299346
SOLERO,Sun,0.7032967032967034,1.0,7,91,4,1,1,44.915886,8.51043
SORA,Sun,2.1875,1.0,2,16,5,1,1,41.716618,13.618601
SORI,Sun,10.0,10.0,3,3,3,3,1,44.369795,9.106006
SPINEA,Sun,1.5739910313901346,1.0,39,446,59,24,13,45.491568,12.177168
SQUILLACE,Sun,1.5,1.0,2,2,0,0,0,38.77705,16.570418
SQUINZANO,Sun,1.7432950191570882,1.0,22,261,49,26,8,40.439266,18.046097
STIMIGLIANO,Sun,1.5032258064516129,1.0,46,310,24,8,4,42.289811,12.568632
STRONGOLI,Sun,0.803921568627451,1.0,8,102,16,7,1,39.228139,17.108256
SU CANALE,Sun,2.96875,2.0,5,64,18,13,1,40.838375,9.404226
SULMONA,Sun,-1.528169014084507,-2.0,12,142,6,4,1,42.060836,13.907156
SUZZARA,Sun,1.665137614678899,1.0,18,218,30,20,14,44.994432,10.756138
TAGLIACOZZO,Sun,2.1971153846153846,1.0,17,208,39,21,11,42.070701,13.255664
TARQUINIA,Sun,1.0,-1.0,18,195,35,23,8,42.239463,11.727009
TEANO,Sun,2.2960526315789473,1.0,12,152,37,19,7,41.231804,14.077075
TELESE CERRETO,Sun,3.1758241758241756,0.0,8,91,31,25,11,41.211709,14.526165
TERAMO,Sun,1.78125,2.0,5,64,12,5,0,42.660551,13.715882
TERNI,Sun,1.2231404958677685,0.0,26,242,58,37,17,42.570768,12.651091
TERONTOLA CORTONA,Sun,3.9055555555555554,2.0,53,540,211,127,52,43.210263,12.007906
TERZO MONTABONE,Sun,1.8968253968253967,1.0,10,126,22,10,4,44.671932,8.428705
TIRANO,Sun,2.617021276595745,-1.0,24,141,28,20,15,46.21539,10.166961
TORINO STURA,Sun,0.05582922824302135,-1.0,47,609,31,11,3,45.121932,7.713202
TORRAZZA P.,Sun,0.5502958579881657,0.0,13,169,15,8,0,45.211855,7.970255
TORRE DEI PASSERI,Sun,0.5947712418300654,0.0,12,153,12,9,3,42.244022,13.937525
TORRE DEL GRECO,Sun,1.7677824267782427,1.0,43,478,90,44,19,40.787631,14.363159
TORRE DEL LAGO PUCCINI,Sun,2.97265625,2.0,21,256,81,39,11,43.826501,10.290287
TORREBERETTI,Sun,1.700325732899023,1.0,25,307,51,19,6,45.060533,8.660431
TORRITA DI SIENA,Sun,2.7375,2.0,14,160,30,14,7,43.174187,11.78758
TREBISACCE,Sun,5.352941176470588,3.0,4,51,25,17,6,39.865561,16.532173
TRENTO,Sun,2.334945586457074,2.0,74,827,243,136,43,46.072414,11.118941
TRESENDA-APRICA-TEGLIO,Sun,2.6334519572953736,1.0,49,281,50,37,23,46.162082,10.083754
TRINITAPOLI S.FERDIN. DI P.,Sun,3.2764976958525347,2.0,17,217,60,38,14,41.349677,16.090839
TUSA,Sun,-1.5897435897435896,-2.0,6,78,2,0,0,38.007989,14.256693
UGOVIZZA VALBRUNA,Sun,0.3270440251572327,-1.0,13,159,14,6,1,46.502902,13.494972
VADA,Sun,3.0328947368421053,2.0,13,152,42,27,8,43.352641,10.470376
VANDOIES,Sun,0.3333333333333333,0.0,6,69,1,1,0,46.814822,11.723079
VANZAGO POGLIANO,Sun,3.1204663212435233,2.0,71,772,248,118,20,45.525216,8.995531
VAPRIO D`AGOGNA,Sun,2.1153846153846154,1.0,2,26,4,1,0,45.599085,8.536862
VAREDO,Sun,0.0,0.0,65,738,0,0,0,,
VASTO S.SALVO,Sun,4.304597701149425,2.0,16,174,56,39,16,42.079832,14.739483
VELLETRI,Sun,1.3203883495145632,1.0,8,103,10,5,3,41.682421,12.780864
VENTIMIGLIA,Sun,1.7649253731343284,1.0,27,268,69,44,12,43.792561,7.610224
VERCEIA,Sun,0.4005524861878453,-1.0,31,362,31,22,17,46.202832,9.458412
VERDELLO DALMINE,Sun,0.8836930455635491,1.0,69,834,64,31,16,45.605715,9.619797
VERGATO,Sun,1.8966480446927374,1.0,30,358,58,16,4,44.282723,11.114386
VERGIATE,Sun,2.5208333333333335,1.0,35,192,55,31,10,45.717119,8.693187
VERONA PORTA NUOVA,Sun,2.0636704119850187,1.0,152,1602,399,279,122,45.428603,10.982377
VETRALLA,Sun,0.9077669902912622,1.0,19,206,26,14,3,42.304619,12.089137
VEZZANO LIGURE,Sun,1.7692307692307692,1.0,37,429,88,47,11,44.127081,9.88928
VIADANA BRESCIANA,Sun,3.2555555555555555,2.0,15,180,52,28,14,45.373648,10.331792
VIGEVANO,Sun,2.2670299727520438,1.0,33,367,64,43,17,45.312712,8.861977
VIGNA DI VALLE,Sun,3.3464285714285715,3.0,24,280,99,23,1,42.076863,12.210716
VIGODARZERE,Sun,-0.34523809523809523,-1.0,13,168,4,1,1,45.453289,11.891641
VILLA BONELLI,Sun,2.7485515643105445,2.0,99,863,189,82,24,41.8477601,12.455223
VILLA DEL CONTE,Sun,0.75,1.0,4,4,0,0,0,45.607701,11.852518
VILLA SAN SEBASTIANO,Sun,0.8333333333333334,1.0,1,12,0,0,0,42.049331,13.308271
VILLADOSSOLA,Sun,1.0769230769230769,1.0,8,104,9,4,2,46.064151,8.264675
VILLALBA,Sun,3.88,1.0,2,25,9,6,2,37.668526,13.885155
VILLANOVA,Sun,0.7992277992277992,0.0,21,259,28,12,5,44.963159,7.947136
VILLANOVA DI REGGIOLO,Sun,2.360576923076923,1.0,18,208,35,22,14,44.915925,10.842455
VILLAROSA,Sun,1.06,1.0,6,50,4,1,0,37.567205,14.200464
VILPIANO-NALLES,Sun,2.6684491978609626,3.0,30,374,87,16,2,46.554251,11.220143
VIZZINI,Sun,2.35,0.0,4,40,6,6,3,37.182566,14.729457
VOGHERA,Sun,3.2264437689969605,1.0,71,658,198,120,40,44.9978,9.007942
VOLTANA,Sun,1.1326530612244898,1.0,17,196,16,1,1,44.540369,11.93605
ZOAGLI,Sun,16.0,10.0,3,4,3,3,2,44.33546,9.269126
ABANO TERME,Sun,1.6441717791411044,2.0,15,163,34,19,7,45.355199,11.811533
ACCIANO,Sun,6.461538461538462,6.0,1,13,13,10,0,42.175994,13.711345
ACIREALE,Sun,0.5786350148367952,0.0,38,337,57,37,19,37.600514,15.163697
ACQUAVIVA DELLE FONTI,Sun,1.6170212765957446,1.0,11,141,15,7,5,40.892806,16.839826
ADRIA,Sun,-0.49206349206349204,-2.0,5,63,6,4,2,45.06058,12.054228
AGRIGENTO BASSA,Sun,1.1123595505617978,0.0,14,178,8,6,5,37.319148,13.588094
AGRIGENTO CENTRALE,Sun,1.2857142857142858,0.0,8,91,9,5,5,37.309051,13.584412
AGROPOLI CASTELLABATE,Sun,3.7282608695652173,1.0,39,460,149,112,51,40.351521,15.002053
AIELLI,Sun,1.9166666666666667,1.0,1,12,1,1,0,,
ALANNO,Sun,6.386363636363637,5.0,7,88,85,32,7,42.287185,14.019595
ALASSIO,Sun,4.156934306569343,3.0,60,548,273,162,39,44.007889,8.17112
ALBA ADRIATICA NERETO CONTR.,Sun,3.264,2.0,15,125,41,26,6,42.83438,13.91733
ALBAIRATE VERMEZZO,Sun,0.5300546448087432,-1.0,49,549,55,36,18,,
ALBENGA,Sun,3.4125874125874125,3.0,62,572,254,147,39,44.04722,8.221663
ALBONESE,Sun,2.547008547008547,2.0,9,117,27,12,0,45.297785,8.714601
ALCAMO DIRAMAZIONE,Sun,4.0594059405940595,2.0,8,101,39,20,7,37.978894,12.915916
ALTARE,Sun,-0.21153846153846154,-1.0,4,52,2,2,1,44.336169,8.332753
ALTOPASCIO,Sun,3.3834296724470136,3.0,86,519,205,101,24,43.817418,10.672754
AMBIVERE MAPELLO,Sun,2.390710382513661,2.0,31,366,79,31,4,45.722163,9.550444
ANDORA,Sun,2.0869565217391304,1.0,20,253,65,42,8,,
ANTRODOCO BORGO VELINO,Sun,2.072,2.0,10,125,32,11,5,42.415393,13.076193
APRILIA,Sun,1.8953488372093024,1.0,20,258,52,19,5,41.592386,12.639126
ARAGONA CALDARE,Sun,0.912568306010929,1.0,16,183,12,7,7,37.381097,13.636837
ARCE,Sun,2.25,2.0,2,16,2,2,1,41.583695,13.571848
ARCISATE,Sun,2.020231213872832,1.0,104,692,82,36,13,45.858579,8.86241
ARENA PO,Sun,3.3191489361702127,1.0,4,47,10,7,3,45.082065,9.360394
ARIANO IRPINO,Sun,3.3513513513513513,0.0,3,37,7,5,4,41.181883,15.117508
ARONA,Sun,0.8140495867768595,0.0,82,484,108,54,17,45.755392,8.559075
ASTI,Sun,1.0473684210526315,0.0,64,760,150,81,24,44.89479,8.208112
ATTIGLIANO,Sun,3.486910994764398,2.0,17,191,74,44,22,42.518054,12.294761
AVEZZANO,Sun,1.167741935483871,-1.0,13,155,26,16,9,42.039495,13.426446
AVIO,Sun,10.0,8.0,2,2,2,2,1,45.733892,10.955842
BAGHERIA,Sun,0.0468384074941452,0.0,36,427,15,8,6,38.089905,13.507215
BAGNI DI TIVOLI,Sun,1.9794238683127572,1.0,19,243,41,21,7,41.949593,12.722208
BAGNOLO IN PIANO,Sun,0.47619047619047616,0.0,3,21,2,2,0,,
BAGNOLO MELLA,Sun,1.100502512562814,2.0,17,199,41,17,9,45.428532,10.183617
BALSORANO,Sun,1.0,-1.0,2,17,2,1,1,41.809427,13.556546
BANDITO,Sun,0.6634615384615384,0.0,16,208,10,3,1,44.722075,7.819452
BARDONECCHIA,Sun,2.6866666666666665,1.0,13,150,34,18,10,45.076447,6.709959
BARI PALESE MACCHIE,Sun,10.2,6.0,5,5,4,3,2,41.151583,16.766902
BERNALDA,Sun,5.653846153846154,3.0,2,26,13,5,2,40.397616,16.682281
BESOZZO,Sun,0.9351851851851852,0.0,26,216,20,10,5,45.842188,8.662997
BIANZE`,Sun,0.8165680473372781,0.0,13,169,19,11,2,45.309488,8.115523
BIANZONE,Sun,2.142857142857143,1.0,5,42,6,5,3,46.179383,10.112507
BICOCCA,Sun,0.47692307692307695,0.0,15,65,9,4,1,37.460617,15.044594
BITETTO PALO DEL COLLE,Sun,1.6830985915492958,1.0,12,142,14,7,4,41.041481,16.74053
BIVIO D`AURISINA,Sun,2.410041841004184,1.0,20,239,32,19,7,45.754253,13.655777
BOLLATE CENTRO,Sun,0.35575942915392456,0.0,85,981,35,13,1,,
BOLOGNA C.LE,Sun,1.3202269963518443,-1.0,257,2467,583,398,194,44.50626,11.342267
BOLOGNA S.RUFFILLO,Sun,1.6366559485530547,1.0,40,311,34,20,7,44.462657,11.372967
BORDIGHERA,Sun,2.453222453222453,2.0,47,481,107,60,16,43.778313,7.663504
BORGO S. LORENZO,Sun,1.7327044025157232,1.0,26,318,68,41,15,43.959822,11.380422
BORGO SAN DALMAZZO,Sun,1.0,1.0,12,154,7,1,0,44.326249,7.486111
BORGO VALSUGANA EST,Sun,2.4305555555555554,2.0,6,72,12,9,1,46.05224,11.462119
BORGOFRANCO,Sun,12.5,3.0,1,2,1,1,1,45.514775,7.854612
BORGOMANERO,Sun,0.5673076923076923,0.0,8,104,8,4,0,45.701054,8.468093
BORGORATTO,Sun,-1.04,-2.0,8,100,5,2,2,44.835999,8.538182
BOVA MARINA,Sun,2.3533333333333335,1.0,12,150,25,12,6,37.930269,15.923897
BRONI,Sun,2.5524475524475525,1.0,12,143,30,20,10,45.066263,9.258751
BRUNICO NORD,Sun,1.4057971014492754,1.0,6,69,4,1,0,,
BUCINE,Sun,13.833333333333334,7.0,5,6,4,4,2,43.480478,11.617609
BUSSOLENO,Sun,0.7572614107883817,0.0,40,482,65,35,20,45.139631,7.144819
BUSTO ARSIZIO,Sun,1.5249117300902315,0.0,276,2549,365,185,55,45.616164,8.865031
BUSTO ARSIZIO N.,Sun,0.8693069306930693,1.0,51,505,25,8,3,,
CADEO,Sun,1.9242424242424243,1.0,6,66,12,9,6,44.967283,9.853181
CAGLIARI,Sun,0.5983379501385041,-1.0,36,361,30,19,12,39.216078,9.107984
CAIRO MONTENOTTE,Sun,0.5196850393700787,-1.0,10,127,5,5,4,44.394747,8.278786
CALALZO PIEVE CADORE CORTINA,Sun,1.606060606060606,1.0,9,66,10,5,2,46.443829,12.388668
CALTANISSETTA XIRBI,Sun,-0.754601226993865,-2.0,17,163,8,6,2,37.536296,14.056902
CALUSCO,Sun,4.618823529411765,4.0,36,425,248,126,13,45.684113,9.470646
CALVISANO,Sun,4.094444444444444,2.0,15,180,59,35,14,45.346572,10.349411
CAMPELLO,Sun,3.04,2.0,2,25,8,5,1,42.822814,12.761253
CAMPOFELICE,Sun,-0.5384615384615384,-1.0,6,78,1,1,0,37.992615,13.876549
CAMPORGIANO,Sun,2.9819277108433737,2.0,13,166,49,21,5,44.161448,10.334849
CANCELLO,Sun,3.6395833333333334,2.0,43,480,157,81,34,40.993063,14.418877
CANDELA,Sun,3.6973684210526314,2.0,6,76,25,15,5,41.151439,15.533163
CANICATTI`,Sun,-1.76,-2.0,2,25,0,0,0,37.359879,13.855395
CAPALBIO,Sun,1.2564102564102564,0.0,18,195,33,25,12,42.407974,11.370982
CAPO D`ORLANDO-NASO,Sun,1.7279411764705883,1.0,26,272,58,28,14,38.157941,14.744844
CAPRALBA,Sun,4.220159151193634,3.0,33,377,160,96,20,45.443871,9.640015
CAPRANICA,Sun,1.6262135922330097,1.0,19,206,42,27,4,42.245195,12.157194
CAPUA,Sun,3.5588235294117645,1.0,9,102,31,23,7,41.101306,14.210347
CARIATI,Sun,4.3090909090909095,2.0,13,165,51,46,20,39.496884,16.952018
CARMAGNOLA,Sun,0.7605140186915887,0.0,66,856,75,41,20,44.846944,7.72797
CARNIA,Sun,-0.4772727272727273,-1.0,14,176,8,6,1,46.373634,13.132847
CARONIA,Sun,0.8607594936708861,0.0,7,79,11,4,0,38.034475,14.443761
CARPI,Sun,0.5,-1.0,20,240,25,14,6,44.782919,10.891952
CASABIANCA,Sun,4.175609756097561,3.0,16,205,100,27,7,41.788327,12.60431
CASALBUTTANO,Sun,1.7585301837270342,1.0,34,381,59,33,18,45.255398,9.962361
CASALECCHIO DI RENO,Sun,3.03072625698324,3.0,30,358,108,45,6,44.474298,11.276097
CASALECCHIO GARIBALDI,Sun,0.9730941704035875,0.0,40,446,46,22,4,44.482995,11.272474
CASSINE,Sun,1.12,2.0,8,100,29,12,2,44.751513,8.533613
CASTAGNETO CARDUCCI,Sun,4.733333333333333,3.0,10,15,7,5,2,43.16816,10.56399
CASTELLINA CH,Sun,0.4308510638297872,-1.0,15,188,16,8,4,43.408744,11.212379
CASTELLO D`ANNONE,Sun,1.6666666666666667,2.0,7,90,14,2,1,44.878742,8.312724
CASTELLUCCHIO,Sun,3.3254901960784315,2.0,22,255,72,51,21,45.144293,10.64749
CASTELNUOVO DI GARFAGNANA,Sun,1.8855421686746987,1.0,13,166,31,15,3,44.116351,10.409054
CASTIGLION DEL LAGO,Sun,3.4280701754385965,2.0,25,285,95,48,16,43.123195,12.032077
CASTIGLIONE COSENTINO,Sun,1.2571428571428571,0.0,29,350,33,25,11,39.35542,16.244388
CASTIONE ANDEVENNO,Sun,0.5833333333333334,1.0,1,12,0,0,0,46.161659,9.806151
CASTRO-POFI,Sun,1.5439739413680782,1.0,24,307,20,11,3,41.533014,13.410741
CAVA DEI TIRRENI,Sun,2.7301255230125525,1.0,41,478,108,58,23,40.703662,14.708461
CAVA MANARA,Sun,3.078212290502793,1.0,15,179,38,21,10,45.144867,9.115332
CAVA TIGOZZI,Sun,2.108108108108108,1.0,4,37,11,4,0,45.156823,9.955827
CAVI,Sun,6.0,6.0,1,1,1,1,0,44.29354,9.37251
CERDA,Sun,2.1578947368421053,2.0,6,76,3,1,1,37.953964,13.78447
CERLANO LAGHETTO,Sun,0.8,-1.0,17,200,30,18,4,,
CERNUSCO-MERATE,Sun,2.0673575129533677,1.0,40,386,48,31,10,45.695096,9.396794
CERTOSA DI PAVIA,Sun,2.291503267973856,2.0,67,765,192,60,9,45.256927,9.154456
CHIERI,Sun,1.0769230769230769,1.0,7,91,2,1,1,45.007008,7.827077
CHIURO,Sun,3.6451612903225805,1.0,4,31,6,6,4,46.164658,9.992317
CINISI TERRASINI,Sun,1.97,1.0,8,100,16,10,5,38.155314,13.096673
CIRO',Sun,3.278787878787879,2.0,13,165,47,31,16,39.368701,17.116997
CITTADELLA,Sun,-0.2076923076923077,-1.0,31,390,15,5,5,45.643868,11.789857
CIVATE,Sun,2.4545454545454546,2.0,22,220,46,12,5,45.831295,9.352877
CIVITA D`ANTINO-MORINO,Sun,2.176470588235294,1.0,2,17,2,1,1,41.870632,13.458868
CIVITANOVA MARCHE,Sun,2.5892018779342725,1.0,41,426,125,76,27,43.3091,13.7257
COCULLO,Sun,-1.6666666666666667,-2.0,1,12,0,0,0,42.040723,13.776636
COLICO,Sun,3.8015873015873014,1.0,89,756,225,151,73,46.138019,9.375222
COLLEFERRO-SEGNI-PALIANO,Sun,0.468586387434555,0.0,30,382,28,16,3,41.740062,13.00299
COMO S. GIOVANNI,Sun,1.2106481481481481,0.0,118,1296,207,131,38,45.808946,9.072331
CONDOVE,Sun,1.1166666666666667,0.0,19,240,23,18,11,45.106689,7.317022
CORTEOLONA,Sun,1.7382198952879582,1.0,17,191,41,22,2,45.159701,9.375477
COSENZA,Sun,2.1885714285714286,0.0,14,175,29,20,11,39.318386,16.260955
COSSATO,Sun,-0.11842105263157894,-1.0,14,152,7,1,1,45.564216,8.175964
CRESPELLANO,Sun,0.5632183908045977,0.0,10,87,2,1,0,,
CRESSA FONTANETO,Sun,0.7403846153846154,1.0,8,104,15,5,1,45.646331,8.498435
CROPANI,Sun,2.921787709497207,2.0,14,179,63,36,8,38.921968,16.813562
CUTRO,Sun,6.6923076923076925,6.0,1,13,9,7,2,39.02593,16.963809
CUZZAGO,Sun,2.740740740740741,1.0,31,189,48,24,10,45.993682,8.373989
DECIMOMANNU,Sun,0.1444805194805195,-1.0,63,616,41,25,15,39.304593,8.965808
DEGO,Sun,0.6771653543307087,1.0,10,127,5,4,3,44.448003,8.308469
DERVIO,Sun,3.8127090301003346,2.0,26,299,113,72,24,46.077709,9.30596
DESENZANO,Sun,4.234676007005254,2.0,55,571,196,105,48,45.462677,10.536322
DICOMANO,Sun,3.201793721973094,3.0,19,223,64,20,5,43.893489,11.519148
DIECIMO - PESCAGLIA,Sun,2.161676646706587,1.0,13,167,43,20,4,43.959404,10.507844
DOLO,Sun,0.9924812030075187,0.0,39,399,37,25,8,45.453466,12.07161
DOSSOBUONO,Sun,2.270967741935484,1.0,15,155,31,13,1,45.392382,10.914831
DUEVILLE,Sun,1.7336244541484715,1.0,18,229,13,7,3,45.635,11.546108
ESTE,Sun,1.2891566265060241,0.0,13,166,22,16,7,45.220954,11.662931
FABRIANO,Sun,0.862876254180602,-1.0,27,299,52,35,13,43.345429,12.905336
FAENZA,Sun,2.3200455580865604,1.0,80,878,202,151,66,44.293594,11.883268
FALCONARA MARITTIMA,Sun,1.3552859618717505,0.0,55,577,90,57,28,43.630577,13.397378
FANZOLO,Sun,1.137037037037037,1.0,23,270,15,4,1,45.708253,11.992069
FERRARA,Sun,1.8976545842217485,-1.0,81,938,179,116,71,44.843047,11.603594
FERRERA LOMELLINA,Sun,4.581005586592179,4.0,16,179,93,40,7,45.111807,8.862805
FI ROVEZZANO,Sun,11.0,11.0,1,1,1,1,1,43.768657,11.307372
FIORENZUOLA,Sun,2.1461245235069883,0.0,73,787,146,96,52,44.928716,9.917403
