stop_name,day_of_week,avg_arrival_delay,median_arrival_delay,count_trains,count_stops,count_3m_delay,count_5m_delay,count_10m_delay,stop_lat,stop_lon
ACQUAVIVA DELLE FONTI,Thu,1.6851851851851851,1.0,31,378,29,16,8,40.892806,16.839826
ACQUI TERME,Thu,3.8289473684210527,3.0,36,456,159,73,19,44.67407,8.474482
AGRIGENTO BASSA,Thu,1.4759615384615385,1.0,33,416,65,33,9,37.319148,13.588094
AIELLI,Thu,3.1714285714285713,1.0,8,35,7,7,2,,
ALBINIA,Thu,2.157232704402516,1.0,26,318,65,43,19,42.502165,11.21134
ALFONSINE,Thu,2.065340909090909,1.0,28,352,72,27,5,44.512364,12.039155
ALICE BELCOLLE,Thu,0.8440860215053764,0.0,16,186,8,4,0,44.722636,8.440076
ALI` TERME,Thu,3.2186147186147185,1.0,41,462,139,88,39,38.013952,15.435184
ALPIGNANO,Thu,10.0,10.0,1,1,1,1,0,45.091077,7.523745
AMOROSI MELIZZANO,Thu,4.607954545454546,4.0,16,176,89,62,19,41.173509,14.470759
ANCONA,Thu,2.4870967741935486,0.0,131,1550,385,272,160,43.607734,13.497665
ANDORA,Thu,2.694736842105263,1.0,30,380,117,78,23,,
ANGRI,Thu,3.3306559571619814,3.0,65,747,285,122,33,40.746404,14.575366
ANGUILLARA,Thu,2.389808917197452,2.0,76,785,201,62,5,42.068133,12.304978
ANNONE VENETO,Thu,2.8773234200743496,2.0,22,269,67,35,5,45.774904,12.680334
ANTIGNANO,Thu,3.5714285714285716,1.0,8,14,4,2,2,43.492482,10.328827
ANTRODOCO BORGO VELINO,Thu,1.9800664451827243,2.0,24,301,66,31,6,42.415393,13.076193
ARENA PO,Thu,5.899408284023669,3.0,15,169,77,51,18,45.082065,9.360394
ARENZANO,Thu,1.0382387022016222,0.0,70,863,135,73,24,44.403089,8.678322
AREZZO,Thu,2.4642857142857144,1.0,91,1064,328,193,70,43.461725,11.874189
ARGENTA,Thu,2.3813559322033897,2.0,28,354,93,25,9,44.616867,11.841267
ARPINO,Thu,2.28,1.0,11,100,27,12,3,41.648296,13.59959
ASCIANO,Thu,2.294930875576037,2.0,17,217,67,29,3,43.235245,11.579237
ASSEMINI,Thu,0.26107226107226106,0.0,76,858,48,25,8,39.287603,8.997936
ASTI,Thu,2.698443579766537,2.0,90,1028,290,145,40,44.89479,8.208112
ATTIGLIANO,Thu,2.75968992248062,2.0,41,516,138,85,24,42.518054,12.294761
AUGUSTA,Thu,4.544198895027624,1.0,41,362,105,76,49,37.24334,15.218628
AULLA LUNIGIANA,Thu,1.187028657616893,0.0,62,663,115,60,25,44.210555,9.970015
AVIO,Thu,18.4,14.0,4,5,5,5,5,45.733892,10.955842
BADOLATO,Thu,4.96875,5.0,5,64,39,24,4,38.572268,16.567646
BAGNARA,Thu,0.8297872340425532,-1.0,47,517,57,41,16,38.282695,15.800327
BAGNI DI TIVOLI,Thu,1.9877600979192167,2.0,65,817,158,63,11,41.949593,12.722208
BAGNOLO IN PIANO,Thu,1.015228426395939,0.0,24,197,27,13,6,,
BALESTRATE,Thu,4.153225806451613,2.0,10,124,42,23,11,38.053364,13.007374
BALSORANO,Thu,2.5185185185185186,1.0,12,108,22,13,4,41.809427,13.556546
BARBIANELLO,Thu,10.0,10.0,1,1,1,1,0,45.07263,9.204165
BARI CENTRALE,Thu,0.8816855753646677,-1.0,159,1851,298,197,109,41.11774,16.869601
BARILE,Thu,4.718181818181818,4.0,26,330,176,128,15,40.943044,15.670959
BATTAGLIA TERME,Thu,3.2679558011049723,1.0,29,362,138,109,25,45.291475,11.77838
BEAULARD,Thu,2.7660550458715596,1.0,35,436,84,48,17,45.046495,6.759713
BELGIRATE,Thu,6.528795811518324,4.0,15,191,98,75,44,45.843337,8.570821
BELLANO TARTAVELLE TERME,Thu,3.392523364485981,2.0,51,642,212,130,49,46.039448,9.302776
BELLANTE RIPATTONE,Thu,3.1693548387096775,4.0,20,248,147,51,1,42.705775,13.837978
BELVEDERE MARITTIMO,Thu,4.358730158730158,3.0,25,315,127,85,30,39.616549,15.853039
BENEVENTO,Thu,3.013333333333333,-1.0,26,300,105,82,40,41.141901,14.769998
BERGAMO,Thu,2.992769342010123,2.0,109,1383,454,267,88,45.690271,9.675082
BEVILACQUA,Thu,2.6843657817109143,2.0,27,339,101,41,10,45.230145,11.398643
BIELLA S.PAOLO,Thu,0.31868131868131866,-1.0,32,364,36,20,7,45.557334,8.067541
BINARIO S.MARCO VECCHIO,Thu,2.157622739018088,2.0,31,387,98,45,14,43.790336,11.267403
BISTAGNO,Thu,3.142857142857143,2.0,17,217,80,39,7,44.659256,8.372057
BOLGHERI,Thu,3.14,2.0,17,200,77,44,12,43.244664,10.550548
BOLLATE CENTRO,Thu,0.7570168404170008,0.0,101,1247,95,33,4,,
BOLOGNA BORGO PANIGALE,Thu,3.6669565217391304,2.0,104,1150,330,128,31,44.515024,11.284728
BONFERRARO,Thu,1.7317073170731707,2.0,16,205,59,32,6,45.185651,11.009247
BORGO LAVEZZARO,Thu,2.2867924528301886,2.0,21,265,56,24,7,45.318783,8.703242
BORGO VALSUGANA CENTRO,Thu,2.180487804878049,2.0,16,205,54,15,0,46.051182,11.453967
BORGOMANERO,Thu,3.0670103092783507,2.0,15,194,64,46,11,45.701054,8.468093
BORGONE,Thu,0.36538461538461536,-1.0,42,520,41,25,7,45.123191,7.236037
BORGORATTO,Thu,0.5392156862745098,0.0,16,204,21,12,2,44.835999,8.538182
BORORE,Thu,-0.02702702702702703,-1.0,7,74,5,4,1,40.218992,8.809535
BOSCHI S.ANNA,Thu,3.85459940652819,3.0,27,337,136,69,13,45.217328,11.362302
BOVALINO,Thu,4.130890052356021,3.0,30,382,155,103,44,38.149087,16.180584
BRANCALEONE,Thu,4.244094488188976,2.0,30,381,149,103,52,37.965475,16.103301
BRIATICO,Thu,3.1452513966480447,3.0,14,179,73,26,2,38.725447,16.025765
BRUZOLO,Thu,0.6206896551724138,0.0,42,522,42,26,7,45.131032,7.201497
BUSA DI VIGONZA,Thu,23.0,16.0,2,2,2,2,2,,
BUSSI,Thu,0.4157303370786517,0.0,7,89,4,2,2,42.194154,13.849075
BUSTO ARSIZIO N.,Thu,1.3528428093645486,1.0,51,598,65,13,8,,
CADEO,Thu,3.268292682926829,2.0,7,82,16,11,5,44.967283,9.853181
CAGLIARI,Thu,0.5054495912806539,0.0,64,734,48,24,15,39.216078,9.107984
CALALZO PIEVE CADORE CORTINA,Thu,0.3382352941176471,0.0,9,68,5,3,0,46.443829,12.388668
CALCIO,Thu,18.5,9.0,2,2,2,2,1,45.532937,9.841342
CALDONAZZO,Thu,2.3121951219512193,2.0,16,205,66,26,2,45.997575,11.264815
CALOPEZZATI,Thu,4.964601769911504,4.0,19,226,114,69,18,39.579022,16.819361
CALTIGNAGA,Thu,1.8888888888888888,1.0,16,207,37,12,4,45.519167,8.591602
CALVISANO,Thu,6.374581939799331,3.0,24,299,148,95,33,45.346572,10.349411
CAMMARATA S.GIOVANNI GEMINI,Thu,0.5891238670694864,1.0,26,331,88,40,11,37.653759,13.673791
CAMPAGNA SERRE PERSANO,Thu,4.0989010989010985,2.0,9,91,23,11,3,40.595667,15.113986
CAMPO DI CARNE,Thu,2.0053475935828877,1.0,44,561,122,55,14,41.552116,12.635125
CAMPOFELICE,Thu,0.14624505928853754,-1.0,20,253,15,10,7,37.992615,13.876549
CANCELLO,Thu,3.693266832917706,3.0,99,1203,436,233,72,40.993063,14.418877
CANETRA,Thu,7.294642857142857,6.0,9,112,102,70,20,42.391578,13.029159
CANTU`- CERMENATE,Thu,7.636363636363637,6.0,11,11,9,6,3,45.716236,9.099284
CAPALBIO,Thu,2.411985018726592,1.0,21,267,69,44,15,42.407974,11.370982
CAPISTRELLO,Thu,2.4962962962962965,1.0,14,135,14,9,5,41.97051,13.399276
CARATE-CALO`,Thu,3.220647773279352,2.0,40,494,164,74,14,45.676451,9.252304
CARAVAGGIO,Thu,5.388758782201405,3.0,34,427,190,132,50,45.491158,9.637723
CARINI,Thu,0.9028103044496487,1.0,68,854,30,10,3,38.147696,13.186624
CARONNO PERTUSELLA,Thu,1.2331460674157304,1.0,31,356,45,10,2,,
CARPI,Thu,0.5874587458745875,0.0,48,606,78,33,8,44.782919,10.891952
CARPIGNANO SESIA,Thu,3.536184210526316,3.0,30,304,100,41,11,45.528934,8.422898
CARRUBA,Thu,34.0,34.0,1,1,1,1,1,37.694344,15.196143
CASABIANCA,Thu,5.217494089834515,4.0,38,423,235,126,32,41.788327,12.60431
CASALMAGGIORE,Thu,4.479591836734694,3.0,32,392,173,95,31,44.993139,10.425023
CASCINA,Thu,2.9945750452079567,2.0,44,553,182,94,23,43.674542,10.545225
CASERTA,Thu,2.2823529411764705,1.0,127,1530,438,258,105,41.068655,14.328457
CASTEL S.PIETRO TERME,Thu,4.906886517943744,3.0,84,1031,454,318,117,44.407376,11.597681
CASTELDACCIA,Thu,5.666666666666667,4.0,5,6,4,3,1,38.060474,13.536867
CASTELDEBOLE,Thu,2.775381850853549,2.0,101,1113,293,129,30,44.503974,11.27456
CASTELFIORENTINO,Thu,10.74074074074074,11.0,16,27,26,26,14,43.60542,10.968048
CASTELFRANCO D'EMILIA,Thu,3.4447884416924666,2.0,79,969,338,203,71,44.597381,11.056408
CASTELFRANCO VENETO,Thu,1.1427789934354486,1.0,150,1828,205,95,33,45.666439,11.934315
CASTELLALTO CANZANO,Thu,0.8562367864693446,1.0,38,473,28,10,2,42.69564,13.793043
CASTELLAMMARE DEL GOLFO,Thu,4.306451612903226,2.0,10,124,44,26,10,38.024309,12.912209
CASTELLEONE,Thu,5.891156462585034,4.0,35,441,235,171,63,45.301826,9.76779
CASTELVETRANO,Thu,-0.774468085106383,-2.0,19,235,35,20,8,37.684977,12.799552
CASTELVETRO,Thu,1.8963730569948187,1.0,15,193,38,24,8,45.100095,9.982181
CASTIGLION DEL LAGO,Thu,3.435185185185185,3.0,35,432,170,82,26,43.123195,12.032077
CASTIGLIONCELLO,Thu,4.5,3.0,12,20,10,9,3,43.404619,10.414354
CASTIGLIONE COSENTINO,Thu,1.1362984218077474,1.0,58,697,75,48,11,39.35542,16.244388
CASTIONE ANDEVENNO,Thu,3.5833333333333335,1.0,1,12,2,1,1,46.161659,9.806151
CATANZARO LIDO,Thu,3.4850187265917603,3.0,43,534,205,113,36,38.821788,16.612975
CAULONIA,Thu,4.171875,3.0,5,64,31,19,4,38.343785,16.467278
CAVALLEGGERI AOSTA,Thu,0.24988641526578828,0.0,178,2201,161,56,17,40.819292,14.185679
CAVARIA OGGIONA JERAGO,Thu,5.084643288996372,2.0,69,827,355,239,94,45.698145,8.8035
CAVI,Thu,3.0,3.0,1,1,0,0,0,44.29354,9.37251
CECCHINA,Thu,3.2151067323481115,2.0,53,609,146,78,34,41.692029,12.650992
CEPRANO-FALVATERRA,Thu,0.38620689655172413,-1.0,34,435,29,19,8,41.523962,13.523481
CERIGNOLA,Thu,2.760084925690021,2.0,37,471,124,62,17,41.315664,15.897298
CERVIGNANO A.G.,Thu,0.802013422818792,0.0,72,894,109,56,18,45.823948,13.342866
CESENATICO,Thu,4.889423076923077,2.0,35,416,129,92,51,44.20065,12.391186
CHATILLON SAINT VINCENT,Thu,2.484090909090909,1.0,35,440,110,59,28,45.7434,7.619309
CHIOMONTE,Thu,1.2095671981776766,0.0,35,439,65,32,12,45.119876,6.988716
CIAMPINO,Thu,1.552112676056338,1.0,172,2130,352,157,47,41.804442,12.599546
CITTADELLA,Thu,0.36538461538461536,0.0,53,676,45,26,12,45.643868,11.789857
CIVATE,Thu,4.237529691211401,3.0,34,421,181,111,32,45.831295,9.352877
CIVITA CASTELLANA,Thu,0.5914489311163895,0.0,34,421,28,13,7,42.346593,12.453821
CIVITAVECCHIA,Thu,2.703788748564868,1.0,75,871,198,121,59,42.088287,11.79815
COCULLO,Thu,2.152173913043478,-1.0,8,46,10,9,7,42.040723,13.776636
CODOGNO,Thu,4.185303514376997,3.0,75,939,387,248,95,45.154897,9.701376
COLFELICE,Thu,6.0,6.0,1,1,1,1,0,,
COLLARMELE,Thu,3.1458333333333335,1.0,8,48,13,9,4,,
COMISO,Thu,3.4125874125874125,2.0,14,143,54,29,14,36.947184,14.60037
COMPIOBBI,Thu,3.0825688073394497,2.0,60,763,253,135,35,43.782527,11.358695
CONTURSI TERME,Thu,1.96875,0.0,12,128,30,18,3,40.630046,15.235486
CORIGLIANO CALABRO,Thu,5.419243986254296,3.0,24,291,137,91,41,39.628223,16.514949
COSTA MASNAGA,Thu,3.2077087794432546,2.0,38,467,157,76,16,45.76343,9.285231
CREMA,Thu,6.290249433106576,4.0,35,441,235,168,69,45.366864,9.694209
CREMONA,Thu,3.55011655011655,2.0,68,858,288,176,77,45.143215,10.017951
CROCICCHIE,Thu,0.0,0.0,1,1,0,0,0,42.0559,12.238888
CROTONE,Thu,4.492447129909365,3.0,27,331,153,97,35,39.0845,17.108418
DELEBIO,Thu,3.484251968503937,2.0,20,254,93,54,14,46.13865,9.461168
DESIO,Thu,3.9166023166023165,3.0,115,1295,497,277,89,45.620112,9.218495
DIANO,Thu,11.181818181818182,11.0,8,11,10,10,6,,
DIECIMO - PESCAGLIA,Thu,2.6842105263157894,2.0,27,342,103,41,8,43.959404,10.507844
DUBINO,Thu,0.9922077922077922,0.0,30,385,37,16,7,46.172802,9.432188
DUOMO VIA VERNIERI,Thu,0.5,0.0,2,2,0,0,0,,
EBOLI,Thu,4.927215189873418,3.0,27,316,131,79,32,40.611057,15.052382
ENNA,Thu,3.75,1.0,27,268,85,59,25,37.581134,14.289579
ESTE,Thu,1.3431952662721893,1.0,27,338,49,25,10,45.220954,11.662931
FALCONE,Thu,2.823529411764706,3.0,16,204,60,24,3,38.119573,15.080467
FANO,Thu,3.021361815754339,1.0,60,749,213,139,55,43.842977,13.02478
FELONICA PO,Thu,2.960227272727273,2.0,18,176,46,24,10,,
FERRERA LOMELLINA,Thu,4.655405405405405,4.0,24,296,159,83,14,45.111807,8.862805
FIDENE,Thu,1.4316939890710383,1.0,136,1647,149,52,19,41.979773,12.508451
FIDENZA,Thu,2.0586230402181322,1.0,121,1467,345,220,103,44.86773,10.06339
FILATTIERA,Thu,2.1954022988505746,1.0,35,348,94,48,15,44.33137,9.933352
FINALE LIGURE MARINA,Thu,3.43758573388203,2.0,60,729,277,168,52,44.169116,8.34033
FIRENZE RIFREDI,Thu,1.4635525141326986,1.0,285,3361,569,309,91,43.800873,11.235729
FIRENZE STATUTO,Thu,2.766743648960739,2.0,37,433,149,87,18,43.787273,11.249738
FIUMELATTE,Thu,2.8504983388704317,1.0,24,301,82,52,18,45.999017,9.292857
FIUMETORTO,Thu,2.0,2.0,1,1,0,0,0,37.966939,13.774781
FOGNANO,Thu,5.502347417840376,5.0,17,213,134,89,17,,
FOLLONICA,Thu,2.7294776119402986,1.0,43,536,131,97,41,42.926687,10.755775
FONTANAFREDDA,Thu,16.0,16.0,1,1,1,1,1,45.967555,12.575266
FORENZA,Thu,2.611111111111111,2.0,24,306,90,42,5,40.866839,15.725331
FORLIMPOPOLI,Thu,4.728179551122195,2.0,32,401,131,96,45,44.194165,12.128125
FORLI`,Thu,4.246024321796071,1.0,91,1069,385,288,162,44.22413,12.054871
FOSSATO DI VICO GUBBIO,Thu,2.8859315589353614,1.0,22,263,71,48,20,43.283798,12.757258
FRANCAVILLA FONTANA,Thu,2.2857142857142856,1.0,21,245,54,30,11,40.523145,17.584714
FRATTE,Thu,1.3970037453183521,1.0,26,267,42,17,5,40.705637,14.778362
GALATI,Thu,1.2421383647798743,1.0,25,318,35,14,6,38.104511,15.505313
GAVORRANO,Thu,2.2842105263157895,1.0,15,190,46,30,9,42.947959,10.9338
GAZZADA SCHIANNO MORAZZONE,Thu,3.774154589371981,2.0,69,828,221,137,53,45.77862,8.824815
GEMONA DEL FRIULI,Thu,0.7295373665480427,1.0,22,281,25,12,2,46.274243,13.127978
GENGA S.VITTORE TERME,Thu,2.64021164021164,1.0,30,378,95,48,17,43.403011,12.977163
GENOVA ACQUASANTA,Thu,4.715753424657534,3.0,23,292,141,102,37,44.458757,8.773197
GENOVA PONTEDECIMO,Thu,0.3966565349544073,-1.0,53,658,57,24,5,44.494189,8.905642
GENOVA RIVAROLO,Thu,1.5911854103343466,1.0,53,658,92,43,8,44.435955,8.89106
GENOVA STURLA,Thu,8.428571428571429,9.0,6,7,6,6,1,44.397977,8.981466
GENOVA VOLTRI,Thu,0.11191335740072202,-1.0,111,1385,161,85,25,44.428467,8.758163
GIAROLE,Thu,2.6257861635220126,2.0,25,318,79,46,13,45.056125,8.5609
GINOSA,Thu,2.546666666666667,2.0,6,75,18,7,4,40.429201,16.890968
GIOIA DEL COLLE,Thu,1.0437636761487965,-1.0,40,457,50,30,15,40.796983,16.916569
GIOIOSA JONICA,Thu,3.050880626223092,2.0,42,511,161,106,40,38.300812,16.332501
GOLFO ARANCI,Thu,-1.5692307692307692,-2.0,5,65,1,1,0,40.997261,9.62471
GORGO AL MONTICANO,Thu,2.3074074074074074,1.0,22,270,48,17,5,45.784444,12.553737
GORIANO SICOLI,Thu,4.043478260869565,1.0,8,46,15,12,8,42.082698,13.78286
GOZZANO,Thu,2.5359116022099446,1.0,14,181,56,35,11,45.741039,8.438726
GRANAROLO,Thu,3.217391304347826,2.0,13,161,41,25,10,44.357356,11.937441
GRASSANO,Thu,4.902439024390244,2.0,10,123,43,24,14,40.593317,16.241049
GRAVELLONA TOCE,Thu,2.088397790055249,1.0,14,181,45,25,4,45.934051,8.428346
GRIZZANA,Thu,1.8866906474820144,1.0,50,556,101,41,8,44.258292,11.181194
GROTTE S.STEFANO,Thu,1.8478260869565217,1.0,18,230,39,22,4,42.51512,12.169372
GRUMO APPULA,Thu,2.6825396825396823,1.0,31,378,37,15,7,41.01199,16.718777
GUALTIERI,Thu,-0.9090909090909091,-2.0,25,242,10,7,3,,
GUIDONIA-MONTECELIO-S.ANGELO,Thu,2.2569060773480665,2.0,59,724,192,65,13,41.993405,12.725681
IMOLA,Thu,5.294941634241245,3.0,105,1285,559,397,164,44.359418,11.718723
INCISA,Thu,2.3523809523809525,2.0,66,840,217,96,35,43.656541,11.452728
INDUNO OLONA,Thu,3.4049429657794676,2.0,85,1052,292,139,37,45.846432,8.838357
IPOGEO DEGLI OTTAVI,Thu,2.327597617471873,2.0,143,1511,335,99,10,41.968391,12.409026
ISOLA CAPO RIZZUTO,Thu,18.0,18.0,1,1,1,1,1,39.043084,17.071764
IVREA,Thu,2.5731225296442686,2.0,40,506,139,70,25,45.461542,7.876348
JESI,Thu,1.608130081300813,-1.0,50,615,92,53,29,43.520164,13.251316
LAMA DI RENO,Thu,3.485273492286115,2.0,58,713,165,48,19,44.363501,11.216168
LAMEZIA TERME CENTRALE,Thu,1.2462203023758098,-1.0,86,926,179,121,69,38.921347,16.255577
LAMEZIA TERME NICASTRO,Thu,2.0594900849858355,1.0,29,353,75,28,5,38.966779,16.320043
LANCENIGO,Thu,17.0,17.0,1,1,1,1,1,45.710087,12.265663
LECCO,Thu,2.8011283497884345,1.0,117,1418,399,235,87,45.856471,9.393638
LECCO MAGGIANICO,Thu,2.438964241676942,2.0,68,811,225,134,37,45.831179,9.411691
LESA,Thu,6.786096256684492,4.0,15,187,101,71,39,45.833042,8.566471
LICATA,Thu,6.317460317460317,5.0,6,63,41,28,5,37.106024,13.938114
LIDO DI LAVINIO,Thu,2.125,1.0,42,536,87,35,10,41.500599,12.625926
LIVORNO FERRARIS,Thu,1.8753387533875339,1.0,29,369,82,43,17,45.283402,8.073493
LOANO,Thu,3.012924071082391,2.0,50,619,236,132,29,44.122429,8.254523
LOLLI,Thu,1.5046535677352637,1.0,77,967,65,19,9,,
LUGO,Thu,6.460038986354776,4.0,42,513,287,195,84,44.414106,11.914723
LUNI,Thu,11.666666666666666,9.0,1,3,2,2,1,,
LUZZARA,Thu,-0.0782608695652174,0.0,24,230,8,4,1,,
L`AQUILA,Thu,0.39403973509933776,0.0,24,302,33,14,4,42.351055,13.384959
MAERNE DI MARTELLAGO,Thu,2.627329192546584,2.0,63,805,180,67,27,45.514799,12.150629
MAGENTA,Thu,2.7030075187969924,2.0,105,1330,369,166,47,45.468204,8.880633
MAGIONE,Thu,2.0890207715133533,2.0,27,337,99,47,11,43.137356,12.202238
MALEO,Thu,6.048387096774194,4.0,5,62,36,24,5,45.170118,9.755201
MANAROLA,Thu,10.133333333333333,11.0,13,15,15,12,9,44.109904,9.727401
MANDELA-SAMBUCI,Thu,1.6485714285714286,1.0,29,350,80,32,7,42.016212,12.921976
MANTOVA FRASSINE,Thu,0.7378640776699029,0.0,16,206,18,7,4,45.150491,10.831007
MARANO,Thu,3.4761904761904763,3.0,34,420,154,47,11,45.706864,11.4246
MARANO TICINO,Thu,2.64804469273743,2.0,14,179,40,12,4,45.629485,8.626172
MARAUSA,Thu,0.1890547263681592,-1.0,16,201,16,8,2,37.92647,12.504113
MARCARIA,Thu,6.958083832335329,5.0,26,334,193,147,66,45.124518,10.533651
MARCELLINA VERBICARO ORSOMARSO,Thu,3.291079812206573,1.0,17,213,56,39,19,39.766974,15.822665
MARECHIARO,Thu,0.289738430583501,0.0,39,497,32,15,4,41.470762,12.6123
MARIANO COMENSE,Thu,0.0018796992481203006,0.0,44,532,0,0,0,45.693622,9.18147
MARINELLA,Thu,1.1692307692307693,1.0,10,130,11,2,0,40.999129,9.55362
MARRADI,Thu,4.175,3.0,19,240,113,51,15,44.07973,11.619174
MARSALA,Thu,1.202572347266881,1.0,25,311,58,28,10,37.793514,12.443174
MARZABOTTO,Thu,2.92914653784219,2.0,50,621,106,35,15,44.341237,11.207351
MARZOCCA,Thu,7.666666666666667,7.0,3,3,3,3,0,43.677362,13.287922
MASSAROSA BOZZANO,Thu,1.7364016736401673,2.0,20,239,41,9,1,43.855652,10.352022
MEDESANO,Thu,6.375,3.0,2,24,11,9,3,44.749265,10.140335
MESSINA MARITTIMA,Thu,16.451612903225808,5.0,7,31,19,15,14,38.14988,15.534997
MEZZANI RONDANI,Thu,5.727536231884058,4.0,28,345,202,126,34,44.966764,10.398818
MIGLIARINO,Thu,1.509090909090909,1.0,18,165,19,8,2,,
MILANO CENTRALE,Thu,4.201567144015131,2.0,318,3701,1378,873,404,45.486347,9.204528
MILANO ROGOREDO,Thu,2.6526156506701253,1.0,384,4626,1413,850,306,45.433866,9.2391
MIRAMARE,Thu,1.2579710144927536,1.0,27,345,73,31,7,,
MODANE,Thu,8.333333333333334,1.0,4,12,5,5,4,,
MODENA PIAZZA MANZONI,Thu,0.25405405405405407,0.0,40,370,11,5,4,,
MOIANA,Thu,2.407608695652174,2.0,15,184,33,12,2,45.787082,9.255607
MOLA DI BARI,Thu,2.138024357239513,1.0,61,739,151,80,28,41.057227,17.080919
MOLFETTA,Thu,2.8849085365853657,2.0,106,1312,376,218,75,41.196008,16.596793
MOLINA CASTEL VECCHIO SUBAQUEO,Thu,2.0930232558139537,2.0,24,301,73,37,4,42.143476,13.739644
MONGARDINO,Thu,1.2756756756756757,1.0,16,185,11,3,1,44.84161,8.207411
MONTALTO DI CASTRO,Thu,1.4212328767123288,-1.0,23,292,60,37,13,42.334623,11.595085
MONTECATINI CENTRO,Thu,7.898251192368839,7.0,52,629,526,412,161,43.881216,10.77081
MONTECHIARO DENICE,Thu,3.686635944700461,3.0,17,217,93,52,10,44.600827,8.352185
MONTEGROSSO,Thu,0.7253886010362695,0.0,16,193,13,5,1,44.818465,8.239171
MONTELUPO CAPRAIA,Thu,6.65,6.0,17,20,16,11,3,43.733357,11.018997
MONTEPESCALI,Thu,2.57742782152231,1.0,30,381,98,57,20,42.869518,11.068743
MONTEPULCIANO,Thu,2.4261168384879723,2.0,23,291,88,31,5,43.135353,11.856865
MONTEROTONDO,Thu,0.12636305323925592,0.0,129,1559,60,25,11,42.06409,12.595753
MONTEVARCHI TERRANUOVA,Thu,2.6770740410347904,2.0,89,1121,329,175,60,43.525165,11.563983
MONTI TELTI,Thu,1.45,2.0,8,100,18,8,3,40.829632,9.322814
MORBEGNO,Thu,4.383419689119171,3.0,46,579,263,137,45,46.136663,9.568646
MORENGO BARIANO,Thu,10.333333333333334,10.0,2,3,3,3,1,45.521639,9.703114
MOTTA S. DAMIANO,Thu,2.5072992700729926,1.0,22,274,72,33,11,45.178344,9.219866
MOZZECANE,Thu,1.8558558558558558,2.0,26,333,80,29,7,45.306687,10.823657
MURATELLA,Thu,2.6927631578947366,2.0,125,1520,345,103,23,41.826182,12.412696
NAPOLI MERGELLINA,Thu,4.9,2.0,9,10,5,4,2,40.831531,14.218662
NAPOLI MONTESANTO,Thu,4.0,2.0,6,6,3,2,0,40.847807,14.244022
NAPOLI PIAZZA GARIBALDI,Thu,7.0,7.0,13,13,10,8,3,40.852326,14.275159
NAPOLI PIAZZA LEOPARDI,Thu,0.6792168674698795,0.0,225,2656,251,135,46,40.82397,14.199117
NARNI AMELIA,Thu,2.0,0.0,2,3,1,1,0,42.53128,12.519592
NOCERA SUPERIORE,Thu,2.4328678839957036,2.0,81,931,195,94,29,40.742597,14.672398
NOGARA,Thu,2.695906432748538,2.0,40,513,168,99,31,45.179937,11.070572
NOLA,Thu,5.207207207207207,4.0,26,333,189,92,30,40.923652,14.525004
NOTARESCO,Thu,3.9936708860759493,2.0,13,158,74,74,4,42.706502,13.876365
NOVARA,Thu,2.0765124555160144,1.0,136,1686,421,197,70,45.451376,8.624895
OLEGGIO,Thu,2.9385474860335195,3.0,14,179,59,21,4,45.598029,8.632586
OLMENETA,Thu,2.650717703349282,1.0,66,836,227,147,49,45.231099,10.03194
ORA,Thu,8.033333333333333,7.0,23,30,25,21,8,46.36092,11.296781
ORDONA,Thu,3.107843137254902,2.0,8,102,38,17,4,41.315006,15.620567
ORIA,Thu,2.033980582524272,1.0,16,206,44,19,7,40.508167,17.646534
ORIOLO,Thu,2.62363238512035,2.0,49,457,148,52,8,42.166825,12.138499
ORTONA,Thu,2.5160142348754446,1.0,22,281,71,37,15,42.354196,14.407698
OSIMO CASTELFIDARDO,Thu,33.0,33.0,1,1,1,1,1,43.497033,13.547263
OSPEDALETTO EUGANEO,Thu,2.200589970501475,1.0,27,339,59,26,11,45.221706,11.606553
OSPITALETTO MANTOVANO,Thu,7.602564102564102,5.0,6,78,52,39,16,45.129748,10.604406
OSPITALETTO TRAVAGLIATO,Thu,1.7352185089974292,1.0,62,778,135,70,19,45.546042,10.074363
OZZANO DELL'EMILIA,Thu,6.219761499148211,5.0,48,587,390,241,80,44.450797,11.487297
PADIGLIONE,Thu,0.4990892531876138,0.0,43,549,73,32,9,41.513518,12.629476
PADOVA,Thu,1.2137449039021548,0.0,289,3434,568,337,149,45.417846,11.880794
PAESE CASTAGNOLE,Thu,3.2866449511400653,2.0,40,307,72,25,9,45.691182,12.182619
PAESTUM,Thu,11.0,11.0,1,1,1,1,1,40.421691,15.014915
PAGANICA,Thu,0.9536423841059603,1.0,24,302,26,12,2,42.334751,13.464317
PALAZZO REALE-ORLEANS,Thu,-0.1349124613800206,-1.0,77,971,28,10,7,38.10878,13.353962
PALAZZOLO VERCELLESE,Thu,4.090379008746356,3.0,27,343,147,74,26,45.189004,8.232787
PALERMO BRANCACCIO,Thu,0.6228070175438597,0.0,36,456,31,9,2,38.093141,13.392508
PALESTRO,Thu,3.767123287671233,2.0,16,146,51,26,8,45.307274,8.534511
PALIZZI,Thu,1.8366013071895424,2.0,13,153,40,19,6,37.91881,15.986405
PALLANZENO,Thu,3.2987012987012987,2.0,12,154,41,20,8,46.043533,8.260645
PALMANOVA,Thu,1.5669781931464175,1.0,26,321,51,23,4,45.906862,13.296461
PANTANELLA,Thu,3.3455882352941178,3.0,32,408,204,77,4,,
PARGHELIA,Thu,3.5977653631284916,3.0,14,179,88,32,1,38.683341,15.925042
PATTI-SAN PIERO PATTI,Thu,2.1053459119496853,1.0,56,636,149,89,40,38.146905,14.975331
PAVIA,Thu,3.6161891768985903,3.0,177,2199,876,552,141,45.188843,9.144674
PAVIA PORTA GARIBALDI,Thu,4.875912408759124,4.0,22,274,138,66,14,45.183996,9.167331
PELLEZZANO,Thu,2.388059701492537,1.0,26,268,82,44,8,40.719928,14.777354
PESCARA S. MARCO,Thu,-0.3595890410958904,0.0,23,292,143,48,4,42.44613,14.208981
PIANO D`ORTA BOLOGNANO,Thu,4.655555555555556,4.0,7,90,65,26,1,42.254455,13.951514
PIANO ORIZZONTALE DEI GIOVI,Thu,9.0,9.0,1,1,1,1,0,44.530912,8.9192
PIANORO,Thu,0.5076142131979695,0.0,54,591,50,26,7,44.380589,11.340675
PIETRAGALLA,Thu,2.8700906344410875,2.0,26,331,94,46,4,40.753314,15.79211
PIEVE EMANUELE,Thu,9.333333333333334,11.0,3,3,3,2,2,,
PINETO ATRI,Thu,2.185580774365821,2.0,60,749,193,96,17,42.607736,14.069072
PISA SAN ROSSORE,Thu,2.6636363636363636,2.0,130,1540,401,211,51,43.723702,10.387363
PIZZO,Thu,2.9720670391061454,2.0,14,179,62,29,1,38.726323,16.150615
POCAPAGLIA,Thu,1.164021164021164,0.0,15,189,22,12,3,44.701066,7.892496
POGGIO RENATICO,Thu,3.984126984126984,2.0,36,441,168,94,38,44.767292,11.483701
POLESELLA,Thu,3.125,2.0,10,128,33,16,6,44.961039,11.738498
PONTE GALERIA,Thu,2.094437257438551,2.0,127,1546,229,69,20,41.818349,12.344733
PONTE IN VALTELLINA,Thu,1.7183098591549295,1.0,10,71,9,5,3,46.162631,9.975895
PONTELAGOSCURO,Thu,3.8671875,2.0,10,128,47,28,9,44.873216,11.612526
PONTELAMBRO - CASTELMARTE,Thu,0.011869436201780416,0.0,28,337,0,0,0,,
POPOLANO,Thu,7.076923076923077,5.0,2,26,19,9,2,44.102323,11.649045
PORTO DI VASTO,Thu,2.0531914893617023,1.0,22,282,55,25,8,42.167774,14.698057
PORTO RECANATI,Thu,10.0,10.0,1,1,1,1,0,43.433726,13.661464
PORTO TORRES,Thu,0.13385826771653545,-1.0,10,127,9,2,0,40.833045,8.39642
POSSIDENTE,Thu,2.8202247191011236,2.0,28,356,98,41,5,40.781144,15.777104
POTENZA MACCHIA ROMANA,Thu,2.7761627906976742,3.0,27,344,84,14,2,,
POZZUOLO MARTESANA,Thu,11.0,3.0,2,2,1,1,1,45.510567,9.459096
PRACCHIA,Thu,0.4797297297297297,0.0,12,148,3,1,1,44.05479,10.90691
PRATO PORTA AL SERRAGLIO,Thu,3.0,2.0,2,2,1,0,0,43.884637,11.097385
PREGNANA MILANESE,Thu,7.777777777777778,8.0,16,18,15,12,3,45.511868,9.003943
PUNTA RAISI,Thu,1.0926724137931034,1.0,37,464,43,8,2,38.188892,13.110059
QUARTESANA,Thu,0.30303030303030304,0.0,18,165,11,9,3,,
QUATTRO VILLE,Thu,0.7429340511440108,1.0,59,743,62,31,10,,
RACCONIGI,Thu,1.5883424408014573,1.0,43,549,76,30,10,44.771179,7.685681
RAGUSA,Thu,1.8909090909090909,0.0,16,165,46,29,11,36.91927,14.725677
RAGUSA IBLA,Thu,-1.0,-1.0,1,1,0,0,0,36.93133,14.750993
RECCO,Thu,1.9839034205231387,1.0,78,994,244,154,52,44.361215,9.146788
REGGIO CALABRIA LIDO,Thu,3.0,3.0,1,1,0,0,0,38.117668,15.649171
REGGIO EMILIA,Thu,4.617233294255569,3.0,157,1706,716,491,194,44.697793,10.643093
RESCALDINA,Thu,0.8260233918128655,0.0,55,684,54,12,6,,
RIMINI VISERBA,Thu,3.484931506849315,1.0,31,365,72,54,38,44.088407,12.533785
RIOLA,Thu,2.6583969465648853,1.0,42,524,87,38,13,44.229851,11.053592
RIOMAGGIORE,Thu,6.6,7.0,5,5,4,4,0,44.105203,9.729105
RIONERO ATELLA RIPACANDITA,Thu,2.707865168539326,2.0,28,356,140,68,6,40.922066,15.678699
ROBECCO-PONTEVICO,Thu,2.36272040302267,2.0,31,397,126,60,11,45.266224,10.078593
ROCCA DI FONDI,Thu,1.3707865168539326,1.0,14,178,28,11,3,42.39799,13.095825
ROCCHETTA S.ANT.LAC.,Thu,0.40625,1.0,5,64,17,9,1,41.1518,15.53295
ROMA S.PIETRO,Thu,0.7727882037533512,0.0,261,2984,354,137,44,41.896143,12.454497
ROMA TIBURTINA,Thu,1.071022024251423,-1.0,354,4041,718,470,206,41.910903,12.530749
ROMAGNANO V.,Thu,3.8260869565217392,3.0,2,23,10,6,1,40.610041,15.447651
RONCO SCR.,Thu,2.0313174946004318,1.0,75,926,215,126,44,44.614537,8.949421
RONTA,Thu,3.6458333333333335,3.0,19,240,90,45,15,44.009432,11.434125
ROSETO DEGLI ABRUZZI,Thu,2.568758344459279,2.0,59,749,222,129,18,42.677852,14.01535
ROSOLINI,Thu,1.76,0.0,14,150,33,24,14,36.81598,14.952955
ROVIANO,Thu,0.6238938053097345,0.0,19,226,33,13,5,42.026476,12.991119
S. DONA` DI PIAVE,Thu,1.9691358024691359,1.0,80,972,183,94,27,45.63983,12.559791
S. GERMANO VERCELLESE,Thu,2.8459214501510575,1.0,26,331,70,33,14,45.353603,8.249958
S. GIULIANO MILANESE,Thu,0.9521829521829522,0.0,40,481,87,48,8,45.391226,9.286418
S. MARIA DELLE MOLE,Thu,5.311643835616438,4.0,51,584,328,153,46,41.774417,12.606225
S. VINCENZO,Thu,2.5764462809917354,1.0,41,484,134,90,27,43.100366,10.539823
S.ANTIMO S.ARPINO,Thu,5.666666666666667,5.0,3,3,2,1,0,40.949188,14.247415
S.CRISTOFORO AL LAGO-ISCHIA,Thu,3.7853658536585364,3.0,16,205,91,50,4,46.039743,11.23375
S.ELENA - ESTE,Thu,2.256666666666667,1.0,24,300,91,45,8,45.199209,11.712883
S.GIORGIO P.,Thu,3.5164835164835164,2.0,44,546,187,112,35,44.646641,11.37901
S.GIULIANO TERME,Thu,1.2149791955617197,1.0,57,721,113,57,10,43.764895,10.436892
S.GIUSTINA CESIO,Thu,0.5431754874651811,0.0,46,359,20,10,5,46.077655,12.04294
S.LUCIDO MARINA,Thu,1.75,1.0,4,48,5,4,3,39.313203,16.045546
S.MARCELLINO FRIGNANO,Thu,3.783244680851064,2.0,62,752,221,166,83,40.992103,14.171976
S.MARCO ROGGIANO,Thu,-0.6337209302325582,-1.0,14,172,15,5,0,39.605223,16.208776
S.MARINO,Thu,2.2290502793296088,2.0,14,179,35,10,0,45.897699,11.692241
S.MARTINO IN GATTARA,Thu,5.333333333333333,4.0,16,201,133,70,11,44.113211,11.667077
S.MINIATO FUCECCHIO,Thu,9.714285714285714,8.0,11,14,10,9,6,43.701383,10.831605
S.PATRIZIO,Thu,5.96,4.0,4,50,29,21,9,,
S.PIERO A SIEVE,Thu,2.0284552845528454,1.0,39,492,90,48,14,43.958317,11.322742
S.PIETRO IN GU`,Thu,2.7964071856287425,2.0,26,334,66,21,9,45.605039,11.673157
SACILE,Thu,0.3898128898128898,-1.0,84,962,106,61,16,45.948413,12.498498
SAGRADO,Thu,2.1236749116607774,1.0,45,566,110,48,17,45.872629,13.484004
SALBERTRAND,Thu,2.0022935779816513,1.0,35,436,66,37,13,45.073478,6.887428
SALEMI GIBELLINA,Thu,3.0675675675675675,2.0,12,148,32,21,9,37.806619,12.865517
SALINE DI REGGIO,Thu,1.6004140786749483,1.0,40,483,48,21,5,37.938677,15.710664
SAN GIORGIO,Thu,2.5708955223880596,1.0,21,268,59,38,8,38.173967,14.94414
SAN GIOVANNI IN PERSICETO,Thu,2.6021634615384617,2.0,66,832,266,164,60,44.643151,11.189444
SAN SEVERO,Thu,2.5703971119133575,1.0,24,277,94,64,21,41.684512,15.392567
SANFRE`,Thu,1.9640287769784173,1.0,33,417,83,42,10,44.74799,7.796793
SANREMO,Thu,11.333333333333334,10.0,6,9,8,7,4,43.821269,7.766693
SANTA MARINELLA,Thu,1.3046286329386436,1.0,73,929,115,54,17,42.035892,11.863122
SANTARCANGELO DI ROMAGNA,Thu,2.986772486772487,1.0,30,378,87,58,30,44.070316,12.45454
SANTO STEFANO DI CAMASTRA,Thu,1.193298969072165,-1.0,34,388,62,46,19,38.01778,14.35104
SARNO,Thu,4.471471471471472,3.0,26,333,144,93,23,40.813063,14.612442
SARONNO SUD,Thu,0.3347406513872135,0.0,132,1658,87,27,7,,
SASSARI,Thu,1.2819148936170213,1.0,15,188,32,14,6,40.729506,8.554157
SCHIO,Thu,-2.0784313725490198,-3.0,16,204,10,9,2,45.710848,11.355508
SEDICO BRIBANO,Thu,0.6452513966480447,0.0,46,358,17,10,5,46.095424,12.086508
SERENELLA,Thu,3.1971830985915495,3.0,31,355,121,38,4,,
SERMIDE,Thu,3.886904761904762,2.0,17,168,62,39,13,,
SERRADIFALCO,Thu,-2.0588235294117645,-2.0,4,51,0,0,0,37.431804,13.883299
SERRAVALLE PISTOIESE,Thu,4.435424354243542,3.0,22,271,129,80,31,43.908016,10.85168
SESSA AURUNCA R.,Thu,3.874493927125506,2.0,41,494,166,121,47,41.1955,13.8761
SESTO CALENDE,Thu,4.510500807754442,2.0,59,619,233,153,48,45.726241,8.628135
SETTIMO,Thu,2.5160575858250276,2.0,71,903,231,102,12,45.139834,7.769335
SETTIMO TAVAGNASCO,Thu,71.0,71.0,1,1,1,1,1,45.546214,7.825189
SEZZE ROMANO,Thu,2.389751552795031,1.0,53,644,152,97,38,41.495542,13.038452
SIDERNO,Thu,3.416829745596869,2.0,42,511,185,104,42,38.2708,16.302
SIECI,Thu,4.84,4.0,36,50,27,19,2,43.790892,11.394608
SILIQUA,Thu,0.03125,-1.0,45,480,26,13,6,39.297005,8.813078
SINALUNGA,Thu,2.3651315789473686,2.0,24,304,89,29,4,43.216189,11.744866
SOLAGNA,Thu,2.558659217877095,3.0,14,179,45,6,1,45.815434,11.72134
SOLERO,Thu,2.437125748502994,2.0,13,167,39,19,4,44.915886,8.51043
SOMMA LOMBARDO,Thu,4.189873417721519,3.0,32,395,165,109,25,45.686423,8.712991
SORESINA,Thu,5.555555555555555,4.0,35,441,222,158,58,45.283083,9.85664
SORGENTI DEL PESCHIERA,Thu,7.0,7.0,4,52,48,34,6,42.36428,12.996973
SOVERATO,Thu,3.822289156626506,3.0,26,332,137,76,26,38.684339,16.549416
SPIGNO,Thu,4.271889400921659,4.0,17,217,121,67,8,44.539437,8.317924
SPRESIANO,Thu,1.4536376604850214,1.0,59,701,104,49,12,45.77763,12.266984
SQUINZANO,Thu,1.6514423076923077,1.0,36,416,73,39,9,40.439266,18.046097
STAZIONE PER L`ALPAGO,Thu,2.125766871165644,2.0,28,326,54,20,6,46.137574,12.316066
STRADA CASALE,Thu,6.594594594594595,5.0,3,37,23,15,4,44.183511,11.697496
TALAMONA,Thu,4.189723320158103,3.0,20,253,110,63,14,46.13952,9.599528
TARQUINIA,Thu,1.871069182389937,1.0,25,318,57,38,14,42.239463,11.727009
TARVISIO BOSCOVERDE,Thu,4.913043478260869,0.0,5,46,12,9,4,46.505956,13.608012
TEANO,Thu,2.5123042505592843,1.0,38,447,110,63,24,41.231804,14.077075
TERLANO-ANDRIANO,Thu,3.491007194244604,3.0,44,556,266,104,4,46.528517,11.248394
TERNATE VARANO BORGHI,Thu,3.472934472934473,2.0,29,351,106,68,25,45.781835,8.700371
TERONTOLA CORTONA,Thu,3.967157417893545,3.0,77,883,363,200,73,43.210263,12.007906
TIRANO,Thu,1.1731843575418994,-1.0,14,179,30,19,15,46.21539,10.166961
TOLLO CANOSA SANNITA,Thu,5.5,2.0,3,4,2,1,1,42.394208,14.339984
TORA PRESENZANO,Thu,4.056390977443609,3.0,22,266,114,56,17,41.358861,14.04514
TORINO LINGOTTO,Thu,1.1786137440758293,1.0,274,3376,548,228,62,45.0266,7.657469
TORRE ANNUNZIATA CENTRALE,Thu,2.169512195121951,1.0,75,820,158,75,30,40.747131,14.463744
TORRE DEL LAGO PUCCINI,Thu,3.0892857142857144,2.0,43,504,161,90,17,43.826501,10.290287
TORRE DE` PICENARDI,Thu,5.0576923076923075,3.0,8,104,48,34,14,45.137198,10.286849
TORRICOLA,Thu,1.7562254259501966,1.0,60,763,140,67,16,41.809538,12.557716
TORTONA,Thu,3.9149198520345254,2.0,67,811,301,182,63,44.900126,8.861777
TRAVEDONA BIANDRONNO,Thu,4.539823008849558,3.0,28,339,135,80,26,45.809601,8.696322
TRECELLA,Thu,8.0,4.0,2,2,2,1,1,45.512792,9.480674
URAS MOGORO,Thu,2.3065134099616857,1.0,21,261,67,29,7,39.692629,8.696459
VADA,Thu,3.811158798283262,2.0,21,233,91,48,13,43.352641,10.470376
VAGLIA,Thu,1.7285714285714286,1.0,39,490,103,50,16,43.924442,11.284576
VAIANO,Thu,0.9935622317596566,1.0,42,466,51,26,4,43.961772,11.130773
VALLECROSIA,Thu,10.5,10.0,2,2,2,2,1,43.787619,7.634997
VALMADRERA,Thu,2.375494071146245,1.0,41,506,130,69,19,45.846439,9.368183
VAPRIO D`AGOGNA,Thu,5.75,4.0,5,64,34,17,8,45.599085,8.536862
VASTO S.SALVO,Thu,3.2698412698412698,2.0,30,378,112,70,28,42.079832,14.739483
VENAFRO,Thu,-2.342391304347826,-3.0,15,184,19,13,4,41.482975,14.048722
VENEZIA MESTRE,Thu,1.2251275510204083,1.0,517,6272,824,417,192,45.482123,12.232069
VENEZIA PORTO MARGHERA,Thu,6.694915254237288,5.0,39,59,51,25,8,45.472381,12.256536
VENEZIA SANTA LUCIA,Thu,1.2173629242819843,0.0,254,3064,401,200,105,45.441569,12.320882
VENTIMIGLIA,Thu,1.888586956521739,0.0,32,368,85,61,29,43.792561,7.610224
VERBANIA-PALLANZA,Thu,3.7824074074074074,1.0,43,432,112,75,38,45.943821,8.47224
VERONA PORTA NUOVA,Thu,2.1087274500243782,1.0,167,2051,599,378,151,45.428603,10.982377
VERRES,Thu,2.664383561643836,1.0,35,438,121,80,30,45.659822,7.690012
VESPOLATE,Thu,2.339622641509434,2.0,21,265,49,22,6,45.351517,8.671947
VIGEVANO,Thu,3.0813148788927336,2.0,46,578,195,103,31,45.312712,8.861977
VIGNALE,Thu,2.247191011235955,1.0,14,178,44,19,3,45.478989,8.613132
VILLA DI TIRANO,Thu,1.2156862745098038,1.0,4,51,3,3,1,46.196164,10.13033
VILLA LITERNO,Thu,2.6112224448897794,2.0,82,998,215,101,47,41.004956,14.06753
VILLADOSSOLA,Thu,1.8342541436464088,1.0,14,181,29,15,6,46.064151,8.264675
VILLAMASSARGIA DOMUSNOVAS,Thu,-1.223201174743025,-2.0,61,681,17,15,8,39.294811,8.641986
VILLAVERLA MONTECCHIO,Thu,4.130641330166271,4.0,34,421,233,73,9,45.656998,11.524271
VILLETTA MALAGNINO,Thu,3.673076923076923,2.0,8,104,36,17,8,45.137019,10.111943
VITERBO PORTA ROMANA,Thu,-0.25595238095238093,-1.0,37,336,18,10,1,42.411974,12.110482
ABBASANTA,Thu,1.6363636363636365,0.0,17,209,36,28,13,40.128801,8.817733
ACATE,Thu,-0.7,-1.0,4,40,2,0,0,36.996592,14.42545
ACCIANO,Thu,7.411764705882353,7.0,4,51,51,39,5,42.175994,13.711345
ACERRA,Thu,2.8657074340527577,2.0,68,834,253,126,34,40.939066,14.372243
ACQUA ACETOSA,Thu,3.2622549019607843,3.0,32,408,143,46,6,41.794294,12.616449
ACQUEDOLCI-S.FRATELLO,Thu,0.2268041237113402,0.0,15,194,15,11,4,38.058459,14.587597
ADRIA,Thu,1.141732283464567,-1.0,11,127,23,15,7,45.06058,12.054228
AGLIANO CASTELNUOVO CALCEA,Thu,0.7755102040816326,0.0,16,196,14,6,1,44.786108,8.267723
AGROPOLI CASTELLABATE,Thu,4.165009940357853,2.0,42,503,171,125,64,40.351521,15.002053
AIRUNO,Thu,3.4344660194174756,2.0,68,824,246,156,47,45.754086,9.422066
ALA,Thu,4.02710027100271,3.0,58,738,324,224,66,45.760087,10.996775
ALBAIRATE VERMEZZO,Thu,1.2246376811594204,0.0,77,966,188,112,49,,
ALBANOVA,Thu,10.5,8.0,2,2,2,2,1,40.996117,14.128596
ALBIZZATE SOLBIATE ARNO,Thu,2.898916967509025,1.0,69,831,255,161,72,45.724117,8.80621
ALBONESE,Thu,3.1245283018867926,2.0,21,265,77,32,8,45.297785,8.714601
ALBUZZANO,Thu,3.9197080291970803,2.0,22,274,87,51,14,45.172504,9.261624
ALCANTARA,Thu,2.16289592760181,1.0,38,442,115,62,27,37.82145,15.251158
ALTAVILLA TAVERNELLE,Thu,4.486910994764398,2.0,34,382,153,103,40,45.511805,11.454702
ANCONA TORRETTE,Thu,5.0,5.0,1,1,1,0,0,43.609936,13.455777
ANZIO,Thu,1.5842696629213484,2.0,42,534,48,19,5,41.4532,12.633205
AOSTA,Thu,3.8059701492537314,2.0,21,268,101,50,21,45.73407,7.322424
APRILIA,Thu,2.4804270462633453,2.0,44,562,139,57,15,41.592386,12.639126
ARAGONA CALDARE,Thu,1.4884259259259258,1.0,34,432,74,38,10,37.381097,13.636837
ARCISATE,Thu,2.8401522359657467,2.0,85,1051,206,113,36,45.858579,8.86241
ARIANO IRPINO,Thu,-0.16,-2.0,3,25,6,5,1,41.181883,15.117508
ASOLA,Thu,8.138709677419355,6.0,25,310,232,169,44,45.220454,10.402313
ASSEMINI CARMINE,Thu,0.07624633431085044,-1.0,34,341,21,4,1,,
AVEZZANO,Thu,0.8509316770186336,0.0,28,322,54,30,13,42.039495,13.426446
AVIANO,Thu,-0.2619047619047619,-1.0,14,168,0,0,0,46.064362,12.590686
AVIGLIANO LUCANIA,Thu,0.9244712990936556,1.0,26,331,36,14,1,40.714667,15.785619
AVOLA,Thu,2.5294117647058822,1.0,16,170,33,24,13,36.907434,15.125733
BAGHERIA,Thu,0.5246679316888045,0.0,83,1054,74,31,14,38.089905,13.507215
BAGNI DI LUCCA,Thu,2.6052631578947367,2.0,27,342,95,44,8,44.003447,10.551631
BAGNOLI AGNANO TERME,Thu,-0.045,-1.0,179,1000,52,25,8,40.819444,14.166694
BAGNOLO MELLA,Thu,2.3585858585858586,2.0,31,396,85,29,5,45.428532,10.183617
BALDICHIERI,Thu,2.5960591133004924,2.0,32,406,91,52,5,44.899204,8.091198
BALVANO R.,Thu,2.8333333333333335,2.0,2,24,9,6,1,40.649993,15.495304
BALZOLA,Thu,3.1627906976744184,1.0,27,344,92,57,19,45.173985,8.402174
BARCO,Thu,0.08333333333333333,0.0,20,192,20,9,1,,
BARDONECCHIA,Thu,1.3849372384937237,0.0,20,239,42,27,14,45.076447,6.709959
BARGA GALLICANO,Thu,3.8515151515151516,3.0,26,330,155,77,5,44.068114,10.451938
BARI PALESE MACCHIE,Thu,1.0,1.0,1,1,0,0,0,41.151583,16.766902
BARLETTA,Thu,4.249269005847953,2.0,117,1368,426,285,131,41.315227,16.278867
BASILIANO,Thu,1.8385416666666667,2.0,32,384,55,21,4,46.012737,13.109233
BASTIA,Thu,3.645228215767635,3.0,39,482,202,104,17,43.07133,12.547735
BAVENO,Thu,4.4526315789473685,2.0,15,190,66,38,19,45.909105,8.502121
BAZZANA,Thu,0.7193877551020408,0.0,16,196,14,5,1,44.777094,8.401557
BELLA MURO,Thu,4.567164179104478,2.0,17,201,83,50,26,40.700914,15.542936
BERCETO,Thu,2.7267206477732793,2.0,42,494,167,107,26,44.555912,9.931759
BESANA,Thu,2.6195426195426195,2.0,39,481,149,74,11,45.702824,9.28288
BESNATE,Thu,3.6323529411764706,2.0,28,340,107,54,23,45.695409,8.761072
BIANZONE,Thu,1.1875,1.0,5,64,5,4,2,46.179383,10.112507
BOGLIASCO,Thu,0.5,0.0,2,2,0,0,0,44.379207,9.066042
BOLOGNA C.LE/AV,Thu,2.5310435931307795,1.0,124,1514,471,313,138,44.50626,11.342267
BOLOGNA MAZZINI,Thu,2.377813504823151,2.0,58,622,90,44,14,44.482284,11.376271
BOLOGNA S.RUFFILLO,Thu,1.34185303514377,1.0,58,626,67,30,11,44.462657,11.372967
BOLOGNA SAN VITALE,Thu,3.9880733944954128,2.0,98,1090,386,266,81,,
BORDIGHERA,Thu,2.8880706921944035,2.0,55,679,173,96,36,43.778313,7.663504
BORGHETTO SANTO SPIRITO,Thu,21.0,21.0,1,1,1,1,1,44.109006,8.242346
BORGO A MOZZANO,Thu,4.217665615141956,4.0,25,317,162,65,11,43.977207,10.541285
BORGO S.L.RIMORELLI,Thu,8.046728971962617,7.0,17,214,200,152,45,43.953279,11.400076
BORGO SAN DALMAZZO,Thu,1.411320754716981,1.0,26,265,17,9,4,44.326249,7.486111
BORGO VERCELLI,Thu,1.29607250755287,0.0,26,331,44,22,10,45.359252,8.461474
BORGOFRANCO,Thu,3.515625,1.0,5,64,16,8,5,45.514775,7.854612
BORGONUOVO,Thu,3.6344238975817924,3.0,57,703,253,109,25,,
BOVA MARINA,Thu,3.6200607902735564,2.0,26,329,108,66,32,37.930269,15.923897
BOVINO DELICETO,Thu,16.0,16.0,1,1,1,1,1,41.27835,15.369255
BRA,Thu,0.7183770883054893,0.0,33,419,42,20,7,44.693556,7.848643
BRESSANA ARGINE,Thu,3.0,3.0,1,1,0,0,0,45.072739,9.137038
BRESSANA BOTTARONE,Thu,5.327365728900256,4.0,32,391,199,137,35,45.086298,9.110602
BRESSANONE,Thu,3.237354085603113,1.0,60,771,232,154,74,46.710088,11.649677
BRINDISI,Thu,2.2099712368168745,0.0,93,1043,240,156,77,40.634339,17.938978
BRISIGHELLA,Thu,4.301255230125523,3.0,19,239,104,52,14,44.220565,11.769757
BUSCHE LENTIAI MEL,Thu,0.12052117263843648,0.0,39,307,26,11,4,46.040092,11.979251
BUSSOLENO,Thu,0.40175631174533477,0.0,73,911,97,55,20,45.139631,7.144819
BUTTRIO,Thu,1.8950437317784257,1.0,27,343,39,23,7,46.012664,13.329039
CABIATE,Thu,-0.056338028169014086,0.0,47,568,0,0,0,,
CALTAGIRONE,Thu,3.7058823529411766,-1.0,2,17,3,2,1,37.225276,14.521165
CALUSCO,Thu,5.919028340080971,5.0,40,494,335,209,54,45.684113,9.470646
CAMERANO ASPIO,Thu,28.0,28.0,1,1,1,1,1,,
CAMPOBELLO DI MAZARA,Thu,0.39805825242718446,-1.0,25,309,36,23,9,37.636256,12.733165
CAMPOMARINO,Thu,3.392156862745098,2.0,8,102,33,22,3,41.957398,15.042416
CAMPOMIGLIAIO,Thu,2.2195121951219514,2.0,13,164,41,19,3,43.937241,11.303593
CANDIA CANAVESE,Thu,3.1403508771929824,2.0,27,342,98,42,18,45.329824,7.891819
CANDIOLO,Thu,4.5836298932384345,4.0,44,562,309,183,17,44.961155,7.598973
CAPRALBA,Thu,7.08235294117647,5.0,34,425,260,182,71,45.443871,9.640015
CAPRANICA,Thu,0.8127753303964758,1.0,49,454,56,17,3,42.245195,12.157194
CARIMATE,Thu,3.0474537037037037,2.0,72,864,266,164,62,45.697094,9.107188
CARNIA,Thu,-1.1333333333333333,-2.0,14,180,7,2,1,46.373634,13.132847
CARPANE`VALSTAGNA,Thu,1.5337078651685394,1.0,14,178,19,5,1,45.860128,11.661183
CASLINO D'ERBA,Thu,0.0036231884057971015,0.0,23,276,0,0,0,,
CASSINE,Thu,4.334975369458128,4.0,16,203,111,56,11,44.751513,8.533613
CASSINO,Thu,0.18895348837209303,-1.0,56,688,88,54,31,41.484306,13.832125
CASTEGGIO,Thu,7.0,7.0,1,1,1,1,0,45.017365,9.124595
CASTEL D`ARIO,Thu,1.2233009708737863,1.0,16,206,33,16,6,45.183399,10.97531
CASTEL S.ANGELO,Thu,3.1280276816608996,2.0,23,289,92,49,10,42.379666,13.017612
CASTEL S.GIOVANNI,Thu,6.368731563421829,3.0,28,339,158,103,48,45.063272,9.436856
CASTELLAMMARE DI STABIA,Thu,1.2857142857142858,0.0,5,14,1,1,1,40.701398,14.483737
CASTELLANETA,Thu,2.6026058631921822,1.0,25,307,31,18,9,,
CASTELLANETA MARINA,Thu,2.411764705882353,2.0,4,51,9,5,2,40.481111,16.965434
CASTELLANZA,Thu,0.9692982456140351,0.0,55,684,61,13,6,,
CASTELLO D`ANNONE,Thu,3.4578313253012047,2.0,13,166,57,28,5,44.878742,8.312724
CASTELMAGGIORE,Thu,3.0845864661654137,2.0,43,532,164,99,27,44.576055,11.366901
CASTELNUOVO DI GARFAGNANA,Thu,2.498533724340176,2.0,27,341,98,44,5,44.116351,10.409054
CASTELPLANIO CUPRAMONTANA,Thu,2.0415754923413565,0.0,37,457,81,46,20,43.481403,13.084733
CASTRO-POFI,Thu,2.0855106888361044,1.0,33,421,46,22,10,41.533014,13.410741
CATANZARO,Thu,3.656338028169014,3.0,29,355,169,92,10,38.896222,16.599081
CATENANUOVA,Thu,4.4411764705882355,2.0,14,102,35,21,11,37.562026,14.688263
CECINA,Thu,3.0642054574638844,2.0,53,623,199,131,38,43.31028,10.514225
CELANO-OVINDOLI,Thu,1.4791666666666667,0.0,9,48,8,5,2,42.076999,13.543398
CERCHIO,Thu,3.3333333333333335,2.0,9,48,13,9,3,42.061082,13.597972
CERLANO LAGHETTO,Thu,0.4473684210526316,-1.0,31,380,42,16,6,,
CERRETO D`ESI,Thu,1.0,1.0,1,1,0,0,0,43.32205,12.98319
CERTOSA DI PAVIA,Thu,3.823185011709602,3.0,71,854,397,215,33,45.256927,9.154456
CERVIA-MILANO MARITTIMA,Thu,5.223021582733813,2.0,35,417,150,102,57,44.258444,12.347096
CESANO MADERNO,Thu,-0.17699530516431924,0.0,174,2130,48,21,6,,
CESATE,Thu,0.6214915797914996,0.0,101,1247,65,23,3,,
CHIARI,Thu,7.5,6.0,6,6,5,5,1,45.54011,9.926474
CHIASSO,Thu,-0.03444034440344403,-2.0,74,813,128,80,37,45.830736,9.03421
CHIGNOLO PO,Thu,3.8125,3.0,22,272,128,71,9,45.160942,9.494196
CIANO D'ENZA,Thu,2.8556701030927836,2.0,10,97,33,21,1,,
CIRO',Thu,6.405498281786942,5.0,24,291,177,119,46,39.368701,17.116997
CISTERNA DI LATINA,Thu,2.0862800565770865,1.0,56,707,120,66,29,41.586511,12.827538
CISTERNINO,Thu,18.0,18.0,1,1,1,1,1,40.816652,17.456899
CLASSE,Thu,5.878453038674033,3.0,15,181,80,55,24,44.382033,12.234995
CODIGORO,Thu,4.238095238095238,3.0,9,84,39,21,2,,
CODROIPO,Thu,1.9116222760290558,1.0,73,826,151,66,16,45.9657,12.976543
COGOLETO,Thu,1.5359179019384264,1.0,71,877,130,60,20,44.389762,8.643906
COLLI DEL TRONTO,Thu,4.0,4.0,1,1,1,0,0,,
COMO S. GIOVANNI,Thu,2.3092105263157894,1.0,150,1672,436,251,86,45.808946,9.072331
CONSELICE,Thu,4.7,4.0,4,50,28,15,8,44.510987,11.831949
CONTEA LONDA,Thu,3.612590799031477,3.0,34,413,191,87,18,43.865124,11.531603
CORBETTA S. STEFANO,Thu,6.25,5.0,14,16,11,8,1,45.480829,8.917457
CORBEZZI,Thu,1.222972972972973,1.0,12,148,8,2,1,43.993948,10.919676
COSSATO,Thu,1.8566775244299674,1.0,30,307,77,34,9,45.564216,8.175964
CRESCENTINO,Thu,3.9069767441860463,3.0,27,344,134,70,26,45.194302,8.107175
CROPANI,Thu,4.033942558746737,3.0,31,383,146,88,26,38.921968,16.813562
DECIMOMANNU,Thu,-0.013524936601859678,-1.0,101,1183,53,36,15,39.304593,8.965808
DITTAINO,Thu,1.0442477876106195,-1.0,18,113,23,15,8,37.564605,14.462429
DONNAFUGATA,Thu,2.10989010989011,1.0,9,91,25,16,7,36.882055,14.568968
DUEVILLE,Thu,2.0926365795724466,1.0,34,421,60,22,8,45.635,11.546108
ELLERA CORCIANO,Thu,3.2542857142857144,3.0,28,350,142,71,11,43.094699,12.318574
ERBA,Thu,0.002336448598130841,0.0,35,428,0,0,0,,
FABRIANO,Thu,1.8542435424354244,0.0,44,542,113,59,30,43.345429,12.905336
FAENZA,Thu,4.139589905362776,2.0,110,1268,420,308,166,44.293594,11.883268
FAGARE,Thu,2.2830882352941178,2.0,22,272,49,17,4,45.70705,12.444296
FAGNANO CAMPANA,Thu,1.2307692307692308,1.0,3,39,6,4,0,42.250575,13.562743
FALCIANO MONDRAGONE CAR.,Thu,4.6141732283464565,2.0,42,508,181,134,50,41.123525,13.971792
FALCONARA MARITTIMA,Thu,1.78671875,1.0,103,1280,255,144,59,43.630577,13.397378
FEDERICO,Thu,0.7344559585492227,2.0,60,772,1,0,0,38.144862,13.344966
FI ROVEZZANO,Thu,8.055555555555555,8.0,8,18,15,14,5,43.768657,11.307372
FIESOLE CALDINE,Thu,2.16734693877551,1.0,39,490,110,54,16,43.833697,11.266047
FILIANO,Thu,3.943661971830986,3.0,11,142,70,46,1,40.837161,15.752285
FIORENZUOLA,Thu,3.3091133004926108,1.0,66,812,215,144,70,44.928716,9.917403
FIRENZE CAMPO MARTE,Thu,2.7230233714569865,2.0,170,2011,613,330,108,43.776856,11.27702
FIRENZE S.M.N.,Thu,1.6996567505720823,1.0,290,3496,805,480,206,43.776893,11.247373
FISCIANO,Thu,1.3181818181818181,1.0,26,264,46,23,5,40.759095,14.77486
FIVIZZANO - GASSANO,Thu,3.1149425287356323,3.0,14,174,51,20,2,44.202672,10.091691
FIVIZZANO ROMETTA - SOLIERA,Thu,3.038022813688213,2.0,21,263,73,28,4,44.201526,10.05953
FONTANAROSA,Thu,2.0057471264367814,1.0,16,174,36,25,9,,
FONTANETTO PO,Thu,4.0145348837209305,3.0,27,344,136,73,24,45.191238,8.188697
FORMIGINE,Thu,2.283422459893048,2.0,20,187,23,7,2,,
FORNOVO,Thu,2.7232323232323234,2.0,42,495,163,108,24,44.693791,10.102014
FOSCIANDORA - CESERANA,Thu,3.734375,3.0,5,64,21,10,3,44.118559,10.444212
FRANCIA,Thu,0.6784565916398714,0.0,74,933,25,12,7,38.155233,13.321938
FRASSO T. DUGENTA,Thu,4.3701923076923075,3.0,17,208,102,85,29,41.137244,14.459459
GAIBANELLA,Thu,3.156862745098039,3.0,8,102,37,16,2,44.778116,11.671325
GAIFANA,Thu,-0.16129032258064516,-1.0,5,62,6,3,1,43.181837,12.784148
GALLARATE,Thu,4.166031342651419,2.0,202,2361,959,610,208,45.659828,8.798243
GAMBETTOLA,Thu,4.2747875354107645,2.0,28,353,124,83,36,44.116718,12.327555
GAVIGNANO,Thu,2.9121140142517814,2.0,34,421,87,22,8,,
GELA,Thu,2.6344086021505375,1.0,9,93,30,20,8,37.07283,14.259461
GENOVA P.PRINCIPE,Thu,2.2922269596589047,1.0,252,3049,713,398,117,44.417784,8.9207
GENOVA PEGLI,Thu,3.3333333333333335,5.0,3,3,2,0,0,44.426236,8.816767
GENOVA PRA,Thu,6.333333333333333,7.0,9,9,6,5,2,44.426874,8.785356
GENOVA QUARTO DEI MILLE,Thu,2.6095238095238096,1.0,107,1365,346,202,49,44.388607,8.99597
GHIVIZZANO - COREGLIA,Thu,3.881818181818182,3.0,26,330,149,70,7,44.027583,10.510183
GIARRE RIPOSTO,Thu,3.053177691309987,0.0,72,771,177,130,76,37.730346,15.193386
GIOVINAZZO,Thu,2.747292418772563,2.0,65,831,212,125,36,41.180968,16.669346
GIUGLIANO QUALIANO,Thu,1.9855334538878842,2.0,43,553,69,18,5,40.935018,14.10378
GORIZIA CENTRALE,Thu,1.0,0.0,53,599,82,42,15,45.933047,13.60684
GRAGNOLA,Thu,1.623574144486692,1.0,21,263,42,21,2,44.191069,10.109245
GRISIGNANO DI ZOCCO,Thu,2.7968992248062015,2.0,55,645,168,84,22,45.48638,11.710762
GROTTAGLIE,Thu,1.9705882352941178,1.0,16,204,51,19,8,40.528989,17.424503
GROTTE,Thu,1.0909090909090908,0.0,7,88,15,6,2,37.409848,13.702717
GRUMELLO DEL MONTE,Thu,2.2730844793713163,2.0,40,509,147,69,10,45.634102,9.862767
GUADAGNA,Thu,1.6387665198237886,1.0,72,908,45,19,9,,
GUARDAVALLE,Thu,4.53125,4.0,5,64,39,25,4,38.480266,16.578923
HONE BARD,Thu,2.6588235294117646,2.0,21,255,82,42,13,45.613918,7.741345
INCORONATA,Thu,2.412037037037037,2.0,34,432,88,45,14,41.408174,15.650728
INVERIGO,Thu,0.0,0.0,43,519,0,0,0,,
ISTRANA,Thu,1.050420168067227,0.0,47,595,56,26,14,45.676539,12.102781
JOPPOLO,Thu,0.6983240223463687,0.0,14,179,24,11,5,38.580318,15.897025
LA SPEZIA MIGLIARINA,Thu,1.9976415094339623,1.0,80,848,218,101,18,44.123391,9.84028
LA STORTA,Thu,1.706575682382134,1.0,153,1612,235,70,13,42.001748,12.381254
LABICO,Thu,2.5080789946140034,2.0,44,557,108,46,12,,
LADISPOLI-CERVETERI,Thu,1.5217812197483058,1.0,81,1033,178,92,27,41.953502,12.081675
LAMBRINIA,Thu,4.696296296296296,4.0,22,270,153,85,14,45.164376,9.527436
LATINA,Thu,3.04610492845787,1.0,109,1258,313,207,108,41.538372,12.945888
LATISANA LIGNANO B.,Thu,1.4248251748251748,1.0,46,572,77,44,24,45.777733,13.001101
LEGNANO,Thu,4.898330804248862,3.0,108,1318,657,373,114,45.593653,8.910638
LENTINI,Thu,5.055718475073314,1.0,39,341,107,84,50,37.300916,14.99758
LEVATA,Thu,2.6099476439790577,2.0,30,382,114,51,19,,
LIDO DI CLASSE-LIDO DI SAVIO,Thu,4.975186104218363,2.0,34,403,147,109,54,44.314546,12.292722
LUCCA,Thu,2.302919708029197,2.0,90,1096,320,158,26,43.837186,10.506069
MACERATA,Thu,1.1253918495297806,0.0,25,319,48,26,12,43.293094,13.455172
MACERATA UNIVERSITA',Thu,13.0,13.0,1,1,1,1,1,,
MACOMER,Thu,0.84688995215311,-1.0,17,209,34,27,14,40.267899,8.772279
MADIGNANO,Thu,7.122302158273381,5.0,33,417,271,190,72,45.34383,9.730179
MAGLIANO CRAVA MOROZZO,Thu,0.18137254901960784,-1.0,16,204,9,8,2,44.445259,7.777852
MAGRE`- CORTACCIA,Thu,8.952380952380953,8.0,15,21,19,17,4,46.287976,11.232646
MANDATORICCIO CAMPANA,Thu,6.230088495575221,4.0,19,226,133,95,35,39.525442,16.893125
MANDELLO DEL LARIO,Thu,4.043545878693624,2.0,51,643,231,149,59,45.915208,9.322061
MANIAGO,Thu,-2.4457831325301207,-3.0,7,83,0,0,0,46.170057,12.714527
MANOPPELLO,Thu,1.2346938775510203,1.0,23,294,34,13,5,42.305848,14.061057
MANTOVA,Thu,2.2203898050974513,1.0,52,667,166,93,40,45.158746,10.783165
MARCELLINA-PALOMBARA,Thu,1.4405594405594406,1.0,47,572,111,40,5,41.999609,12.79134
MARINA DI CERVETERI,Thu,5.5,2.0,2,2,1,1,0,41.979133,12.047924
MARINA DI SAN LORENZO,Thu,2.2714285714285714,2.0,11,140,24,9,5,37.919844,15.826365
MASI TORELLO,Thu,0.7916666666666666,0.0,18,168,18,10,3,,
MASSA CENTRO,Thu,3.7622439893143365,2.0,99,1123,451,259,73,44.023741,10.136041
MASSALOMBARDA,Thu,4.74,3.0,4,50,21,13,8,44.448948,11.828068
MEINA,Thu,5.73404255319149,3.0,15,188,93,66,29,45.794389,8.535452
MELITO DI PORTO SALVO,Thu,1.3172043010752688,0.0,46,558,89,61,31,37.916732,15.780816
MEOLO,Thu,15.0,11.0,3,3,3,3,2,45.61319,12.453969
MERANA,Thu,5.1013824884792625,5.0,17,217,134,85,11,44.519368,8.298327
MERCATO SAN SEVERINO,Thu,0.7338129496402878,0.0,16,139,20,8,1,40.783095,14.759749
MERCENASCO,Thu,4.1608187134502925,3.0,27,342,140,66,20,45.353436,7.886405
MERGOZZO,Thu,4.442708333333333,2.0,15,192,56,37,17,45.961303,8.440881
MESAGNE,Thu,2.8509615384615383,2.0,17,208,41,26,10,40.563203,17.802082
MESTRINO,Thu,10.0,10.0,1,1,1,1,0,45.457878,11.773859
METAPONTO,Thu,3.609625668449198,0.0,16,187,54,40,22,40.368496,16.815176
MEZZANO,Thu,2.7024539877300615,2.0,26,326,85,31,5,44.463,12.098501
MI.P.GENOVA,Thu,1.9059233449477353,0.0,23,287,63,48,30,45.453379,9.169303
MILANO BRUZZANO,Thu,1.4761904761904763,1.0,28,315,49,21,2,,
MILANO FORLANINI,Thu,4.118038740920097,3.0,136,1652,634,399,145,,
MILANO VENEZIA,Thu,4.5950239808153475,3.0,271,3336,1614,908,292,45.471121,9.201889
MINTURNO,Thu,3.1993720565149135,1.0,52,637,190,135,59,41.257621,13.720664
MINUCCIANO - PIEVE - CASOLA,Thu,0.6805555555555556,1.0,23,288,37,15,1,44.194385,10.193837
MIRA MIRANO,Thu,27.0,27.0,1,1,1,1,1,45.462943,12.118789
MODENA,Thu,2.876876876876877,1.0,175,1998,604,405,194,44.654461,10.930373
MODICA,Thu,2.303225806451613,-1.0,15,155,39,25,11,36.8529,14.754255
MOMO,Thu,2.4154589371980677,2.0,16,207,59,24,8,45.574646,8.55689
MONFALCONE,Thu,1.0053799596503026,0.0,125,1487,194,101,28,45.807683,13.542929
MONSELICE,Thu,1.2371134020618557,0.0,83,970,162,94,36,45.246116,11.74789
MONTANARO,Thu,2.4873949579831933,2.0,30,357,88,35,17,45.232674,7.858331
MONTECORVINO,Thu,8.75,7.0,4,4,4,4,1,40.617439,14.944628
MONTESILVANO,Thu,1.9613095238095237,1.0,53,672,134,76,16,42.515766,14.152567
MONTIRONE,Thu,5.080267558528428,2.0,24,299,114,62,31,45.451352,10.239482
MONZUNO,Thu,1.473873873873874,1.0,50,555,79,32,7,44.322277,11.262082
MORI,Thu,9.714285714285714,11.0,7,7,7,4,4,45.861216,11.002648
MOZIA-BIRGI,Thu,1.400662251655629,1.0,24,302,56,23,5,37.884956,12.499016
MUSSOTTO,Thu,1.1123287671232878,0.0,30,365,32,19,7,44.713227,8.015194
NAPOLI CENTRALE,Thu,2.455458515283843,1.0,198,2290,670,442,241,40.852933,14.272908
NAPOLI GIANTURCO,Thu,-0.6014328808446455,-2.0,226,2652,260,143,50,40.853959,14.288213
NAVACCHIO,Thu,2.967741935483871,2.0,42,527,166,108,23,43.685941,10.486806
NETTUNO,Thu,0.26199261992619927,0.0,21,271,15,11,4,41.459558,12.662123
NIBBIA,Thu,3.1,3.0,4,40,14,6,1,45.481363,8.557993
NIZZA MONFERRATO,Thu,0.8080808080808081,0.0,16,198,15,6,2,44.772905,8.361146
NOCERA UMBRA,Thu,2.710382513661202,1.0,15,183,40,25,9,43.100663,12.767207
NOVATE MILANESE,Thu,3.1154929577464787,3.0,31,355,122,48,5,,
NOVATE-MEZZOLA,Thu,0.9268929503916449,0.0,30,383,31,14,6,46.216595,9.446573
NOVI LIGURE,Thu,1.3508064516129032,1.0,40,496,80,44,15,44.762521,8.787289
NUOVO SALARIO,Thu,1.4930260764099454,2.0,136,1649,191,75,20,41.956195,12.510317
ODERZO,Thu,0.4059040590405904,0.0,22,271,27,9,2,45.775304,12.49293
OGGIONO,Thu,2.944223107569721,2.0,41,502,153,75,19,45.788993,9.33748
OLBIA,Thu,0.7530120481927711,0.0,13,166,17,9,7,40.924595,9.498293
OLGIATA,Thu,3.2394695787831513,3.0,125,1282,402,127,10,42.01538,12.363864
OMIGNANO SALENTO,Thu,3.5,2.0,27,342,119,81,35,40.252688,15.134406
ORIO LITTA,Thu,4.488888888888889,4.0,22,270,146,78,12,45.166778,9.550592
ORSARA DI PUGLIA,Thu,88.0,88.0,1,1,1,1,1,41.241899,15.27766
ORTANOVA,Thu,2.889130434782609,2.0,36,460,121,66,16,41.350441,15.732059
OSNAGO,Thu,3.403636363636364,2.0,68,825,255,143,46,45.678532,9.386995
OSTERIA NUOVA,Thu,2.847355769230769,1.0,66,832,213,137,51,44.586613,11.236525
OSTUNI,Thu,3.4498381877022655,2.0,56,618,194,110,40,40.752356,17.580809
OTTAVIA,Thu,2.2054161162483488,2.0,143,1514,253,75,10,,
OULX CESANA CLAVIERE SESTRIERE,Thu,1.6436781609195403,1.0,35,435,59,38,11,45.038789,6.831432
OVADA,Thu,2.898026315789474,1.0,24,304,90,47,14,44.630377,8.632301
PACE DEL MELA,Thu,1.925601750547046,1.0,36,457,93,46,9,38.202459,15.312676
PADERNO ROBBIATE,Thu,6.355555555555555,5.0,40,495,357,221,69,45.678307,9.439202
PALAGIANELLO,Thu,1.38125,0.0,26,320,28,16,9,40.610906,16.975202
PALERMO CENTRALE,Thu,-0.4297658862876254,-1.0,100,1196,86,48,29,38.109187,13.367515
PALERMO NOTARBARTOLO,Thu,-0.9568452380952381,-1.0,106,1344,17,12,7,38.132261,13.341572
PAOLA,Thu,1.504823151125402,-1.0,87,933,167,126,64,39.359442,16.033093
PARONA LOMELLINA,Thu,3.0780399274047188,2.0,44,551,199,118,30,45.280107,8.780315
PAULILATINO,Thu,-1.265625,-2.0,5,64,2,2,2,40.077373,8.775812
PEDEROBBA CAVASO POSSAGNO,Thu,3.345744680851064,2.0,24,188,66,33,7,45.877299,11.965222
PERAROLO DI CADORE,Thu,1.637037037037037,1.0,18,135,25,8,1,46.386277,12.352493
PERGINE,Thu,1.3707317073170733,1.0,16,205,43,19,0,46.062482,11.232637
PERI,Thu,5.4447368421052635,4.0,30,380,218,159,48,45.658402,10.900314
PERUGIA PONTE S.GIOVANNI,Thu,2.4,1.0,5,5,1,1,0,43.091801,12.438239
PERUGIA UNIVERSITA',Thu,0.0,0.0,1,1,0,0,0,,
PESCHIERA DEL GARDA,Thu,4.150137741046832,3.0,60,726,289,171,65,45.438502,10.702509
PESCIA,Thu,3.4761904761904763,3.0,52,630,272,174,50,43.886811,10.686074
PIAN DEL MUGNONE,Thu,2.91,3.0,8,100,29,7,1,43.813899,11.265994
PIAZZA CAVOUR,Thu,-0.4524207011686144,-2.0,116,599,67,35,12,40.855248,14.255175
PIEDIMONTE-V.S.L.-AQUINO,Thu,1.4569789674952198,1.0,42,523,60,27,12,,
PIEDIMULERA,Thu,3.125,2.0,13,168,41,21,8,46.024348,8.261237
PIGNATARO MAGGIORE,Thu,12.5,11.0,2,2,2,2,2,41.17384,14.160545
PINEROLO,Thu,0.773851590106007,-1.0,22,283,64,35,7,44.887673,7.337402
PIOLTELLO LIMITO,Thu,3.138005005362889,2.0,224,2797,951,566,180,45.486019,9.329319
PIOMBINO DESE,Thu,1.458955223880597,1.0,63,804,108,49,19,45.60944,12.00058
PIRAINETO,Thu,1.5963488843813387,1.0,39,493,36,15,7,38.169148,13.14256
PISA CENTRALE,Thu,1.9619458611220086,1.0,221,2549,609,326,125,43.70794,10.398183
PIZZIGHETTONE,Thu,4.301587301587301,3.0,6,63,28,15,4,45.181772,9.777133
PLOAGHE,Thu,1.9238578680203047,1.0,16,197,38,10,5,40.66132,8.728075
POGGIO - CAREGGINE - VAGLI,Thu,3.3389121338912133,2.0,19,239,82,44,4,44.148541,10.350626
POGGIO FIDONI,Thu,8.234375,8.0,5,64,62,56,11,42.395811,12.795429
POGGIO RUSCO,Thu,1.5272244355909694,1.0,60,753,208,113,44,44.981859,11.124627
POGGIRIDENTI-TRESIVIO-PIATEDA,Thu,2.671875,1.0,5,64,12,6,4,46.166888,9.93382
POLICORO TURSI,Thu,7.7254901960784315,6.0,4,51,34,29,11,40.207304,16.688819
POLIGNANO A MARE,Thu,2.6237113402061856,1.0,64,776,165,95,40,40.990926,17.218676
PONTE D`ADIGE,Thu,1.6720430107526882,1.0,44,558,144,52,5,46.485444,11.297719
PONTECURONE,Thu,3.643312101910828,3.0,25,314,120,68,16,44.962014,8.929717
PONTEDERA CASCIANA TERME,Thu,2.3667392883079157,1.0,118,1377,354,193,54,43.662145,10.628773
PONTENURE,Thu,3.7738095238095237,2.0,7,84,19,8,5,45.001687,9.792103
PONTI,Thu,3.857142857142857,3.0,17,217,97,46,9,44.629979,8.365262
PONTREMOLI,Thu,2.2114989733059547,1.0,46,487,132,79,19,44.371976,9.887795
POPOLI VITTORITO,Thu,-0.08900523560209424,-1.0,30,382,21,10,4,42.172354,13.826152
PORTO D`ASCOLI,Thu,3.3618618618618616,2.0,52,666,205,106,33,42.912792,13.896813
PORTO S. ELPIDIO,Thu,3.0762886597938146,2.0,38,485,152,100,25,43.256855,13.760749
PORTOGRUARO CAORLE,Thu,1.6996086105675148,1.0,84,1022,141,58,29,45.781438,12.832375
PORTOMAGGIORE,Thu,2.116477272727273,2.0,28,352,75,23,6,44.696699,11.799785
POSTIOMA,Thu,2.5947712418300655,2.0,40,306,53,17,5,45.715862,12.148248
POSTO COMUNICAZIONE DOLCE`,Thu,4.8052631578947365,3.0,30,380,189,147,44,45.601513,10.850588
POTENZA SUPERIORE,Thu,0.28860759493670884,0.0,31,395,21,6,3,40.64586,15.800966
POZZUOLI SOLFATARA,Thu,0.8692196531791907,1.0,111,1384,147,53,14,40.827586,14.126163
PRAJA AJETA TORTORA,Thu,3.35978835978836,1.0,30,378,122,87,34,39.900832,15.780628
PRASCO CREMOLINO,Thu,3.1194539249146755,2.0,23,293,71,41,15,44.648906,8.55001
PRATA CAMPORTACCIO,Thu,1.4579945799457994,1.0,29,369,49,22,4,,
PRATOLA PELIGNA,Thu,0.4476439790575916,0.0,30,382,31,14,3,42.102423,13.876349
PRATOLA PELIGNA SUPERIORE,Thu,3.395348837209302,6.0,24,301,158,151,6,42.080415,13.87223
PREGANZIOL,Thu,10.0,9.0,6,6,6,4,2,45.60367,12.23138
PRIVERNO FOSSANOVA,Thu,1.784829721362229,0.0,53,646,137,91,31,41.421853,13.186406
QUERCIANELLA,Thu,3.237410071942446,2.0,24,278,84,51,17,43.454922,10.37255
RAIANO,Thu,1.717607973421927,1.0,24,301,40,17,4,42.097931,13.80908
RAPOLANO TERME,Thu,2.7056603773584906,2.0,21,265,82,32,5,43.283331,11.602504
RASTIGNANO,Thu,1.7677642980935875,1.0,54,577,80,35,11,44.443592,11.357617
RECALE,Thu,5.5,3.0,4,4,2,2,1,41.06235,14.30323
REGGIO EMILIA AV,Thu,6.035185185185185,4.0,44,540,304,215,87,44.779886,10.744171
REGGIO MEDIOPADANA,Thu,2.16751269035533,1.0,24,197,40,24,7,,
REMEDELLO SOTTO,Thu,9.123745819397993,7.0,24,299,249,194,52,45.257477,10.388402
RENATE-VEDUGGIO,Thu,3.5265392781316347,2.0,38,471,165,79,14,45.728304,9.279834
RHO,Thu,3.8052088985349974,3.0,149,1843,763,408,104,45.523813,9.043563
RHO FIERA MILANO,Thu,3.5147210743801653,3.0,326,3872,1521,823,223,,
RIGOLI,Thu,1.3714285714285714,1.0,11,140,27,10,1,43.789681,10.419663
RIMINI TORRE PEDRERA,Thu,4.890577507598784,1.0,28,329,80,59,40,44.106987,12.508755
RIMINIFIERA,Thu,5.491803278688525,2.0,39,61,21,15,9,,
RIO DI PUSTERIA,Thu,1.18,1.0,8,100,7,1,0,46.79712,11.670028
RIVA TRIGOSO,Thu,3.8609958506224067,2.0,40,482,171,126,39,44.26391,9.429277
ROBILANTE,Thu,0.23863636363636365,0.0,26,264,13,7,1,44.296496,7.510906
ROCCA RAVINDOLA,Thu,0.9404761904761905,0.0,7,84,14,8,3,41.521035,14.122965
ROLO NOVI FABBRICO,Thu,1.5913705583756346,1.0,31,394,57,34,17,44.886561,10.867882
ROMA OSTIENSE,Thu,0.5549939831528279,0.0,360,4155,517,214,67,41.87265,12.483917
ROMA PRENESTINA,Thu,-0.055734190782422297,0.0,74,933,50,21,5,41.897571,12.545803
ROMA TERMINI,Thu,2.098482174373456,0.0,465,5666,1142,713,337,41.900636,12.502026
ROMA TIBURTINA PIAZZALE EST,Thu,-0.8902691511387164,-1.0,41,483,16,9,3,41.910903,12.530749
ROMA TRASTEVERE,Thu,2.5965071444772057,2.0,379,4409,1154,456,77,41.872279,12.466162
ROMANO,Thu,2.610576923076923,1.0,67,832,213,139,51,45.523839,9.753402
RONCHI DEI LEGIONARI NORD,Thu,1.4510385756676558,1.0,27,337,57,26,11,45.830285,13.505962
ROSSANO,Thu,7.186206896551724,5.0,24,290,195,132,48,39.603005,16.640859
RUFINA,Thu,3.033816425120773,2.0,34,414,156,83,16,43.822236,11.485072
S. AMBROGIO,Thu,2.316190476190476,1.0,42,525,87,38,8,45.101161,7.360933
S. CASSIANO VALCHIAVENNA,Thu,1.4027027027027028,1.0,29,370,69,24,5,46.275438,9.397419
S. GIACOMO DI TEGLIO,Thu,1.5098039215686274,1.0,4,51,7,4,2,46.159722,10.027405
S. GIULIANO PIACENTINO,Thu,3.933333333333333,3.0,14,180,75,39,9,45.070627,9.985919
S. MARGHERITA LIGURE PORTOFINO,Thu,2.7725631768953067,1.0,87,1108,328,214,72,44.33676,9.216673
S. PAOLO SOLBRITO,Thu,1.9389312977099236,1.0,31,393,68,35,3,44.951753,7.975779
S. PIETRO A VICO,Thu,3.007518796992481,2.0,21,266,87,34,10,43.875094,10.530945
S. PIETRO BERBENNO,Thu,3.3622047244094486,2.0,20,254,87,45,9,46.161347,9.740491
S.ALESSIO SICULO FORZA D`AGRO`,Thu,4.7491961414791,2.0,25,311,126,89,35,37.923992,15.347322
S.BIAGIO,Thu,3.559055118110236,3.0,10,127,52,23,5,44.594511,11.87054
S.CANDIDO,Thu,1.469387755102041,1.0,4,49,1,0,0,46.732728,12.271917
S.DONATO MILANESE,Thu,8.0,8.0,1,1,1,1,0,,
S.DONNINO BADIA,Thu,6.333333333333333,6.0,5,6,6,4,0,43.785424,11.142169
S.ELLERO,Thu,5.285714285714286,4.0,32,56,35,22,4,43.742143,11.469621
S.FELICE SP,Thu,2.7228915662650603,1.0,66,830,237,139,51,44.834527,11.140243
S.ILARIO,Thu,3.1732456140350878,2.0,37,456,139,62,23,44.765795,10.450469
S.LORENZO COLLI,Thu,0.5868814729574223,0.0,69,869,26,12,7,38.16292,13.316449
S.MARTINO DI LUPARI,Thu,6.0,6.0,1,1,1,1,0,45.655928,11.857227
S.NAZARIO,Thu,2.2849162011173183,2.0,14,179,35,6,1,45.838117,11.691321
S.ROMANO MONTOPOLI S.CROCE,Thu,2.982408660351827,2.0,65,739,216,115,32,43.690575,10.760152
S.SEVERINO MARCHE,Thu,3.303249097472924,3.0,22,277,118,51,12,43.22996,13.183491
S.VITO AL TAGLIAMENTO,Thu,2.144262295081967,1.0,26,305,95,33,2,45.912433,12.851594
S.VITO LANCIANO,Thu,2.620817843866171,2.0,21,269,70,39,14,42.307401,14.448093
SAIRANO ZINASCO,Thu,5.8074324324324325,5.0,24,296,214,116,22,45.133795,9.030153
SALERNO,Thu,1.405824330671677,-1.0,209,2129,440,313,176,40.675137,14.772822
SALICETO,Thu,1.9707317073170731,1.0,16,205,18,8,4,44.404437,8.172887
SALORNO,Thu,9.090909090909092,7.0,8,11,11,10,4,46.245842,11.202681
SALSOMAGGIORE T.,Thu,0.2348993288590604,0.0,24,298,6,1,0,44.81866,9.988129
SALUGGIA,Thu,3.871934604904632,2.0,29,367,124,73,25,45.23443,8.017112
SALZANO ROBEGANO,Thu,30.0,27.0,2,2,2,2,2,45.535378,12.111485
SAMOLACO,Thu,1.4258760107816713,1.0,29,371,57,21,6,46.246436,9.423582
SAMPIERI,Thu,2.5,1.0,12,132,35,24,8,36.73188,14.744577
SAN BONIFACIO,Thu,3.5279126213592233,2.0,69,824,251,144,58,45.40276,11.27406
SAN GIUSEPPE DI CAIRO,Thu,0.055062166962699825,-1.0,44,563,41,28,22,44.370096,8.28864
SANTA TERESA DI RIVA,Thu,3.6775510204081634,2.0,41,490,170,117,52,37.946295,15.367682
SANTHIA`,Thu,2.1719626168224297,1.0,84,1070,227,123,37,45.363726,8.180093
SARONNO,Thu,0.05783475783475783,0.0,305,3510,80,31,6,45.625309,9.030839
SARZANA,Thu,2.7582547169811322,2.0,78,848,273,162,43,44.108865,9.960657
SASSONE,Thu,3.3276283618581908,3.0,32,409,150,47,6,41.783777,12.625832
SAVIGLIANO,Thu,2.1650992685475443,1.0,75,957,181,69,25,44.651337,7.663748
SAVIGNANO SUL RUBICONE,Thu,4.8852813852813854,2.0,37,462,178,111,55,44.095191,12.40421
SAVONA,Thu,0.9367622259696459,-1.0,97,1186,205,120,48,44.306892,8.470259
SCAFA S.VALENTINO CARAMANICO T,Thu,0.29238329238329236,0.0,32,407,26,11,6,42.26717,13.99909
SCAFATI,Thu,1.8615591397849462,1.0,65,744,142,71,33,40.746028,14.523253
SCANZANO J. MONTALBANO J.,Thu,-2.0,-2.0,1,1,0,0,0,40.25362,16.705192
SCOPETI,Thu,4.917312661498708,4.0,32,387,221,125,28,43.841117,11.497001
SECUGNAGO,Thu,3.298474945533769,2.0,37,459,146,91,37,45.223253,9.58684
SERRA S.QUIRICO,Thu,2.276712328767123,1.0,29,365,91,43,13,43.444879,13.027408
SERRAVALLE SCRIVIA,Thu,7.5,7.0,4,4,3,3,1,44.72393,8.858548
SESTO FIORENTINO,Thu,1.9482758620689655,1.0,17,174,39,19,9,43.833297,11.191941
SESTRI LEVANTE,Thu,0.5252525252525253,-1.0,88,1089,243,154,53,44.27626,9.397651
SISTIANA,Thu,1.4441489361702127,1.0,30,376,45,19,3,45.774903,13.645832
SOLOPACA,Thu,3.6231155778894473,2.0,17,199,79,62,23,41.210521,14.571413
SPARANISE,Thu,2.3356481481481484,1.0,38,432,104,55,16,41.185707,14.092954
SPELLO,Thu,2.809128630705394,2.0,39,482,146,72,16,42.9844,12.668884
SPOLETO,Thu,3.297029702970297,1.0,42,505,158,101,47,42.748121,12.736142
STIMIGLIANO,Thu,1.1833333333333333,1.0,34,420,29,16,7,42.289811,12.568632
STRADELLA,Thu,5.329646017699115,2.0,37,452,174,113,52,45.079465,9.300865
STRAMBINO,Thu,3.0677966101694913,2.0,28,354,99,58,15,45.382508,7.887955
STREVI,Thu,3.9901960784313726,4.0,16,204,105,47,9,44.697771,8.525525
SULMONA,Thu,-0.42455242966751916,-1.0,36,391,20,12,5,42.060836,13.907156
TARCENTO,Thu,1.1239669421487604,1.0,19,242,27,15,3,46.209134,13.196211
TASSIGNANO,Thu,4.895752895752896,4.0,21,259,152,102,22,43.834131,10.570495
TELESE CERRETO,Thu,3.6879432624113475,2.0,24,282,128,106,35,41.211709,14.526165
TERNO,Thu,5.852760736196319,5.0,40,489,321,211,53,45.688658,9.536169
TERZO MONTABONE,Thu,3.377880184331797,2.0,17,217,83,44,9,44.671932,8.428705
TIVOLI,Thu,1.1781076066790352,1.0,44,539,105,40,8,41.961849,12.805047
TOR SAPIENZA,Thu,0.11981020166073547,0.0,67,843,49,27,6,41.907095,12.594489
TORINO P.NUOVA,Thu,2.4012269938650306,1.0,135,1630,341,189,100,45.060969,7.67747
TORINO PORTA SUSA,Thu,1.4864864864864864,1.0,285,3552,575,300,101,45.075906,7.667673
TORRE MELISSA,Thu,5.709251101321586,5.0,20,227,140,96,20,39.304391,17.108402
TORREBERETTI,Thu,2.7202072538860103,2.0,46,579,166,89,18,45.060533,8.660431
TORRILE S. POLO,Thu,2.432225063938619,1.0,32,391,70,45,22,44.885677,10.362814
TRACCIA,Thu,4.694444444444445,3.0,3,36,18,6,2,,
TRAPANI,Thu,-0.9,-2.0,12,150,12,7,6,38.017092,12.518814
TRE CROCI,Thu,2.219178082191781,2.0,17,146,29,18,1,42.331525,12.086159
TRENTO,Thu,2.3139622641509434,2.0,104,1325,426,240,78,46.072414,11.118941
TREVI,Thu,3.1699346405228757,1.0,27,306,73,43,23,42.8762,12.733709
TREVIGNANO SIGNORESSA,Thu,3.7311475409836063,3.0,40,305,132,39,8,45.74789,12.103123
TRIESTE CENTRALE,Thu,1.2392947103274559,0.0,66,794,110,55,28,45.657456,13.771873
TRINO VERCELLESE,Thu,3.497093023255814,2.0,27,344,120,70,22,45.190066,8.294093
TROPEA,Thu,2.0886699507389164,2.0,20,203,72,31,5,38.672302,15.894568
URBISAGLIA SFORZACOSTA,Thu,17.5,0.0,2,2,1,1,1,43.25746,13.416932
VAIRANO,Thu,2.6986301369863015,1.0,43,511,132,78,36,41.317446,14.104022
VALLE DI MADDALONI,Thu,4.725,4.0,18,200,102,76,28,41.087558,14.426049
VALLE LOMELLINA,Thu,2.788778877887789,2.0,24,303,88,41,10,45.150588,8.685874
VANZAGO POGLIANO,Thu,5.266423357664234,4.0,68,822,467,269,71,45.525216,8.995531
VAREDO,Thu,0.27204030226700254,0.0,99,1191,29,8,2,,
VARESE,Thu,2.8124501197126897,1.0,103,1253,291,173,65,45.816201,8.833089
VARIGNANA,Thu,6.11978221415608,5.0,45,551,361,216,68,44.436796,11.523078
VELLETRI,Thu,1.9703947368421053,0.0,27,304,40,24,18,41.682421,12.780864
VENEZIA CARPENEDO,Thu,12.6,11.0,5,5,4,4,3,45.506697,12.247609
VERCEIA,Thu,0.01881720430107527,-1.0,29,372,25,12,6,46.202832,9.458412
VERNANTE,Thu,0.5037878787878788,0.0,26,264,13,5,1,44.244639,7.535986
VERNIO MONTEPIANO CANTAGALLO,Thu,2.093073593073593,1.0,42,462,87,45,6,44.043991,11.152342
VEROLANUOVA,Thu,2.119331742243437,2.0,33,419,112,46,11,45.324989,10.08388
VESPRI,Thu,1.9240088105726871,2.0,72,908,66,22,9,38.101996,13.362701
VIAREGGIO,Thu,3.4530812324929974,2.0,128,1428,499,285,85,43.865947,10.257886
VIBO VALENZIA PIZZO,Thu,2.0568181818181817,0.0,46,528,101,71,38,38.714593,16.139887
VICENZA,Thu,1.0597416576964478,0.0,153,1858,321,194,102,45.541102,11.540762
VICOFORTE SAN MICHELE,Thu,1.2955665024630543,1.0,16,203,9,2,2,44.37404,7.894687
VIGNA DI VALLE,Thu,3.8136094674556213,3.0,29,338,142,46,4,42.076863,12.210716
VIGONZA PIANIGA,Thu,29.0,29.0,1,1,1,1,1,45.442799,12.017977
VILLA BONELLI,Thu,2.5866579463701767,2.0,126,1529,343,117,23,41.8477601,12.455223
VILLA CLAUDIA,Thu,1.8451242829827916,1.0,41,523,69,27,7,41.484326,12.61709
VILLA OPICINA,Thu,1.64,1.0,2,25,5,4,1,45.6944,13.791142
VILLA SAN GIOVANNI,Thu,1.4907317073170732,-1.0,95,1025,134,100,61,38.216638,15.634336
VILLA SAN SEBASTIANO,Thu,0.6923076923076923,1.0,1,13,0,0,0,42.049331,13.308271
VILLABASSA - BRAIES,Thu,-0.53,0.0,8,100,3,1,0,46.736492,12.167041
VILLAFRANCA TIRRENA,Thu,9.0,9.0,1,1,1,1,0,38.233517,15.42892
VILLAMAGGIORE,Thu,4.244311377245509,4.0,71,835,436,231,35,45.32045,9.190674
VILLANOVA DI REGGIOLO,Thu,2.357894736842105,1.0,31,380,78,34,17,44.915925,10.842455
VILLANOVA D`ARDA,Thu,2.3575129533678756,1.0,15,193,49,35,10,45.028291,9.993291
VILLAROSA,Thu,2.7410714285714284,1.0,12,112,19,12,7,37.567205,14.200464
VILLASPECIOSA UTA,Thu,3.311158798283262,2.0,44,466,169,149,9,39.304168,8.940501
VILLETTA,Thu,0.18382352941176472,0.0,32,408,11,3,2,41.738237,12.649463
VOLTANA,Thu,2.803977272727273,2.0,28,352,108,42,8,44.540369,11.93605
ZAMBRA,Thu,0.6303448275862069,0.0,61,725,77,48,16,43.825856,11.206206
ZAMBRONE,Thu,2.9385474860335195,3.0,14,179,64,21,0,38.712738,15.976204
ZINASCO NUOVO,Thu,5.8074324324324325,5.0,24,296,214,116,22,45.124555,8.999657
ABANO TERME,Thu,1.8465909090909092,2.0,28,352,82,42,11,45.355199,11.811533
ABBIATEGRASSO,Thu,3.0224913494809686,2.0,46,578,199,102,32,45.400631,8.921305
ACIREALE,Thu,2.812911725955204,1.0,73,759,152,114,66,37.600514,15.163697
ACQUANEGRA CREMONESE,Thu,5.145161290322581,3.0,5,62,27,15,6,45.172102,9.888456
ALBANO DI LUCANIA,Thu,3.0576923076923075,1.0,4,52,16,7,3,40.574707,16.021247
ALBATE-TRECALLO,Thu,2.5808823529411766,2.0,22,272,69,26,4,45.777391,9.095752
ALBISOLA,Thu,1.9865196078431373,1.0,65,816,130,74,21,44.33469,8.512092
ALCAMO DIRAMAZIONE,Thu,3.759124087591241,2.0,11,137,46,25,10,37.978894,12.915916
ALLERONA-CASTEL VISCARDO,Thu,3.2318840579710146,2.0,11,138,32,15,9,42.78502,12.035236
ALTAVILLA M.,Thu,0.04893617021276596,0.0,37,470,23,9,1,38.048392,13.554421
AMANTEA,Thu,2.108490566037736,0.0,42,424,81,54,32,39.134353,16.068448
AMBIVERE MAPELLO,Thu,3.761421319796954,3.0,32,394,145,77,18,45.722163,9.550444
ANCONETTA,Thu,0.7736720554272517,1.0,35,433,160,39,10,45.565249,11.567865
APPIANO,Thu,1.9899057873485868,1.0,141,1486,237,59,8,41.909342,12.43838
ARBIA,Thu,1.5669291338582678,1.0,10,127,22,8,0,43.294393,11.406225
ARBOSTELLA,Thu,0.16666666666666666,0.0,12,12,0,0,0,40.677263,15.623814
ARCE,Thu,1.9298245614035088,1.0,12,114,29,17,3,41.583695,13.571848
ARECHI,Thu,0.05921052631578947,0.0,31,304,0,0,0,,
ARQUATA SCRIVIA,Thu,1.6013904982618772,1.0,69,863,211,124,41,44.692533,8.885342
ASCOLI SATRIANO,Thu,2.741573033707865,2.0,7,89,38,19,3,41.219859,15.547828
ASSEMINI S. LUCIA,Thu,0.014619883040935672,0.0,34,342,11,3,0,,
ASSISI,Thu,3.478181818181818,3.0,45,550,225,135,30,43.058921,12.585304
ASSO,Thu,0.022988505747126436,0.0,15,174,0,0,0,45.855228,9.268513
AVIGLIANA,Thu,1.4052910052910053,1.0,75,945,130,69,19,45.085276,7.401096
BAGNACAVALLO,Thu,6.233853006681515,4.0,37,449,240,155,71,44.412138,11.969398
BAIANO DI SPOLETO,Thu,2.9248554913294798,0.0,16,173,36,27,15,42.726238,12.663615
BANDITO,Thu,1.854066985645933,1.0,33,418,76,36,9,44.722075,7.819452
BARAGIANO,Thu,4.688622754491018,2.0,14,167,65,48,15,40.695213,15.569206
BARBIANO,Thu,4.666666666666667,3.0,4,51,23,18,5,44.387263,11.878086
BARCELLONA,Thu,2.1977401129943503,1.0,62,708,154,93,32,38.14918,15.212499
BARI VILLAGGIO DEL LAVORATORE,Thu,4.2592592592592595,2.0,29,351,161,124,14,,
BARI ZONA INDUSTRIALE,Thu,1.7535121328224776,0.0,61,783,137,89,34,,
BASSANO DEL GRAPPA,Thu,0.8351145038167939,1.0,52,655,92,33,14,45.766697,11.741525
BELLINZAGO,Thu,3.1340782122905027,2.0,14,179,55,21,4,45.566681,8.627652
BELLUNO,Thu,0.20048899755501223,0.0,50,409,21,13,8,46.141594,12.209703
BERCHIDDA,Thu,1.75,1.0,8,100,13,7,3,40.772052,9.181312
BERNALDA,Thu,2.3653846153846154,1.0,4,52,17,8,2,40.397616,16.682281
BIANZE`,Thu,2.5210843373493974,1.0,26,332,91,37,16,45.309488,8.115523
BIFORCO,Thu,4.955947136563877,4.0,18,227,129,60,17,44.068431,11.602243
BISCEGLIE,Thu,3.683689024390244,2.0,106,1312,459,252,88,41.235445,16.499484
BITETTO PALO DEL COLLE,Thu,1.9445910290237467,1.0,32,379,35,14,8,41.041481,16.74053
BIVIO D`AURISINA,Thu,1.792,1.0,30,375,61,28,4,45.754253,13.655777
BOLLATE NORD,Thu,0.8235765838011226,0.0,101,1247,100,35,4,,
BOLZANO NOVARESE,Thu,1.76,1.0,2,25,3,0,0,45.759357,8.440754
BORGHETTO,Thu,10.444444444444445,10.0,6,9,8,8,4,45.696721,10.927083
BORGO VAL DI TARO,Thu,2.925373134328358,2.0,40,469,167,103,21,44.486522,9.781489
BORGO VALSUGANA EST,Thu,2.3229166666666665,2.0,15,192,53,22,1,46.05224,11.462119
BORGOLOMBARDO,Thu,1.140461215932914,0.0,40,477,91,56,9,45.403856,9.27111
BOTRICELLO,Thu,3.151436031331593,2.0,31,383,114,66,27,38.933943,16.857433
BOVISO MASCIAGO - MOMBELLO,Thu,0.9841772151898734,1.0,28,316,27,9,2,,
BOZZOLO,Thu,6.687861271676301,5.0,27,346,208,157,56,45.107246,10.472655
BRENNERO,Thu,0.30833333333333335,-1.0,28,360,67,48,21,47.004117,11.505711
BRESCIA,Thu,3.2008217770929637,2.0,161,1947,603,349,133,45.532315,10.212828
BUCCINO S.,Thu,1.7173913043478262,1.0,11,92,24,14,4,40.600806,15.374199
BUDOIA POLCENIGO,Thu,-0.9107142857142857,-1.0,14,168,0,0,0,46.031464,12.537637
BUONCONVENTO,Thu,0.7459016393442623,0.0,12,122,17,12,3,43.135503,11.483773
BUSTO ARSIZIO,Thu,2.7225031605562577,1.0,287,3164,820,435,146,45.616164,8.865031
BUTTAPIETRA,Thu,3.3333333333333335,3.0,5,63,24,7,1,45.338787,10.988059
Bazzano (AQ),Thu,5.7,6.0,7,90,77,46,4,,
CALCERANICA,Thu,3.824390243902439,3.0,16,205,99,42,4,46.007384,11.240713
CALDE`,Thu,4.7176470588235295,3.0,28,340,169,87,20,45.945812,8.663157
CALDIERO,Thu,4.68586387434555,2.0,34,382,120,87,50,45.41407,11.169753
CALENZANO,Thu,11.25,8.0,4,4,4,3,2,43.856429,11.14537
CAMAIORE LIDO CAPEZZANO,Thu,8.25,5.0,4,4,3,2,1,43.912176,10.24765
CAMPELLO,Thu,3.2714285714285714,1.0,7,70,18,9,4,42.822814,12.761253
CAMPIGLIA MARITTIMA,Thu,2.849521203830369,1.0,63,731,201,138,51,43.017118,10.586558
CAMPOBELLO RAVANUSA,Thu,4.984126984126984,3.0,6,63,26,16,6,37.265731,13.946251
CAMPOFRANCO,Thu,2.9909090909090907,3.0,26,330,118,60,6,37.510105,13.686777
CAMPOLIGURE MASONE,Thu,4.546052631578948,3.0,24,304,141,76,27,44.530909,8.700878
CAMPORGIANO,Thu,3.411392405063291,3.0,25,316,118,64,5,44.161448,10.334849
CAMPOSAMPIERO,Thu,0.6514522821576764,0.0,80,964,78,43,14,45.568922,11.928293
CAMUCIA CORTONA,Thu,3.4991119005328595,3.0,45,563,223,115,34,43.261104,11.971245
CANCELLO ARNONE,Thu,4.19774011299435,1.0,14,177,46,33,18,41.063369,14.02901
CANDELA,Thu,4.9868421052631575,5.0,6,76,49,30,4,41.151439,15.533163
CANEGRATE,Thu,6.571608040201005,5.0,67,796,580,355,101,45.569235,8.926593
CAPACCIO ROCCADASPIDE,Thu,3.315035799522673,1.0,33,419,129,96,40,40.454518,15.013551
CAPO D`ORLANDO-NASO,Thu,3.390681003584229,1.0,50,558,144,92,49,38.157941,14.744844
CARBONA,Thu,3.034782608695652,2.0,9,115,33,7,1,44.246876,11.09618
CARBONIA SERBARIU,Thu,0.0,-1.0,16,190,7,4,2,39.169508,8.509186
CARMAGNOLA,Thu,1.653735632183908,1.0,109,1392,225,97,30,44.846944,7.72797
CARONIA,Thu,0.8282828282828283,0.0,18,198,22,13,5,38.034475,14.443761
CARRITO-ORTONA,Thu,5.5,2.0,3,4,2,2,1,42.026506,13.720179
CARSOLI,Thu,1.4038461538461537,1.0,26,312,61,35,11,42.09578,13.080388
CARUGO - GIUSSANO,Thu,0.001976284584980237,0.0,42,506,0,0,0,,
CASALE MONFERRATO,Thu,-1.0876132930513596,-2.0,26,331,35,21,9,45.133928,8.460292
CASALECCHIO DI RENO,Thu,3.7738264580369845,3.0,57,703,237,97,25,44.474298,11.276097
CASALECCHIO GARIBALDI,Thu,1.5695538057742782,1.0,103,1143,159,68,25,44.482995,11.272474
CASALGRANDE,Thu,2.2748091603053435,1.0,16,131,23,12,6,,
CASANOVA KAISERAU,Thu,1.739795918367347,1.0,31,392,57,21,4,,
CASARSA,Thu,1.418200408997955,1.0,86,978,177,61,16,45.953002,12.8406
CASORIA,Thu,1.8122270742358078,1.0,73,916,155,87,39,40.907762,14.29874
CASSAGO-NIBIONNO-BULCIAGO,Thu,3.6021276595744682,3.0,38,470,170,80,14,45.746243,9.279834
CASSOLA,Thu,1.0,1.0,1,1,0,0,0,45.732291,11.795866
CASTAGNO,Thu,1.6081081081081081,1.0,12,148,10,2,1,44.012359,10.91538
CASTELGUELFO,Thu,2.717391304347826,1.0,4,46,12,5,3,44.836434,10.176706
CASTELLINA CH,Thu,0.9247311827956989,1.0,31,372,60,21,5,43.408744,11.212379
CASTELLUCCHIO,Thu,5.167630057803469,3.0,27,346,159,113,47,45.144293,10.64749
CASTELRAIMONDO CAMERINO,Thu,3.101083032490975,3.0,22,277,109,47,9,43.210511,13.057274
CASTIGLION FIORENTINO,Thu,3.2473309608540926,2.0,45,562,216,108,31,43.34075,11.914362
CASTRONNO,Thu,3.8445783132530122,2.0,69,830,238,148,57,45.74524,8.810302
CATANIA ACQUICELLA,Thu,9.0,9.0,1,1,1,1,0,37.492765,15.074699
CATANIA CENTRALE,Thu,1.8047182175622543,-1.0,83,763,142,116,75,37.506211,15.099417
CATTOLICA S.GIOVANNI GABICCE,Thu,2.9572953736654806,1.0,45,562,168,108,43,43.959931,12.745087
CAVA CARBONARA,Thu,3.632716049382716,3.0,26,324,154,67,22,45.147055,9.071387
CAVA DEI TIRRENI,Thu,1.9818763326226012,1.0,82,938,181,101,33,40.703662,14.708461
CAVA MANARA,Thu,5.105263157894737,3.0,31,380,175,122,35,45.144867,9.115332
CAVA TIGOZZI,Thu,3.7096774193548385,2.0,5,62,17,9,5,45.156823,9.955827
CAVAZZALE,Thu,1.6166281755196306,1.0,35,433,97,43,10,45.596079,11.569823
CA` DI BOSCHETTI,Thu,4.0,4.0,1,1,1,0,0,44.117925,9.857449
CECCANO,Thu,1.0622119815668203,0.0,34,434,42,23,9,41.573583,13.336417
CEFALU`,Thu,1.5881104033970277,0.0,43,471,73,50,27,38.03285,14.019526
CELLE BULGHERIA ROCCAGLORIOSA,Thu,2.944700460829493,1.0,17,217,63,37,20,40.10287,15.39473
CENTALLO,Thu,1.9520697167755992,1.0,36,459,92,46,11,44.496223,7.591035
CERDA,Thu,1.7821782178217822,2.0,16,202,23,12,6,37.953964,13.78447
CERIALE,Thu,6.0,7.0,3,3,2,2,0,44.098922,8.234216
CERNUSCO-MERATE,Thu,3.486013986013986,2.0,71,858,252,156,50,45.695096,9.396794
CERTALDO,Thu,2.5291723202170964,2.0,61,737,252,104,16,43.547124,11.037711
CESENA,Thu,3.28988326848249,1.0,87,1028,336,251,137,44.145449,12.24964
CHIARAVALLE,Thu,-3.1,-4.0,22,270,17,9,4,43.595503,13.327655
CHIAVARI,Thu,3.030456852791878,1.0,116,1379,392,254,90,44.315156,9.322464
CHIAVENNA,Thu,1.1727748691099475,1.0,15,191,22,12,3,46.321258,9.407129
CHIETI,Thu,1.5181451612903225,1.0,39,496,83,30,12,42.356905,14.13815
CHIETI-MAD.D.P.,Thu,5.20391061452514,4.0,28,358,245,118,13,,
CHIURO,Thu,1.5294117647058822,1.0,4,51,6,3,2,46.164658,9.992317
CHIUSI C.T.,Thu,2.3945086705202314,1.0,64,692,196,115,55,43.002466,11.957893
CINISI TERRASINI,Thu,3.4035087719298245,1.0,9,114,25,19,7,38.155314,13.096673
CIVITA D`ANTINO-MORINO,Thu,2.7009345794392523,1.0,12,107,25,12,3,41.870632,13.458868
CIVITANOVA MARCHE,Thu,3.097537878787879,2.0,83,1056,321,196,79,43.3091,13.7257
CIVITELLA ROVETO,Thu,2.2660550458715596,1.0,12,109,23,11,3,41.916419,13.424882
CODOLA,Thu,2.2142857142857144,1.0,5,14,5,2,1,40.767687,14.665622
COLICO,Thu,2.7327478042659976,2.0,63,797,225,119,46,46.138019,9.375222
COLLE MATTIA,Thu,1.4361158432708687,1.0,46,587,73,37,9,41.832756,12.728329
COLLEGNO,Thu,1.1248677248677248,0.0,75,945,136,69,16,45.078854,7.574131
COLLEVECCHIO,Thu,1.3088235294117647,1.0,33,408,38,14,7,42.298089,12.520546
COLORNO,Thu,3.979002624671916,2.0,31,381,140,91,27,44.927943,10.382935
CONDOFURI,Thu,2.316546762589928,2.0,11,139,27,11,5,37.92761,15.874952
CONDOVE,Thu,0.7803468208092486,0.0,42,519,54,30,8,45.106689,7.317022
CONEGLIANO,Thu,0.5057559478127398,0.0,114,1303,139,64,24,45.884706,12.298909
CONTESSE,Thu,0.6055555555555555,0.0,14,180,12,3,1,38.16193,15.544717
CORDOVADO SESTO,Thu,2.0327868852459017,1.0,26,305,82,7,1,45.850653,12.877784
CORMONS,Thu,1.0313588850174216,0.0,45,574,71,45,14,45.957519,13.461563
CORNIGLIA,Thu,3.45863309352518,2.0,86,556,172,100,28,44.119938,9.711051
CORRIDONIA MOGLIANO,Thu,1.6071428571428572,1.0,13,168,28,15,5,43.281616,13.477697
COSIO TRAONA,Thu,3.5551181102362204,3.0,20,254,100,52,14,46.135564,9.525498
CRESPELLANO,Thu,2.109302325581395,1.0,46,430,68,24,5,,
CRESPINO DEL LAMONE,Thu,3.175438596491228,2.0,18,228,73,35,11,,
CUCCIAGO,Thu,6.473684210526316,6.0,17,19,11,11,3,45.740813,9.082205
CUNEO,Thu,-0.8710601719197708,-2.0,30,349,24,15,7,44.387914,7.536235
CUPRAMARITTIMA,Thu,3.012396694214876,2.0,38,484,159,86,23,43.02349,13.860812
CUTRO,Thu,8.56,6.0,2,25,19,15,6,39.02593,16.963809
CUZZAGO,Thu,4.080645161290323,2.0,15,186,53,34,15,45.993682,8.373989
DEGO,Thu,1.4654377880184333,1.0,17,217,18,8,6,44.448003,8.308469
DEIVA MARINA,Thu,3.00390625,1.0,44,512,156,110,35,44.217306,9.519022
DERVIO,Thu,3.2412698412698413,2.0,25,315,107,55,19,46.077709,9.30596
DESENZANO,Thu,4.210059171597633,2.0,54,676,252,157,56,45.462677,10.536322
DOLO,Thu,1.223529411764706,0.0,99,1190,130,81,29,45.453466,12.07161
DOMODOSSOLA,Thu,2.052873563218391,-1.0,37,435,92,72,36,46.115429,8.296684
DONNAZ,Thu,4.035714285714286,3.0,20,252,98,56,19,45.602713,7.769563
DORMELLETTO PAESE,Thu,1.7094972067039107,1.0,14,179,19,7,1,45.730032,8.574324
DOSSOBUONO,Thu,3.4234234234234235,3.0,26,333,126,53,7,45.392382,10.914831
EMPOLI,Thu,0.7912912912912913,0.0,171,1998,306,150,53,43.715708,10.94915
FABRO-FICULLE,Thu,3.5838709677419356,2.0,25,310,94,54,20,42.874851,12.04123
FANZOLO,Thu,1.8233532934131738,1.0,26,334,47,14,4,45.708253,11.992069
FERNO LONATE POZZOLO,Thu,0.9594594594594594,1.0,38,444,23,8,5,,
FERRANDINA,Thu,5.162962962962963,1.0,12,135,44,31,15,40.516566,16.475276
FIGLINE VALDARNO,Thu,3.007188498402556,2.0,99,1252,393,221,70,43.621596,11.473652
FIRENZE CASTELLO,Thu,1.2748344370860927,1.0,76,906,130,64,20,43.819444,11.21838
FIUMEFREDDO DI SICILIA,Thu,2.698517298187809,1.0,50,607,164,96,46,37.795247,15.205615
FOGGIA,Thu,4.114035087719298,2.0,90,1026,365,239,125,41.466,15.555816
FOLIGNO,Thu,2.4266862170087977,1.0,56,682,188,110,44,42.954261,12.711096
FONDI - SPERLONGA,Thu,2.5886736214605066,1.0,55,671,171,95,34,41.337663,13.424893
FONTANA LIRI INFERIORE,Thu,6.0,6.0,1,1,1,1,0,,
FORMIA-GAETA,Thu,4.012131715771231,1.0,103,1154,364,249,114,41.258773,13.605996
FORNACI DI BARGA,Thu,2.318713450292398,2.0,27,342,111,47,4,44.045253,10.473173
FOSSACESIA - TORINO DI SANGRO,Thu,1.8029739776951672,1.0,21,269,54,29,11,42.237648,14.525456
FRASCATI,Thu,-1.4292682926829268,-2.0,16,205,8,2,1,41.806881,12.677962
FROSINONE,Thu,-0.3426666666666667,-1.0,59,750,72,45,29,41.625333,13.328728
GAMBOLO`REMONDO`,Thu,4.63258785942492,3.0,25,313,125,64,16,45.23587,8.79757
GARBAGNA,Thu,2.9696969696969697,2.0,21,264,63,29,8,45.385552,8.66627
GARLASCO,Thu,2.070063694267516,1.0,25,314,77,41,12,45.198948,8.926829
GATTEO A MARE,Thu,6.0423728813559325,2.0,30,354,115,87,51,44.170691,12.432057
GENOVA BOLZANETO,Thu,0.8508371385083714,1.0,53,657,76,33,5,44.459208,8.900193
GENOVA BORZOLI,Thu,3.6301369863013697,2.0,23,292,106,74,26,44.434704,8.866648
GENOVA CORNIGLIANO,Thu,5.0,6.0,3,3,2,2,0,44.414752,8.865035
GENOVA NERVI,Thu,2.5096227867590453,1.0,102,1299,369,251,69,44.381271,9.039895
GENOVA VIA DI FRANCIA,Thu,7.666666666666667,7.0,3,3,3,3,0,44.411126,8.90192
GHEDI,Thu,5.461290322580645,2.0,25,310,129,80,34,45.409439,10.280506
GIAMPILIERI,Thu,0.7654639175257731,-1.0,31,388,59,32,12,38.080121,15.493863
GIOJOSA MAREA,Thu,1.3948220064724919,1.0,26,309,57,31,10,38.175149,14.894794
GIUNCANO,Thu,22.6,5.0,5,5,3,2,2,42.647802,12.637694
GLORIE,Thu,2.607843137254902,2.0,4,51,12,8,0,44.483341,12.075736
GONZAGA-REGGIOLO,Thu,1.5528255528255528,1.0,32,407,56,33,17,44.939239,10.815533
GRECCIO,Thu,2.874015748031496,2.0,21,254,77,36,8,42.462872,12.777009
GRICIGNANO,Thu,1.614814814814815,1.0,33,405,61,34,13,40.998742,14.241657
GRIGNO,Thu,2.6927374301675977,2.0,14,179,54,20,0,46.015059,11.624984
GROPELLO CAIROLI,Thu,5.060897435897436,4.0,25,312,209,93,21,45.173101,8.991626
GROSSETO,Thu,2.0,0.0,57,634,153,104,47,42.76728,11.1065
GUASTALLA,Thu,-0.5975609756097561,-1.0,37,328,31,10,5,,
IL CIONFO BIN. LE CURE,Thu,1.68,1.0,10,125,13,4,1,43.786182,11.268501
IL NETO,Thu,5.0,5.0,1,1,1,0,0,43.839624,11.182656
IMPERIA,Thu,3.2911931818181817,2.0,57,704,236,147,47,43.88051,8.019182
ISOLA DELLA SCALA,Thu,4.6742671009771986,3.0,24,307,149,92,31,45.269474,11.013312
ISOLETTA-S.GIOVANNI I.,Thu,2.0465686274509802,1.0,32,408,42,20,8,41.527873,13.547095
LA RUSTICA UIR,Thu,0.7546699875466999,0.0,64,803,73,36,7,,
LABRO MOGGIO,Thu,9.026315789473685,9.0,3,38,37,31,13,42.506131,12.746224
LAMEZIA TERME SAMBIASE,Thu,3.6299435028248586,2.0,29,354,108,63,12,38.959927,16.284962
LANUVIO,Thu,1.8795180722891567,0.0,51,581,74,49,25,41.672211,12.690885
LASTRA A SIGNA,Thu,5.5588235294117645,4.0,23,34,21,12,4,,
LATIANO,Thu,2.766990291262136,2.0,16,206,49,27,8,40.558074,17.717629
LAVENO MOMBELLO,Thu,3.7065527065527064,2.0,29,351,129,71,25,45.903272,8.624583
LAVIS,Thu,10.0,9.0,13,17,14,11,7,46.148306,11.095993
LE PIAGGE,Thu,9.0,3.0,2,2,1,1,1,43.789684,11.171665
LECCE,Thu,2.1454918032786887,-1.0,43,488,101,73,41,40.34566,18.165724
LEONFORTE-PIRATO,Thu,4.355140186915888,1.0,12,107,31,21,9,37.606305,14.376063
LERINO,Thu,9.0,9.0,1,1,1,1,0,45.518725,11.63567
LEVANTO,Thu,2.0728260869565216,1.0,90,920,214,127,47,44.174167,9.616018
LIMONE,Thu,-2.2045454545454546,-3.0,13,132,4,4,0,44.203799,7.577912
LISSONE-MUGGIO`,Thu,3.488680718188915,2.0,114,1281,414,232,81,45.60592,9.235368
LOCATE TRIULZI,Thu,3.9445100354191265,3.0,71,847,380,204,35,45.35973,9.221398
LODI,Thu,2.6501787842669846,2.0,136,1678,537,340,106,45.308966,9.497585
LONGARONE ZOLDO,Thu,1.8814814814814815,2.0,18,135,20,7,2,46.267466,12.301953
LUINO,Thu,4.923076923076923,3.0,15,182,85,41,14,45.996643,8.737464
MACCARESE,Thu,1.6,1.0,79,1000,141,66,26,41.879372,12.23695
MADDALONI INFERIORE,Thu,17.363636363636363,10.0,10,11,11,11,4,41.035954,14.380504
MAGLIANA,Thu,2.3516339869281047,2.0,126,1530,335,112,22,41.834235,12.431017
MALPENSA AEROPORTO T1,Thu,0.0,0.0,39,339,0,0,0,,
MANERBIO,Thu,1.6571428571428573,2.0,33,420,100,32,10,45.357212,10.132348
MANZANO,Thu,1.8575581395348837,1.0,27,344,41,25,8,45.98811,13.375016
MARATEA,Thu,4.285714285714286,1.0,39,434,146,106,53,39.995028,15.70975
MARCIANISE,Thu,16.0,16.0,1,1,1,1,1,41.03596,14.287658
MARRUBIU TERRALBA ARBOREA,Thu,2.286259541984733,1.0,21,262,63,27,9,39.75293,8.641144
MASCALI,Thu,10.0,10.0,1,1,1,1,0,37.765403,15.1942
MASSAFISCAGLIA,Thu,1.7751479289940828,1.0,18,169,25,8,2,,
MELE,Thu,5.1331058020477816,3.0,23,293,139,96,38,44.472797,8.733953
MELEGNANO,Thu,2.493951612903226,1.0,41,496,131,75,12,45.356321,9.319271
MELFI,Thu,1.2534246575342465,1.0,23,292,91,54,5,40.989871,15.646895
MERANO,Thu,2.067857142857143,2.0,22,280,65,25,8,46.673066,11.148978
MERANO MAIA BASSA,Thu,1.9568345323741008,1.0,44,556,119,38,5,46.656202,11.147931
MERCATELLO,Thu,0.19407894736842105,0.0,31,304,4,0,0,40.606491,15.38979
MESSINA CENTRALE,Thu,2.2611940298507465,0.0,77,804,140,80,53,38.184975,15.561278
MEZZOCORONA,Thu,4.451271186440678,3.0,74,944,421,262,58,46.207258,11.128595
MIGLIARO,Thu,1.9226190476190477,1.0,18,168,22,9,2,,
MILANO AFFORI,Thu,2.0348101265822787,2.0,28,316,60,28,3,,
MILANO LAMBRATE,Thu,3.466540999057493,2.0,351,4244,1459,842,296,45.484933,9.237333
MILANO NORD DOMODOSSOLA,Thu,0.0009512485136741974,0.0,341,4205,0,0,0,,
MILANO PORTA GARIBALDI,Thu,2.675131926121372,2.0,246,3032,889,499,178,45.484917,9.187683
MILANO REPUBBLICA,Thu,4.566586682663467,3.0,271,3334,1595,889,285,,
MILANO ROMOLO,Thu,25.0,24.0,1,2,2,2,2,45.445008,9.168933
MILANO S. CRISTOFORO,Thu,1.0485148514851486,-1.0,89,1010,201,132,54,45.442404,9.130258
MILANO TIBALDI,Thu,26.0,25.0,1,2,2,2,2,,
MILAZZO,Thu,2.2552011095700415,1.0,63,721,157,95,32,38.21195,15.244203
MILITELLO,Thu,1.9714285714285715,1.0,4,35,7,1,1,37.277194,14.78317
MIRADOLO TERME,Thu,5.136029411764706,4.0,22,272,164,99,15,45.162007,9.449952
MIRTO CROSIA,Thu,5.874476987447698,4.0,20,239,139,86,25,39.604876,16.777366
MOGLIANO VENETO,Thu,1.0260196905766525,0.0,117,1422,172,86,24,45.561964,12.23274
MOMBARUZZO,Thu,0.6492146596858639,0.0,16,191,13,7,1,44.76235,8.441006
MONCALIERI SANGONE,Thu,4.142095914742451,3.0,44,563,277,149,17,45.000393,7.667991
MONDOVI`,Thu,1.0232067510548524,-1.0,37,474,51,28,15,44.398255,7.816339
MONGUELFO VALLE DI CASIES,Thu,0.63,0.0,8,100,4,1,0,46.752775,12.107264
MONTALE AGLIANA,Thu,77.5,10.0,2,2,2,2,1,43.912924,11.008309
MONTEBELLUNA,Thu,1.9319148936170212,1.0,49,470,70,28,14,45.776434,12.054
MONTECOSARO,Thu,2.8488372093023258,2.0,27,344,92,41,13,43.289297,13.646378
MONTELLO GORLAGO,Thu,2.6772823779193207,2.0,37,471,155,73,12,45.67017,9.808488
MONTEMARCIANO,Thu,3.729483282674772,2.0,26,329,120,91,28,43.651397,13.346478
MONTERONI D`ARBIA,Thu,0.03461538461538462,0.0,25,260,26,15,5,43.230036,11.419662
MONTESANTO,Thu,2.981651376146789,2.0,26,327,94,43,6,44.732964,11.73652
MONTICELLO D`ALBA,Thu,1.141304347826087,0.0,15,184,12,9,4,44.703736,7.965002
MONTORSOLI,Thu,9.0,9.0,1,1,1,1,0,43.881903,11.265484
MONZA SOBBORGHI,Thu,3.2448979591836733,2.0,40,490,139,77,15,45.582082,9.284375
MOSCIANO S. ANGELO,Thu,5.6828752642706135,7.0,38,473,249,243,121,42.710309,13.908563
MOTTA DI LIVENZA,Thu,0.948339483394834,0.0,22,271,29,15,4,45.779114,12.607118
NAPOLI AFRAGOLA,Thu,5.2741258741258745,3.0,59,715,326,263,141,,
NAPOLI CAMPI FLEGREI,Thu,-0.6221579164944192,-1.0,199,2419,163,84,39,40.822462,14.194649
NAPOLI S.GIOV.BARRA,Thu,0.26785714285714285,0.0,142,1624,117,59,26,40.831269,14.307811
NEPEZZANO-PIANO D'ACCIO,Thu,5.209183673469388,5.0,32,392,386,100,8,,
NICORVO,Thu,4.379061371841155,4.0,22,277,143,49,11,45.275462,8.6712
NOCERA INFERIORE,Thu,2.7200435729847494,2.0,82,918,239,98,33,40.745318,14.635346
NOTO,Thu,2.136904761904762,1.0,16,168,29,22,11,36.88247,15.074523
NOVELLARA,Thu,0.13989637305699482,0.0,24,193,14,8,5,,
NUS,Thu,3.2545454545454544,2.0,35,440,124,61,27,45.738786,7.4712
OCCHIOBELLO,Thu,4.0546875,3.0,10,128,50,28,9,44.899384,11.621197
OLGIATE-CALCO-BRIVIO,Thu,3.2366504854368934,1.0,68,824,225,148,46,45.729166,9.40377
OLMI SPERCENIGO,Thu,2.6296296296296298,2.0,22,270,47,19,3,45.679467,12.338101
ORICOLA-PERETO,Thu,1.9463087248322148,1.0,12,149,22,10,4,42.067835,13.044214
ORTA MIASINO,Thu,2.3093922651933703,1.0,14,181,51,35,7,45.795865,8.421217
ORVIETO,Thu,4.080962800875273,2.0,39,457,156,99,42,42.723379,12.127412
OSCHIRI,Thu,1.6616915422885572,1.0,16,201,25,17,9,40.713273,9.107749
OSPEDALETTO LODIGIANO,Thu,2.195571955719557,2.0,22,271,86,38,9,45.16933,9.575164
OSTIA PARMENSE,Thu,3.0168067226890756,2.0,30,357,131,83,13,44.520136,9.844981
OZZANO TARO,Thu,4.172774869109948,3.0,33,382,173,102,20,44.712268,10.141022
P.M.TORRICCHIO,Thu,2.0,2.0,1,1,0,0,0,,
PADERNO DUGNANO,Thu,0.25922818791946306,0.0,99,1192,33,9,2,,
PAGANI,Thu,3.6184738955823295,3.0,65,747,286,111,32,40.74654,14.616996
PALIDANO,Thu,3.3759590792838874,2.0,31,391,108,41,16,44.972228,10.777412
PALMI,Thu,1.5319148936170213,1.0,47,517,72,44,13,38.364914,15.84438
PARMA,Thu,3.3663265306122447,2.0,169,1960,619,395,190,44.810203,10.32837
PERUGIA,Thu,1.9793814432989691,1.0,39,485,130,62,20,43.103808,12.375567
PESARO,Thu,4.423923444976077,2.0,89,1045,400,275,139,43.906014,12.904848
PESSIONE,Thu,2.617283950617284,2.0,32,405,93,34,3,44.965132,7.841321
PIACENZA,Thu,3.419970631424376,1.0,120,1362,463,308,164,45.052238,9.70633
PIADENA,Thu,6.079825834542816,4.0,55,689,396,249,78,45.127608,10.369962
PIAZZA AMEDEO,Thu,-0.9487632508833922,-2.0,223,1132,61,38,15,40.838506,14.232974
PIETRA LIGURE,Thu,3.2039473684210527,2.0,49,608,238,135,24,44.145345,8.277403
PIETRARSA,Thu,21.0,14.0,3,3,3,3,3,40.822433,14.32058
PIETRASANTA,Thu,3.6926174496644295,2.0,67,745,272,155,40,43.95583,10.229731
PIEVE ALBIGNOLA,Thu,5.787162162162162,5.0,24,296,214,116,22,45.116248,8.959723
PIEVE LIGURE,Thu,11.0,11.0,1,1,1,1,1,44.372644,9.090975
PINEROLO OLIMPICA,Thu,4.260714285714286,3.0,44,560,218,107,25,44.893325,7.349043
PIOMBINO BINARI MARE,Thu,0.4107142857142857,0.0,7,56,3,1,0,42.928931,10.54525
PIONA,Thu,3.1234177215189876,2.0,25,316,89,50,15,46.124696,9.350759
PIOPPE DI SALVARO,Thu,3.0342857142857143,2.0,42,525,101,35,15,44.310761,11.161785
PISTOIA OVEST,Thu,0.49324324324324326,0.0,12,148,3,1,0,,
POGGIBONSI,Thu,2.1630434782608696,2.0,61,736,240,122,13,43.468093,11.149455
POGGIO MIRTETO,Thu,-0.15700934579439252,-1.0,43,535,26,14,7,42.242187,12.633043
POLLENZA,Thu,18.0,0.0,2,2,1,1,1,43.240933,13.367031
POLLINA,Thu,0.2608695652173913,-1.0,20,230,26,17,12,38.018,14.175943
PONTASSIEVE,Thu,3.1313291139240507,2.0,101,1264,439,219,52,43.773949,11.437904
PONTE A MORIANO,Thu,3.8814589665653494,3.0,26,329,147,56,10,43.908371,10.534264
PONTE CASALDUNI,Thu,1.6490384615384615,0.0,17,208,57,45,10,41.214169,14.696458
PONTE DELLA VENTURINA,Thu,1.816326530612245,2.0,12,147,27,5,1,44.128589,10.990756
PONTE DI NONA,Thu,0.20373831775700935,-1.0,86,1070,108,44,11,42.061563,13.581585
PONTE DI PIAVE,Thu,1.0258302583025831,0.0,22,271,26,13,3,45.719624,12.460683
PONTE GARDENA,Thu,2.597359735973597,1.0,47,606,160,102,43,46.6012,11.53251
PONTE NELLE ALPI POLPET,Thu,0.11279826464208242,0.0,46,461,18,7,2,46.182328,12.277604
PONTE S.PIETRO,Thu,4.595480225988701,3.0,72,885,400,241,62,45.69916,9.584322
PONTECCHIO MARCONI,Thu,2.40625,2.0,5,64,14,4,1,44.42294,11.26919
PONTICINO,Thu,3.4534653465346534,3.0,40,505,195,90,29,43.481446,11.71657
PORCARI,Thu,5.0,4.0,22,272,167,105,23,43.831263,10.619212
PORDENONE,Thu,0.2963386727688787,-1.0,77,874,98,48,13,45.956281,12.654126
PORTO CERESIO,Thu,3.611111111111111,2.0,17,216,69,43,17,45.903675,8.900357
POTENZA CENTRALE,Thu,1.1209068010075567,-1.0,33,397,52,34,19,40.629469,15.806808
POVO,Thu,2.273170731707317,2.0,16,205,58,30,2,,
PRATIGNONE,Thu,11.0,11.0,1,1,1,1,1,43.849273,11.162008
PRATO BORGONUOVO,Thu,58.666666666666664,16.0,3,3,3,2,2,43.893216,11.076222
PREMOSELLO CHIOVENDA,Thu,2.8333333333333335,1.0,32,396,90,62,23,46.002188,8.326649
PRIMOLANO,Thu,2.988826815642458,3.0,14,179,65,17,0,45.965315,11.700899
QUARTO D`ALTINO,Thu,2.3370044052863435,1.0,74,908,197,93,25,45.574576,12.365032
QUATTRO VENTI,Thu,1.7745098039215685,1.0,145,1530,221,70,11,41.880145,12.459731
QUISTELLO,Thu,3.037313432835821,1.0,14,134,34,22,11,,
RAPALLO,Thu,8.107142857142858,7.0,22,28,19,15,9,44.351398,9.231282
RAVENNA,Thu,3.8147138964577656,2.0,60,734,218,160,84,44.419155,12.208404
REGGIO DI CALABRIA OMECA,Thu,9.333333333333334,9.0,3,3,2,2,1,,
REGGIO DI CALABRIA PELLARO,Thu,1.1181102362204725,1.0,42,508,51,16,4,38.02561,15.650064
REGGIO DI CALABRIA S.CATERINA,Thu,4.0,4.0,1,1,1,0,0,,
REMEDELLO SOPRA,Thu,7.670967741935484,5.0,25,310,216,154,37,45.27848,10.379211
RICADI,Thu,2.4504950495049505,2.0,20,202,63,26,7,38.630676,15.839848
RIETI,Thu,2.768595041322314,2.0,29,363,114,46,12,42.405918,12.862596
RIGNANO SULL`ARNO REGGELLO,Thu,2.1392857142857142,1.0,66,840,206,100,34,43.720834,11.452383
ROCCA DI CORNO,Thu,-0.015873015873015872,-1.0,15,189,27,7,1,42.388164,13.143939
ROCCA D`EVANDRO,Thu,3.8,3.0,22,265,107,68,26,41.438861,13.911338
ROCCALUMERA MANDANICI,Thu,3.806349206349206,2.0,27,315,120,72,27,37.972946,15.391411
ROCCASECCA,Thu,0.5931952662721893,-1.0,54,676,60,32,14,41.526377,13.645814
ROCCAVIONE,Thu,2.125,2.0,26,264,29,10,3,44.314445,7.485361
ROCCELLA JONICA,Thu,3.035971223021583,2.0,34,417,149,105,36,38.322043,16.406917
ROCCHETTA CAIRO,Thu,2.6313364055299537,2.0,17,217,28,12,7,44.427477,8.295356
ROCCHETTA TANARO CERRO,Thu,2.2754491017964074,1.0,13,167,37,13,6,44.875574,8.351402
RODALLO,Thu,2.064327485380117,1.0,27,342,58,30,14,45.278714,7.878025
ROMA MONTE MARIO,Thu,1.3572841133816744,1.0,143,1517,159,47,10,41.939088,12.421732
ROMA NOMENTANA L.L.,Thu,0.9975786924939467,1.0,136,1652,164,76,22,41.932935,12.523628
ROMA S.FILIPPO NERI,Thu,1.3467369808833223,1.0,143,1517,186,52,9,41.950262,12.412414
ROMA TUSCOLANA,Thu,0.8476714100905562,0.0,278,3092,357,151,41,41.879384,12.523505
ROMANORE,Thu,2.0683544303797468,1.0,31,395,86,42,18,45.063834,10.750997
RONCEGNO BAGNI-MARTER,Thu,2.4558823529411766,2.0,16,204,66,19,1,46.03618,11.398818
ROVASENDA,Thu,2.8333333333333335,2.0,30,306,70,33,10,45.537291,8.317376
ROVATO,Thu,2.116331096196868,1.0,107,1341,312,176,69,45.55193,10.000924
ROVERBELLA,Thu,1.6927710843373494,1.0,26,332,60,27,8,45.252645,10.796795
ROVERETO,Thu,3.815525876460768,2.0,94,1198,483,296,97,45.890985,11.033518
ROVIGO,Thu,0.9454545454545454,-1.0,72,825,148,96,46,45.076993,11.780892
RUDALZA,Thu,1.3846153846153846,1.0,10,130,2,2,0,40.994082,9.531214
RUSSI,Thu,5.9411764705882355,3.0,48,578,266,162,74,44.379011,12.03164
S. ANTONINO VAIE,Thu,1.0096153846153846,0.0,42,520,54,29,7,45.109469,7.275931
S. CRISTINA E BISSONE,Thu,5.125,4.0,22,272,164,99,14,45.160533,9.401006
S. EUROSIA,Thu,2.212987012987013,1.0,35,385,45,24,11,41.675927,12.755105
S. STEFANO DI MAGRA,Thu,2.303435114503817,1.0,51,524,120,59,23,44.156857,9.915202
S. ZENO FOLZANO,Thu,3.313131313131313,2.0,55,693,159,75,31,45.491552,10.211683
S.ANTONIO MANTOVANO,Thu,1.8258258258258258,1.0,26,333,62,31,5,45.187447,10.785806
S.BENEDETTO DEL TRONTO,Thu,3.8994708994708995,3.0,76,945,366,229,92,42.954386,13.882297
S.BIAGIO DI CALLALTA,Thu,0.5,0.0,22,272,22,12,3,45.686134,12.374316
S.CATERINA DELL`JONIO,Thu,3.9714285714285715,4.0,7,70,37,30,5,38.530452,16.571093
S.CROCE DEL LAGO,Thu,2.2616822429906542,1.0,19,214,36,18,5,46.094795,12.324068
S.FREDIANO A SETTIMO,Thu,9.4,6.0,5,5,3,3,2,43.680508,10.517254
S.GIOVANNI AL NATISONE,Thu,1.2790697674418605,1.0,27,344,44,26,8,45.976122,13.397437
S.GIOVANNI VALDARNO,Thu,3.1384,2.0,99,1250,392,216,66,43.56601,11.527033
S.GIULIANO PIEMONTE,Thu,1.8742857142857143,2.0,14,175,31,11,2,44.890543,8.760933
S.LORENZO MAGGIORE,Thu,2.8016528925619837,1.0,12,121,37,26,9,41.219748,14.648419
S.NICOLA T.,Thu,6.0,1.0,2,2,1,1,1,38.015817,13.612755
S.NICOLO',Thu,6.384083044982699,3.0,24,289,126,83,46,45.058843,9.606443
S.PIETRO IN CASALE,Thu,2.3005649717514123,1.0,71,885,198,122,48,44.697928,11.404763
S.VINCENZO V.R.,Thu,2.0,2.0,1,1,0,0,0,41.832988,13.526148
S.VITTORIA,Thu,1.159493670886076,0.0,32,395,40,22,8,44.69561,7.916909
SAIRANO,Thu,5.908127208480566,5.0,23,283,210,115,22,45.138858,9.046868
SALA AL BARRO-GALBIATE,Thu,4.194748358862144,3.0,37,457,194,101,24,45.821086,9.359223
SALUSSOLA,Thu,0.7401574803149606,0.0,30,381,15,8,5,45.44438,8.115195
SAN GAVINO,Thu,0.34108527131782945,-1.0,41,516,62,42,21,39.546206,8.788017
SAN GIORGIO DI NOGARO,Thu,1.1115702479338843,0.0,39,484,58,36,14,45.82917,13.210315
SANGIANO,Thu,5.9614243323442135,4.0,28,337,209,108,33,45.874464,8.630769
SANTUARIO,Thu,0.9066666666666666,1.0,6,75,2,1,1,44.34607,8.435756
SAPRI,Thu,3.9054054054054053,1.0,53,592,192,142,81,40.078013,15.627204
SARMATO,Thu,29.0,29.0,1,1,1,1,1,45.063043,9.491116
SARTIRANA,Thu,2.0132013201320134,1.0,24,303,71,38,9,45.111728,8.67012
SASSUOLO RADICI,Thu,5.181818181818182,3.0,8,66,29,16,5,,
SCHIVENOGLIA,Thu,3.0217391304347827,1.0,14,138,40,19,10,,
SCICLI,Thu,1.9473684210526316,1.0,12,133,31,19,6,36.789939,14.698759
SCORCETOLI,Thu,5.6,4.0,3,20,13,10,2,44.34431,9.911853
SCORDIA,Thu,3.2222222222222223,2.0,4,36,13,7,2,37.294595,14.851219
SELLA DI CORNO,Thu,0.2,-1.0,13,165,14,7,2,42.360461,13.189876
SERIATE,Thu,2.135593220338983,2.0,37,472,99,49,10,45.683145,9.724628
SERRAMANNA NURAMINIS,Thu,0.7283950617283951,0.0,32,405,27,19,7,39.426123,8.916579
SETTE BAGNI,Thu,1.5751231527093597,1.0,134,1624,129,49,18,42.006438,12.520156
SETTEQUERCE,Thu,4.179361179361179,4.0,32,407,238,106,4,46.508448,11.264785
SICIGNANO DEGLI ALBURNI,Thu,4.735294117647059,2.0,12,136,57,38,11,40.605454,15.290904
SILLA,Thu,3.6061185468451242,2.0,42,523,146,61,16,44.177652,10.980635
SILVI,Thu,2.340028694404591,1.0,55,697,167,94,26,42.55911,14.110365
SIPICCIANO,Thu,2.0043478260869567,1.0,18,230,45,23,5,42.546495,12.254318
SIPICCIANO S.NICOLA,Thu,1.2745098039215685,0.0,4,51,8,2,1,,
SOLAROLO,Thu,6.433789954337899,4.0,36,438,256,170,71,44.356425,11.849183
SOLARUSSA,Thu,0.35294117647058826,0.0,4,51,3,1,1,39.952525,8.679813
SOMMARIVA BOSCO,Thu,1.9230769230769231,0.0,34,429,92,46,11,44.770754,7.777086
SONDRIO,Thu,3.36784140969163,2.0,36,454,145,90,34,46.167064,9.872928
SORA,Thu,1.0535714285714286,1.0,12,112,20,11,5,41.716618,13.618601
SPINEA,Thu,1.8729763387297633,1.0,63,803,113,54,27,45.491568,12.177168
SPINETTA,Thu,2.2,2.0,14,175,33,11,2,44.882378,8.683146
SQUILLACE,Thu,16.0,16.0,1,1,1,1,1,38.77705,16.570418
STABIO,Thu,0.5620608899297423,-1.0,35,427,37,24,9,,
SU CANALE,Thu,3.274193548387097,2.0,5,62,22,12,2,40.838375,9.404226
SUNO,Thu,4.48051948051948,2.0,6,77,24,15,8,45.620435,8.519344
SUSA,Thu,-0.17567567567567569,-1.0,18,222,14,7,3,45.138622,7.052311
TAGGIA ARMA,Thu,3.0960118168389954,2.0,54,677,201,118,38,43.840764,7.835604
TARANTO,Thu,1.7551487414187643,-1.0,38,437,65,48,33,40.483727,17.224059
TARGIA,Thu,2.5,2.0,2,12,2,1,0,37.10963,15.245908
TAVAZZANO,Thu,0.010395010395010396,-1.0,40,481,85,42,4,45.32629,9.402748
TERMOLI,Thu,4.694444444444445,2.0,46,540,209,146,88,42.000623,14.992805
TERNI,Thu,1.7649402390438247,0.0,52,502,122,76,32,42.570768,12.651091
TEZZE DI GRIGNO,Thu,3.64804469273743,3.0,14,179,81,33,1,45.990485,11.669726
TOLENTINO,Thu,2.3093525179856114,2.0,22,278,89,42,9,43.214556,13.290501
